$GNTXT,01,01,02,u-blox AG - www.u-blox.com*4E

$GNTXT,01,01,02,HW UBX-M8030 00080000*60
$GNTXT,01,01,02,ROM CORE 3.01 (107888)*2B
$GNTXT,01,01,02,FWVER=SPG 3.01*46
$GNTXT,01,01,02,PROTVER=18.00*11
$GNTXT,01,01,02,GPS;GLO;GAL;BDS*77

$GNTXT,01,01,02,SBAS;IMES;QZSS*49
$GNTXT,01,01,02,GNSS OTP=GPS;GLO*37

$GNTXT,01,01,02,LLC=FFFFFFFF-FFFFFFFF-FFFFFFFF-FFFFFFFF-FFFFFFFD*2F
$GNTXT,01,01,02,ANTSUPERV=AC SD PDoS SR*3E
$GNTXT,01,01,02,ANTSTATUS=OK*25
$GNTXT,01,01,02,PF=3FF*4B

$GNRMC,124349.00,A,5552.32371,N,03800.08874,E,0.522,,120625,,,A,V*11
$GNVTG,,T,,M,0.522,N,0.966,K,A*31
$GNGGA,124349.00,5552.32371,N,03800.08874,E,1,10,0.94,134.2,M,12.9,M,,*42

$GNGSA,A,3,08,01,02,10,32,,,,,,,,1.45,0.94,1.10,1*07
$GNGSA,A,3,88,86,71,87,80,,,,,,,,1.45,0.94,1.10,2*00
$GNGSA,A,3,,,,,,,,,,,,,1.45,0.94,1.10,3*0E
$GPGSV,4,1,13,01,59,286,17,02,71,209,10,03,31,266,,08,16,211,12,0*66
$GPGSV,4,2,13,10,25,085,13,14,00,298,,17,21,320,19,19,02,339,,0*61
$GPGSV,4,3,13,22,07,313,,24,01,016,,28,24,125,16,31,07,148,13,0*61
$GPGSV,4,4,13,32,55,073,12,0*51
$GLGSV,2,1,08,70,27,051,,71,77,047,16,72,47,231,,79,16,001,,0*78
$GLGSV,2,2,08,80,16,053,12,86,50,172,25,87,71,284,12,88,14,326,15,0*71
$GAGSV,1,1,00,0*74
$GNGLL,5552.32371,N,03800.08874,E,124349.00,A,A*75

$GNRMC,124350.00,A,5552.32307,N,03800.09027,E,1.647,,120625,,,A,V*16

$GNVTG,,T,,M,1.647,N,3.051,K,A*3E
$GNGGA,124350.00,5552.32307,N,03800.09027,E,1,09,1.03,134.7,M,12.9,M,,*46
$GNGSA,A,3,08,01,02,32,,,,,,,,,1.54,1.03,1.14,1*0D
$GNGSA,A,3,88,86,71,87,80,,,,,,,,1.54,1.03,1.14,2*0B
$GNGSA,A,3,,,,,,,,,,,,,1.54,1.03,1.14,3*05
$GPGSV,4,1,13,01,59,286,16,02,71,209,16,03,31,266,,08,16,211,12,0*61
$GPGSV,4,2,13,10,25,085,,14,00,298,,17,21,320,18,19,02,339,,0*62
$GPGSV,4,3,13,22,07,313,,24,01,016,,28,24,125,16,31,07,148,10,0*62
$GPGSV,4,4,13,32,55,073,11,0*52

$GLGSV,2,1,08,70,27,051,,71,77,047,13,72,47,231,,79,16,001,,0*7D
$GLGSV,2,2,08,80,16,053,11,86,50,172,25,87,71,284,12,88,14,326,15,0*72
$GAGSV,1,1,00,0*74
$GNGLL,5552.32307,N,03800.09027,E,124350.00,A,A*73

$GNRMC,124351.00,A,5552.32317,N,03800.08998,E,0.875,,120625,,,A,V*14

$GNVTG,,T,,M,0.875,N,1.620,K,A*32
$GNGGA,124351.00,5552.32317,N,03800.08998,E,1,09,1.03,134.5,M,12.9,M,,*48
$GNGSA,A,3,08,01,02,32,,,,,,,,,1.54,1.03,1.14,1*0D
$GNGSA,A,3,88,86,71,87,80,,,,,,,,1.54,1.03,1.14,2*0B
$GNGSA,A,3,,,,,,,,,,,,,1.54,1.03,1.14,3*05
$GPGSV,4,1,13,01,59,286,15,02,71,209,16,03,31,266,,08,16,211,07,0*66
$GPGSV,4,2,13,10,25,085,,14,00,298,,17,21,320,19,19,02,339,,0*63
$GPGSV,4,3,13,22,07,313,,24,01,016,,28,24,125,15,31,07,148,09,0*69

$GPGSV,4,4,13,32,55,073,12,0*51
$GLGSV,2,1,08,70,27,051,,71,77,047,09,72,47,231,,79,16,001,,0*76
$GLGSV,2,2,08,80,16,053,08,86,50,172,25,87,71,284,11,88,14,326,14,0*78
$GAGSV,1,1,00,0*74
$GNGLL,5552.32317,N,03800.08998,E,124351.00,A,A*7F

$GNRMC,124352.00,A,5552.32314,N,03800.09060,E,0.767,,120625,,,A,V*17

$GNVTG,,T,,M,0.767,N,1.420,K,A*3C
$GNGGA,124352.00,5552.32314,N,03800.09060,E,1,09,1.03,133.9,M,12.9,M,,*4C
$GNGSA,A,3,08,01,02,32,,,,,,,,,1.54,1.03,1.14,1*0D
$GNGSA,A,3,88,86,71,87,80,,,,,,,,1.54,1.03,1.14,2*0B
$GNGSA,A,3,,,,,,,,,,,,,1.54,1.03,1.14,3*05
$GPGSV,4,1,13,01,59,286,15,02,71,209,15,03,31,266,,08,16,211,10,0*63
$GPGSV,4,2,13,10,25,085,,14,00,298,,17,21,320,18,19,02,339,,0*62

$GPGSV,4,3,13,22,07,313,,24,01,016,,28,24,125,14,31,07,148,08,0*69
$GPGSV,4,4,13,32,55,073,14,0*57
$GLGSV,2,1,08,70,27,051,,71,77,047,09,72,47,231,,79,16,001,,0*76
$GLGSV,2,2,08,80,16,053,08,86,50,172,25,87,71,284,11,88,14,326,15,0*79
$GAGSV,1,1,00,0*74
$GNGLL,5552.32314,N,03800.09060,E,124352.00,A,A*70

$GNRMC,124353.00,A,5552.32277,N,03800.09057,E,0.771,,120625,,,A,V*11

$GNVTG,,T,,M,0.771,N,1.427,K,A*3C
$GNGGA,124353.00,5552.32277,N,03800.09057,E,1,09,1.03,133.6,M,12.9,M,,*42
$GNGSA,A,3,08,01,02,32,,,,,,,,,1.54,1.03,1.14,1*0D
$GNGSA,A,3,88,86,71,87,80,,,,,,,,1.54,1.03,1.14,2*0B
$GNGSA,A,3,,,,,,,,,,,,,1.54,1.03,1.14,3*05
$GPGSV,4,1,13,01,59,286,15,02,71,209,08,03,31,266,,08,16,211,11,0*6E
$GPGSV,4,2,13,10,25,085,,14,00,298,,17,21,320,20,19,02,339,,0*69
$GPGSV,4,3,13,22,07,313,,24,01,016,,28,24,125,13,31,07,148,08,0*6E
$GPGSV,4,4,13,32,55,073,13,0*50
$GLGSV,2,1,08,70,27,051,,71,77,047,09,72,47,231,,79,16,001,,0*76
$GLGSV,2,2,08,80,16,053,07,86,49,172,25,87,71,284,09,88,14,326,15,0*77

$GAGSV,1,1,00,0*74
$GNGLL,5552.32277,N,03800.09057,E,124353.00,A,A*71

$GNRMC,124354.00,A,5552.32278,N,03800.09106,E,0.823,,120625,,,A,V*14
$GNVTG,,T,,M,0.823,N,1.525,K,A*37
$GNGGA,124354.00,5552.32278,N,03800.09106,E,1,08,1.04,133.8,M,12.9,M,,*47
$GNGSA,A,3,08,01,02,32,,,,,,,,,1.61,1.04,1.23,1*08
$GNGSA,A,3,88,86,87,80,,,,,,,,,1.61,1.04,1.23,2*08
$GNGSA,A,3,,,,,,,,,,,,,1.61,1.04,1.23,3*00

$GPGSV,4,1,13,01,59,286,17,02,71,209,10,03,31,266,,08,16,211,09,0*6C
$GPGSV,4,2,13,10,25,085,,14,00,298,,17,21,320,21,19,02,339,,0*68
$GPGSV,4,3,13,22,07,313,,24,01,016,,28,24,125,14,31,07,148,08,0*69
$GPGSV,4,4,13,32,55,073,14,0*57
$GLGSV,2,1,08,70,27,051,,71,77,047,07,72,47,231,,79,16,001,,0*78
$GLGSV,2,2,08,80,16,053,09,86,49,172,25,87,71,282,10,88,14,326,15,0*77
$GAGSV,1,1,00,0*74
$GNGLL,5552.32278,N,03800.09106,E,124354.00,A,A*7C

$GNRMC,124355.00,A,5552.32280,N,03800.09134,E,0.716,,120625,,,A,V*1A
$GNVTG,,T,,M,0.716,N,1.327,K,A*3A
$GNGGA,124355.00,5552.32280,N,03800.09134,E,1,09,1.03,131.7,M,12.9,M,,*4B
$GNGSA,A,3,08,01,02,32,,,,,,,,,1.54,1.03,1.14,1*0D
$GNGSA,A,3,88,86,71,87,80,,,,,,,,1.54,1.03,1.14,2*0B

$GNGSA,A,3,,,,,,,,,,,,,1.54,1.03,1.14,3*05
$GPGSV,4,1,13,01,59,286,19,02,71,209,15,03,31,266,,08,16,211,11,0*6E
$GPGSV,4,2,13,10,25,085,,14,00,298,,17,21,320,23,19,02,339,,0*6A
$GPGSV,4,3,13,22,07,313,,24,01,016,,28,24,125,,31,07,148,07,0*63
$GPGSV,4,4,13,32,55,073,15,0*56
$GLGSV,2,1,08,70,27,051,,71,77,047,11,72,47,231,,79,16,001,,0*7F
$GLGSV,2,2,08,80,16,053,11,86,49,172,22,87,71,282,09,88,15,326,15,0*70
$GAGSV,1,1,00,0*74
$GNGLL,5552.32280,N,03800.09134,E,124355.00,A,A*7B

$GNRMC,124356.00,A,5552.32285,N,03800.09047,E,0.202,,120625,,,A,V*19
$GNVTG,,T,,M,0.202,N,0.375,K,A*3C

$GNGGA,124356.00,5552.32285,N,03800.09047,E,1,09,1.03,131.8,M,12.9,M,,*47
$GNGSA,A,3,08,01,02,32,,,,,,,,,1.54,1.03,1.14,1*0D
$GNGSA,A,3,88,86,71,87,80,,,,,,,,1.54,1.03,1.14,2*0B
$GNGSA,A,3,,,,,,,,,,,,,1.54,1.03,1.14,3*05
$GPGSV,4,1,13,01,59,285,19,02,71,209,12,03,31,266,,08,16,211,09,0*63
$GPGSV,4,2,13,10,25,085,,14,00,298,,17,21,320,22,19,02,339,,0*6B
$GPGSV,4,3,13,22,07,313,,24,01,016,,28,24,125,,31,07,148,,0*64
$GPGSV,4,4,13,32,55,073,14,0*57
$GLGSV,2,1,08,70,27,051,,71,77,047,13,72,47,231,,79,16,001,,0*7D
$GLGSV,2,2,08,80,16,053,11,86,49,172,18,87,71,282,14,88,15,326,17,0*77
$GAGSV,1,1,00,0*74
$GNGLL,5552.32285,N,03800.09047,E,124356.00,A,A*78

$GNRMC,124357.00,A,5552.32298,N,03800.09041,E,0.284,,120625,,,A,V*1C
$GNVTG,,T,,M,0.284,N,0.525,K,A*31

$GNGGA,124357.00,5552.32298,N,03800.09041,E,1,09,1.03,131.7,M,12.9,M,,*43
$GNGSA,A,3,08,01,02,32,,,,,,,,,1.54,1.03,1.14,1*0D
$GNGSA,A,3,88,86,71,87,80,,,,,,,,1.54,1.03,1.14,2*0B
$GNGSA,A,3,,,,,,,,,,,,,1.54,1.03,1.14,3*05
$GPGSV,4,1,13,01,59,285,18,02,71,208,08,03,31,266,,08,16,211,09,0*68
$GPGSV,4,2,13,10,25,085,14,14,00,298,,17,21,320,20,19,02,339,,0*6C
$GPGSV,4,3,13,22,07,313,,24,01,016,,28,24,125,,31,07,148,,0*64
$GPGSV,4,4,13,32,55,073,11,0*52
$GLGSV,2,1,08,70,27,051,,71,77,047,09,72,47,231,,79,16,001,,0*76
$GLGSV,2,2,08,80,16,053,09,86,49,172,16,87,71,282,19,88,15,326,19,0*73
$GAGSV,1,1,00,0*74
$GNGLL,5552.32298,N,03800.09041,E,124357.00,A,A*73

$GNRMC,124358.00,A,5552.32313,N,03800.08972,E,0.407,,120625,,,A,V*14
$GNVTG,,T,,M,0.407,N,0.754,K,A*38

$GNGGA,124358.00,5552.32313,N,03800.08972,E,1,07,1.44,131.9,M,12.9,M,,*45
$GNGSA,A,3,01,02,32,,,,,,,,,,2.37,1.44,1.89,1*04
$GNGSA,A,3,88,86,71,80,,,,,,,,,2.37,1.44,1.89,2*05
$GNGSA,A,3,,,,,,,,,,,,,2.37,1.44,1.89,3*04
$GPGSV,4,1,13,01,59,285,13,02,71,208,14,03,31,266,,08,16,211,07,0*60
$GPGSV,4,2,13,10,25,085,11,14,00,298,,17,21,320,16,19,02,339,,0*6C
$GPGSV,4,3,13,22,07,313,,24,01,016,,28,24,125,,31,07,148,,0*64
$GPGSV,4,4,13,32,55,073,08,0*5A
$GLGSV,2,1,08,70,27,051,,71,77,047,13,72,47,231,,79,16,001,,0*7D
$GLGSV,2,2,08,80,16,053,08,86,49,172,15,87,71,282,08,88,15,326,18,0*70
$GAGSV,1,1,00,0*74
$GNGLL,5552.32313,N,03800.08972,E,124358.00,A,A*76

$GNRMC,124359.00,A,5552.32291,N,03800.08949,E,0.313,,120625,,,A,V*14
$GNVTG,,T,,M,0.313,N,0.579,K,A*37
$GNGGA,124359.00,5552.32291,N,03800.08949,E,1,08,1.10,131.8,M,12.9,M,,*48

$GNGSA,A,3,08,02,32,,,,,,,,,,1.62,1.10,1.19,1*06
$GNGSA,A,3,88,86,71,87,80,,,,,,,,1.62,1.10,1.19,2*01
$GNGSA,A,3,,,,,,,,,,,,,1.62,1.10,1.19,3*0F
$GPGSV,4,1,13,01,59,285,09,02,71,208,14,03,31,266,,08,16,211,08,0*64
$GPGSV,4,2,13,10,25,085,10,14,00,298,,17,21,320,14,19,02,339,,0*6F
$GPGSV,4,3,13,22,07,313,,24,01,016,,28,24,125,,31,07,148,,0*64
$GPGSV,4,4,13,32,55,073,09,0*5B
$GLGSV,2,1,08,70,27,051,,71,77,047,07,72,47,231,,79,16,001,,0*78
$GLGSV,2,2,08,80,16,053,11,86,49,172,15,87,71,282,10,88,15,326,17,0*7E
$GAGSV,1,1,00,0*74
$GNGLL,5552.32291,N,03800.08949,E,124359.00,A,A*74

$GNRMC,124400.00,A,5552.32279,N,03800.08929,E,0.403,,120625,,,A,V*19
$GNVTG,,T,,M,0.403,N,0.746,K,A*3F

$GNGGA,124400.00,5552.32279,N,03800.08929,E,1,09,1.03,131.6,M,12.9,M,,*4E
$GNGSA,A,3,08,01,02,32,,,,,,,,,1.54,1.03,1.14,1*0D
$GNGSA,A,3,88,86,71,87,80,,,,,,,,1.54,1.03,1.14,2*0B
$GNGSA,A,3,,,,,,,,,,,,,1.54,1.03,1.14,3*05
$GPGSV,4,1,13,01,59,285,13,02,71,208,11,03,31,266,,08,16,211,10,0*63
$GPGSV,4,2,13,10,25,085,10,14,00,298,,17,21,320,13,19,02,339,,0*68
$GPGSV,4,3,13,22,07,313,,24,01,016,,28,24,125,,31,07,148,,0*64
$GPGSV,4,4,13,32,55,073,17,0*54
$GLGSV,2,1,08,70,27,051,,71,77,047,11,72,47,231,,79,16,001,,0*7F
$GLGSV,2,2,08,80,16,053,09,86,49,172,14,87,71,282,15,88,15,326,17,0*73
$GAGSV,1,1,00,0*74
$GNGLL,5552.32279,N,03800.08929,E,124400.00,A,A*7F

$GNRMC,124401.00,A,5552.32232,N,03800.08832,E,0.712,,120625,,,A,V*1F
$GNVTG,,T,,M,0.712,N,1.318,K,A*32

$GNGGA,124401.00,5552.32232,N,03800.08832,E,1,09,1.03,131.3,M,12.9,M,,*4E
$GNGSA,A,3,08,01,02,32,,,,,,,,,1.54,1.03,1.14,1*0D
$GNGSA,A,3,88,86,71,87,80,,,,,,,,1.54,1.03,1.14,2*0B
$GNGSA,A,3,,,,,,,,,,,,,1.54,1.03,1.14,3*05
$GPGSV,4,1,13,01,59,285,12,02,71,208,15,03,31,266,,08,16,211,09,0*6E
$GPGSV,4,2,13,10,25,085,10,14,00,298,,17,21,320,12,19,02,339,,0*69
$GPGSV,4,3,13,22,07,313,,24,01,016,,28,24,125,,31,07,148,,0*64
$GPGSV,4,4,13,32,55,073,11,0*52
$GLGSV,2,1,08,70,27,051,,71,77,047,11,72,47,231,,79,16,001,,0*7F
$GLGSV,2,2,08,80,16,053,11,86,49,172,13,87,71,282,15,88,15,326,16,0*7C
$GAGSV,1,1,00,0*74
$GNGLL,5552.32232,N,03800.08832,E,124401.00,A,A*7A

$GNRMC,124402.00,A,5552.32231,N,03800.08768,E,0.813,,120625,,,A,V*11
$GNVTG,,T,,M,0.813,N,1.505,K,A*36

$GNGGA,124402.00,5552.32231,N,03800.08768,E,1,10,0.94,131.5,M,12.9,M,,*4F
$GNGSA,A,3,08,01,02,10,32,,,,,,,,1.45,0.94,1.10,1*07
$GNGSA,A,3,88,86,71,87,80,,,,,,,,1.45,0.94,1.10,2*00
$GNGSA,A,3,,,,,,,,,,,,,1.45,0.94,1.10,3*0E
$GPGSV,4,1,13,01,59,285,12,02,71,208,18,03,31,266,,08,16,211,08,0*62
$GPGSV,4,2,13,10,25,085,11,14,00,298,,17,21,320,12,19,02,339,,0*68
$GPGSV,4,3,13,22,07,313,,24,01,016,,28,24,125,,31,07,148,,0*64
$GPGSV,4,4,13,32,55,073,12,0*51
$GLGSV,2,1,08,70,27,051,,71,77,047,11,72,47,231,,79,16,001,,0*7F
$GLGSV,2,2,08,80,16,053,11,86,49,172,12,87,71,282,12,88,15,326,17,0*7B
$GAGSV,1,1,00,0*74
$GNGLL,5552.32231,N,03800.08768,E,124402.00,A,A*7A

$GNRMC,124403.00,A,5552.32255,N,03800.08759,E,0.608,,120625,,,A,V*14
$GNVTG,,T,,M,0.608,N,1.126,K,A*37

$GNGGA,124403.00,5552.32255,N,03800.08759,E,1,10,0.94,131.4,M,12.9,M,,*4F
$GNGSA,A,3,08,01,02,10,32,,,,,,,,1.45,0.94,1.10,1*07
$GNGSA,A,3,88,86,71,87,80,,,,,,,,1.45,0.94,1.10,2*00
$GNGSA,A,3,,,,,,,,,,,,,1.45,0.94,1.10,3*0E
$GPGSV,4,1,13,01,59,285,17,02,71,208,18,03,31,266,,08,15,211,13,0*6E
$GPGSV,4,2,13,10,25,085,11,14,00,298,,17,21,320,13,19,02,339,,0*69
$GPGSV,4,3,13,22,07,313,,24,01,016,,28,24,125,20,31,07,148,,0*66
$GPGSV,4,4,13,32,55,073,10,0*53
$GLGSV,2,1,08,70,27,051,,71,77,047,10,72,47,231,,79,16,001,,0*7E
$GLGSV,2,2,08,80,16,053,09,86,49,172,11,87,71,282,12,88,15,326,20,0*75
$GAGSV,1,1,00,0*74
$GNGLL,5552.32255,N,03800.08759,E,124403.00,A,A*7B

$GNRMC,124404.00,A,5552.32129,N,03800.08511,E,1.676,,120625,,,A,V*1D
$GNVTG,,T,,M,1.676,N,3.104,K,A*3D

$GNGGA,124404.00,5552.32129,N,03800.08511,E,1,09,0.94,132.1,M,12.9,M,,*40
$GNGSA,A,3,08,01,10,32,,,,,,,,,1.49,0.94,1.15,1*0C
$GNGSA,A,3,88,86,71,87,80,,,,,,,,1.49,0.94,1.15,2*09
$GNGSA,A,3,,,,,,,,,,,,,1.49,0.94,1.15,3*07
$GPGSV,4,1,13,01,59,285,13,02,71,208,07,03,31,266,,08,15,211,11,0*66
$GPGSV,4,2,13,10,25,085,13,14,00,298,,17,21,320,14,19,02,339,,0*6C
$GPGSV,4,3,13,22,07,313,,24,01,016,,28,24,125,18,31,07,148,,0*6D
$GPGSV,4,4,13,32,55,073,16,0*55
$GLGSV,2,1,08,70,27,051,,71,77,047,13,72,47,231,,79,16,001,,0*7D
$GLGSV,2,2,08,80,16,053,09,86,49,172,12,87,71,282,09,88,15,326,22,0*7E
$GAGSV,1,1,00,0*74
$GNGLL,5552.32129,N,03800.08511,E,124404.00,A,A*7A

$GNRMC,124405.00,A,5552.32060,N,03800.08459,E,1.948,,120625,,,A,V*1F
$GNVTG,,T,,M,1.948,N,3.608,K,A*34

$GNGGA,124405.00,5552.32060,N,03800.08459,E,1,09,0.94,132.1,M,12.9,M,,*40
$GNGSA,A,3,08,01,10,32,,,,,,,,,1.49,0.94,1.15,1*0C
$GNGSA,A,3,88,86,71,87,80,,,,,,,,1.49,0.94,1.15,2*09
$GNGSA,A,3,,,,,,,,,,,,,1.49,0.94,1.15,3*07
$GPGSV,4,1,13,01,59,285,17,02,71,208,10,03,31,266,,08,15,211,13,0*66
$GPGSV,4,2,13,10,25,085,15,14,00,298,,17,21,320,18,19,02,339,,0*66
$GPGSV,4,3,13,22,07,313,,24,01,016,,28,24,125,15,31,07,148,,0*60
$GPGSV,4,4,13,32,55,073,07,0*55
$GLGSV,2,1,08,70,27,051,,71,77,047,11,72,47,231,,79,16,001,,0*7F
$GLGSV,2,2,08,80,16,053,09,86,49,172,12,87,71,282,14,88,15,326,25,0*75
$GAGSV,1,1,00,0*74
$GNGLL,5552.32060,N,03800.08459,E,124405.00,A,A*7A

$GNRMC,124406.00,A,5552.32071,N,03800.08419,E,1.568,,120625,,,A,V*16
$GNVTG,,T,,M,1.568,N,2.905,K,A*39

$GNGGA,124406.00,5552.32071,N,03800.08419,E,1,09,1.33,132.1,M,12.9,M,,*4B
$GNGSA,A,3,01,02,10,32,,,,,,,,,2.16,1.33,1.70,1*00
$GNGSA,A,3,88,86,71,87,80,,,,,,,,2.16,1.33,1.70,2*0F
$GNGSA,A,3,,,,,,,,,,,,,2.16,1.33,1.70,3*01
$GPGSV,4,1,13,01,59,285,17,02,71,208,13,03,31,266,,08,15,211,07,0*60
$GPGSV,4,2,13,10,25,085,15,14,00,298,,17,21,320,22,19,02,339,,0*6F
$GPGSV,4,3,13,22,07,313,,24,01,016,,28,24,125,14,31,07,148,,0*61
$GPGSV,4,4,13,32,55,073,10,0*53
$GLGSV,2,1,08,70,27,051,,71,77,047,09,72,47,231,,79,16,001,,0*76
$GLGSV,2,2,08,80,16,053,09,86,49,172,13,87,71,282,15,88,15,326,25,0*75
$GAGSV,1,1,00,0*74
$GNGLL,5552.32071,N,03800.08419,E,124406.00,A,A*7D

$GNRMC,124407.00,A,5552.31976,N,03800.08256,E,1.390,,120625,,,A,V*16
$GNVTG,,T,,M,1.390,N,2.575,K,A*33

$GNGGA,124407.00,5552.31976,N,03800.08256,E,1,10,0.94,130.1,M,12.9,M,,*4C
$GNGSA,A,3,08,01,02,10,32,,,,,,,,1.45,0.94,1.10,1*07
$GNGSA,A,3,88,86,71,87,80,,,,,,,,1.45,0.94,1.10,2*00
$GNGSA,A,3,,,,,,,,,,,,,1.45,0.94,1.10,3*0E
$GPGSV,4,1,13,01,59,285,17,02,71,208,16,03,31,266,,08,15,211,10,0*63
$GPGSV,4,2,13,10,25,085,15,14,00,298,,17,21,320,25,19,02,339,,0*68
$GPGSV,4,3,13,22,07,313,,24,01,016,,28,24,125,13,31,07,148,,0*66
$GPGSV,4,4,13,32,55,073,09,0*5B
$GLGSV,2,1,08,70,27,051,,71,77,047,07,72,47,231,20,79,16,001,,0*7A
$GLGSV,2,2,08,80,16,053,10,86,49,172,15,87,71,282,14,88,15,326,24,0*7B
$GAGSV,1,1,00,0*74
$GNGLL,5552.31976,N,03800.08256,E,124407.00,A,A*7C

$GNRMC,124408.00,A,5552.31956,N,03800.08382,E,1.199,,120625,,,A,V*18
$GNVTG,,T,,M,1.199,N,2.221,K,A*3E

$GNGGA,124408.00,5552.31956,N,03800.08382,E,1,10,0.94,130.0,M,12.9,M,,*48
$GNGSA,A,3,08,01,02,10,32,,,,,,,,1.45,0.94,1.10,1*07
$GNGSA,A,3,88,86,71,87,80,,,,,,,,1.45,0.94,1.10,2*00
$GNGSA,A,3,,,,,,,,,,,,,1.45,0.94,1.10,3*0E
$GPGSV,4,1,13,01,59,285,17,02,71,208,18,03,31,266,,08,15,211,10,0*6D
$GPGSV,4,2,13,10,25,085,14,14,00,298,,17,21,320,25,19,02,339,,0*69
$GPGSV,4,3,13,22,07,313,,24,01,016,,28,24,125,12,31,07,148,,0*67
$GPGSV,4,4,13,32,55,073,11,0*52
$GLGSV,2,1,08,70,27,051,,71,77,047,14,72,47,231,19,79,16,001,,0*72
$GLGSV,2,2,08,80,16,053,10,86,49,172,15,87,71,282,08,88,15,326,23,0*71
$GAGSV,1,1,00,0*74
$GNGLL,5552.31956,N,03800.08382,E,124408.00,A,A*79

$GNRMC,124409.00,A,5552.31977,N,03800.08511,E,0.984,,120625,,,A,V*13
$GNVTG,,T,,M,0.984,N,1.823,K,A*30

$GNGGA,124409.00,5552.31977,N,03800.08511,E,1,10,0.94,130.0,M,12.9,M,,*46
$GNGSA,A,3,08,01,02,10,32,,,,,,,,1.45,0.94,1.10,1*07
$GNGSA,A,3,88,86,71,87,80,,,,,,,,1.45,0.94,1.10,2*00
$GNGSA,A,3,,,,,,,,,,,,,1.45,0.94,1.10,3*0E
$GPGSV,4,1,13,01,59,285,17,02,71,208,19,03,31,266,17,08,15,211,12,0*68
$GPGSV,4,2,13,10,25,085,13,14,00,297,,17,21,320,25,19,02,339,,0*61
$GPGSV,4,3,13,22,07,313,,24,01,016,,28,24,125,12,31,07,148,,0*67
$GPGSV,4,4,13,32,55,073,08,0*5A
$GLGSV,2,1,08,70,27,051,,71,77,047,10,72,47,231,17,79,16,001,,0*78
$GLGSV,2,2,08,80,16,053,12,86,49,172,17,87,71,282,13,88,15,326,22,0*7A
$GAGSV,1,1,00,0*74
$GNGLL,5552.31977,N,03800.08511,E,124409.00,A,A*77

$GNRMC,124410.00,A,5552.31896,N,03800.08459,E,1.135,,120625,,,A,V*1B
$GNVTG,,T,,M,1.135,N,2.103,K,A*3B

$GNGGA,124410.00,5552.31896,N,03800.08459,E,1,10,0.94,129.4,M,12.9,M,,*41
$GNGSA,A,3,08,01,02,10,32,,,,,,,,1.45,0.94,1.10,1*07
$GNGSA,A,3,88,86,71,87,80,,,,,,,,1.45,0.94,1.10,2*00
$GNGSA,A,3,,,,,,,,,,,,,1.45,0.94,1.10,3*0E
$GPGSV,4,1,13,01,59,285,18,02,71,208,20,03,31,266,18,08,15,211,12,0*62
$GPGSV,4,2,13,10,25,085,12,14,00,297,,17,21,320,24,19,02,339,,0*61
$GPGSV,4,3,13,22,07,313,,24,01,016,,28,24,125,11,31,07,148,,0*64
$GPGSV,4,4,13,32,55,073,12,0*51
$GLGSV,2,1,08,70,27,051,,71,77,047,12,72,47,231,16,79,16,001,,0*7B
$GLGSV,2,2,08,80,16,053,12,86,49,172,17,87,71,282,11,88,15,326,23,0*79
$GAGSV,1,1,00,0*74
$GNGLL,5552.31896,N,03800.08459,E,124410.00,A,A*7C

$GNRMC,124411.00,A,5552.31935,N,03800.08467,E,0.793,,120625,,,A,V*14
$GNVTG,,T,,M,0.793,N,1.469,K,A*3A

$GNGGA,124411.00,5552.31935,N,03800.08467,E,1,11,0.91,129.5,M,12.9,M,,*40
$GNGSA,A,3,08,01,02,10,32,,,,,,,,1.43,0.91,1.10,1*04
$GNGSA,A,3,88,86,71,87,72,80,,,,,,,1.43,0.91,1.10,2*06
$GNGSA,A,3,,,,,,,,,,,,,1.43,0.91,1.10,3*0D
$GPGSV,4,1,13,01,59,285,19,02,71,208,20,03,31,266,17,08,15,211,09,0*66
$GPGSV,4,2,13,10,25,085,11,14,00,297,,17,21,320,23,19,02,339,,0*65
$GPGSV,4,3,13,22,07,313,,24,01,016,,28,24,125,13,31,07,148,,0*66
$GPGSV,4,4,13,32,55,073,10,0*53
$GLGSV,2,1,08,70,27,051,,71,77,047,16,72,47,231,16,79,16,001,,0*7F
$GLGSV,2,2,08,80,16,053,09,86,49,172,18,87,71,282,11,88,15,326,22,0*7D
$GAGSV,1,1,00,0*74
$GNGLL,5552.31935,N,03800.08467,E,124411.00,A,A*78

$GNRMC,124412.00,A,5552.31965,N,03800.08451,E,0.400,,120625,,,A,V*1E
$GNVTG,,T,,M,0.400,N,0.741,K,A*3B

$GNGGA,124412.00,5552.31965,N,03800.08451,E,1,11,0.91,129.9,M,12.9,M,,*4F
$GNGSA,A,3,08,01,02,10,32,,,,,,,,1.43,0.91,1.10,1*04
$GNGSA,A,3,88,86,71,87,72,80,,,,,,,1.43,0.91,1.10,2*06
$GNGSA,A,3,,,,,,,,,,,,,1.43,0.91,1.10,3*0D
$GPGSV,4,1,13,01,59,285,19,02,71,208,19,03,31,266,14,08,15,211,10,0*67
$GPGSV,4,2,13,10,25,085,10,14,00,297,,17,22,320,22,19,02,339,,0*66
$GPGSV,4,3,13,22,07,313,,24,01,016,,28,24,125,12,31,07,148,,0*67
$GPGSV,4,4,13,32,55,073,12,0*51
$GLGSV,2,1,08,70,27,051,,71,77,047,11,72,47,231,16,79,16,001,,0*78
$GLGSV,2,2,08,80,16,053,10,86,49,172,18,87,71,282,08,88,15,326,22,0*7D
$GAGSV,1,1,00,0*74
$GNGLL,5552.31965,N,03800.08451,E,124412.00,A,A*7B

$GNRMC,124413.00,A,5552.31884,N,03800.08376,E,0.861,,120625,,,A,V*18

$GNVTG,,T,,M,0.861,N,1.595,K,A*3A
$GNGGA,124413.00,5552.31884,N,03800.08376,E,1,11,0.91,129.2,M,12.9,M,,*49
$GNGSA,A,3,08,01,02,10,32,,,,,,,,1.43,0.91,1.10,1*04
$GNGSA,A,3,88,86,71,87,72,80,,,,,,,1.43,0.91,1.10,2*06
$GNGSA,A,3,,,,,,,,,,,,,1.43,0.91,1.10,3*0D
$GPGSV,4,1,13,01,59,285,19,02,71,208,18,03,31,266,15,08,15,211,07,0*61
$GPGSV,4,2,13,10,25,085,09,14,00,297,,17,22,320,22,19,02,339,,0*6E
$GPGSV,4,3,13,22,07,313,,24,01,016,,28,24,125,13,31,07,148,,0*66
$GPGSV,4,4,13,32,55,073,09,0*5B
$GLGSV,2,1,08,70,27,051,,71,77,047,13,72,47,231,15,79,16,001,,0*79
$GLGSV,2,2,08,80,16,053,13,86,49,172,18,87,71,282,11,88,15,326,22,0*76
$GAGSV,1,1,00,0*74
$GNGLL,5552.31884,N,03800.08376,E,124413.00,A,A*76

$GNRMC,124414.00,A,5552.31908,N,03800.08431,E,0.737,,120625,,,A,V*12
$GNVTG,,T,,M,0.737,N,1.364,K,A*3E

$GNGGA,124414.00,5552.31908,N,03800.08431,E,1,11,0.91,129.5,M,12.9,M,,*48
$GNGSA,A,3,08,01,02,10,32,,,,,,,,1.43,0.91,1.10,1*04
$GNGSA,A,3,88,86,71,87,72,80,,,,,,,1.43,0.91,1.10,2*06
$GNGSA,A,3,,,,,,,,,,,,,1.43,0.91,1.10,3*0D
$GPGSV,4,1,13,01,59,285,20,02,71,208,18,03,31,266,14,08,15,211,08,0*65
$GPGSV,4,2,13,10,25,085,12,14,00,297,,17,22,320,22,19,03,339,,0*65
$GPGSV,4,3,13,22,07,313,,24,01,016,,28,24,125,12,31,07,148,,0*67
$GPGSV,4,4,13,32,55,073,09,0*5B
$GLGSV,2,1,08,70,27,051,,71,77,047,09,72,47,231,16,79,16,001,,0*71
$GLGSV,2,2,08,80,16,053,08,86,49,172,16,87,71,282,09,88,15,326,21,0*78
$GAGSV,1,1,00,0*74
$GNGLL,5552.31908,N,03800.08431,E,124414.00,A,A*70

$GNRMC,124415.00,A,5552.31915,N,03800.08502,E,0.884,,120625,,,A,V*19
$GNVTG,,T,,M,0.884,N,1.637,K,A*3A
$GNGGA,124415.00,5552.31915,N,03800.08502,E,1,11,0.91,129.9,M,12.9,M,,*48

$GNGSA,A,3,08,01,02,10,32,,,,,,,,1.43,0.91,1.10,1*04
$GNGSA,A,3,88,86,71,87,72,80,,,,,,,1.43,0.91,1.10,2*06
$GNGSA,A,3,,,,,,,,,,,,,1.43,0.91,1.10,3*0D
$GPGSV,4,1,13,01,59,285,19,02,71,208,16,03,31,266,17,08,15,211,08,0*62
$GPGSV,4,2,13,10,25,085,11,14,00,297,,17,22,320,22,19,03,339,,0*66
$GPGSV,4,3,13,22,07,313,,24,01,016,,28,24,125,11,31,07,148,,0*64
$GPGSV,4,4,13,32,55,073,09,0*5B
$GLGSV,2,1,08,70,27,051,,71,77,047,10,72,47,231,17,79,16,001,,0*78
$GLGSV,2,2,08,80,16,053,09,86,49,172,16,87,71,282,11,88,15,326,22,0*73
$GAGSV,1,1,00,0*74
$GNGLL,5552.31915,N,03800.08502,E,124415.00,A,A*7C

$GNRMC,124416.00,A,5552.31859,N,03800.08485,E,0.646,,120625,,,A,V*1D
$GNVTG,,T,,M,0.646,N,1.196,K,A*36
$GNGGA,124416.00,5552.31859,N,03800.08485,E,1,11,0.91,128.0,M,12.9,M,,*44
$GNGSA,A,3,08,01,02,10,32,,,,,,,,1.43,0.91,1.10,1*04
$GNGSA,A,3,88,86,71,87,72,80,,,,,,,1.43,0.91,1.10,2*06
$GNGSA,A,3,,,,,,,,,,,,,1.43,0.91,1.10,3*0D
$GPGSV,4,1,13,01,59,285,17,02,71,208,15,03,31,266,17,08,15,211,09,0*6E
$GPGSV,4,2,13,10,25,085,11,14,00,297,,17,22,320,20,19,03,339,,0*64
$GPGSV,4,3,13,22,07,313,,24,01,016,,28,24,125,10,31,07,148,,0*65
$GPGSV,4,4,13,32,55,073,15,0*56

$GLGSV,2,1,08,70,27,051,,71,77,047,07,72,47,231,16,79,16,001,,0*7F
$GLGSV,2,2,08,80,16,053,09,86,49,172,16,87,71,282,13,88,15,326,23,0*70
$GAGSV,1,1,00,0*74
$GNGLL,5552.31859,N,03800.08485,E,124416.00,A,A*78

$GNRMC,124417.00,A,5552.31905,N,03800.08489,E,0.222,,120625,,,A,V*1E
$GNVTG,,T,,M,0.222,N,0.411,K,A*3B
$GNGGA,124417.00,5552.31905,N,03800.08489,E,1,11,0.91,128.0,M,12.9,M,,*41

$GNGSA,A,3,08,01,02,10,32,,,,,,,,1.43,0.91,1.10,1*04
$GNGSA,A,3,88,86,71,87,72,80,,,,,,,1.43,0.91,1.10,2*06
$GNGSA,A,3,,,,,,,,,,,,,1.43,0.91,1.10,3*0D
$GPGSV,4,1,13,01,59,285,17,02,71,208,16,03,31,266,18,08,15,211,10,0*6A
$GPGSV,4,2,13,10,25,085,13,14,00,297,,17,22,320,20,19,03,339,,0*66
$GPGSV,4,3,13,22,06,313,,24,01,016,,28,24,125,10,31,07,148,,0*64
$GPGSV,4,4,13,32,55,073,09,0*5B
$GLGSV,2,1,08,70,27,051,,71,77,047,10,72,47,231,14,79,16,001,,0*7B
$GLGSV,2,2,08,80,16,053,10,86,49,172,17,87,71,282,10,88,15,326,25,0*7C
$GAGSV,1,1,00,0*74
$GNGLL,5552.31905,N,03800.08489,E,124417.00,A,A*7D

$GNRMC,124418.00,A,5552.31921,N,03800.08509,E,0.310,,120625,,,A,V*1E
$GNVTG,,T,,M,0.310,N,0.575,K,A*38
$GNGGA,124418.00,5552.31921,N,03800.08509,E,1,11,0.91,128.0,M,12.9,M,,*41

$GNGSA,A,3,08,01,02,10,32,,,,,,,,1.43,0.91,1.10,1*04
$GNGSA,A,3,88,86,71,87,72,80,,,,,,,1.43,0.91,1.10,2*06
$GNGSA,A,3,,,,,,,,,,,,,1.43,0.91,1.10,3*0D
$GPGSV,4,1,13,01,59,285,17,02,71,208,17,03,31,266,19,08,15,211,10,0*6A
$GPGSV,4,2,13,10,25,085,17,14,00,297,,17,22,320,21,19,03,339,,0*63
$GPGSV,4,3,13,22,06,313,,24,01,016,,28,24,125,11,31,07,148,,0*65
$GPGSV,4,4,13,32,55,073,15,0*56
$GLGSV,2,1,08,70,27,051,,71,77,047,11,72,47,231,14,79,16,001,,0*7A
$GLGSV,2,2,08,80,16,053,08,86,49,172,16,87,71,282,12,88,15,326,25,0*76
$GAGSV,1,1,00,0*74
$GNGLL,5552.31921,N,03800.08509,E,124418.00,A,A*7D

$GNRMC,124419.00,A,5552.31914,N,03800.08611,E,0.702,,120625,,,A,V*14
$GNVTG,,T,,M,0.702,N,1.300,K,A*3A

$GNGGA,124419.00,5552.31914,N,03800.08611,E,1,10,1.01,128.2,M,12.9,M,,*47
$GNGSA,A,3,08,01,02,32,,,,,,,,,1.52,1.01,1.14,1*09
$GNGSA,A,3,88,86,71,87,72,80,,,,,,,1.52,1.01,1.14,2*0A
$GNGSA,A,3,,,,,,,,,,,,,1.52,1.01,1.14,3*01
$GPGSV,4,1,13,01,59,285,17,02,71,208,18,03,31,266,17,08,15,211,10,0*6B
$GPGSV,4,2,13,10,25,085,07,14,00,297,,17,22,320,22,19,03,339,,0*61
$GPGSV,4,3,13,22,06,313,,24,00,016,,28,24,125,10,31,07,148,,0*65
$GPGSV,4,4,13,32,55,073,12,0*51
$GLGSV,2,1,08,70,27,051,,71,77,047,13,72,47,231,12,79,16,001,,0*7E
$GLGSV,2,2,08,80,16,053,12,86,49,172,15,87,71,282,10,88,15,326,26,0*7F
$GAGSV,1,1,00,0*74
$GNGLL,5552.31914,N,03800.08611,E,124419.00,A,A*70

$GNRMC,124420.00,A,5552.31967,N,03800.08681,E,0.452,,120625,,,A,V*15
$GNVTG,,T,,M,0.452,N,0.837,K,A*32

$GNGGA,124420.00,5552.31967,N,03800.08681,E,1,10,1.01,128.2,M,12.9,M,,*40
$GNGSA,A,3,08,01,02,32,,,,,,,,,1.52,1.01,1.14,1*09
$GNGSA,A,3,88,86,71,87,72,80,,,,,,,1.52,1.01,1.14,2*0A
$GNGSA,A,3,,,,,,,,,,,,,1.52,1.01,1.14,3*01
$GPGSV,4,1,13,01,59,285,18,02,71,208,17,03,31,266,14,08,15,211,09,0*60
$GPGSV,4,2,13,10,25,085,07,14,00,297,,17,22,320,21,19,03,339,,0*62
$GPGSV,4,3,13,22,06,313,,24,00,016,,28,24,125,09,31,07,148,,0*6D
$GPGSV,4,4,13,32,55,073,07,0*55
$GLGSV,2,1,08,70,27,051,,71,77,047,10,72,47,231,13,79,16,001,,0*7C
$GLGSV,2,2,08,80,16,053,11,86,49,172,15,87,71,282,11,88,15,326,25,0*7E
$GAGSV,1,1,00,0*74
$GNGLL,5552.31967,N,03800.08681,E,124420.00,A,A*77

$GNRMC,124421.00,A,5552.31990,N,03800.08703,E,0.187,,120625,,,A,V*1A
$GNVTG,,T,,M,0.187,N,0.346,K,A*32

$GNGGA,124421.00,5552.31990,N,03800.08703,E,1,11,0.91,128.5,M,12.9,M,,*4C
$GNGSA,A,3,08,01,02,10,32,,,,,,,,1.43,0.91,1.10,1*04
$GNGSA,A,3,88,86,71,87,72,80,,,,,,,1.43,0.91,1.10,2*06
$GNGSA,A,3,,,,,,,,,,,,,1.43,0.91,1.10,3*0D
$GPGSV,4,1,13,01,59,285,19,02,71,208,19,03,31,266,13,08,15,211,09,0*68
$GPGSV,4,2,13,10,25,085,08,14,00,297,,17,22,320,21,19,03,339,,0*6D
$GPGSV,4,3,13,22,06,313,,24,00,016,,28,24,125,09,31,07,148,,0*6D
$GPGSV,4,4,13,32,55,073,11,0*52
$GLGSV,2,1,08,70,27,051,,71,77,047,11,72,47,231,15,79,16,001,,0*7B
$GLGSV,2,2,08,80,16,053,10,86,49,172,14,87,71,282,08,88,15,326,25,0*76
$GAGSV,1,1,00,0*74
$GNGLL,5552.31990,N,03800.08703,E,124421.00,A,A*75

$GNRMC,124422.00,A,5552.32025,N,03800.08775,E,0.343,,120625,,,A,V*16
$GNVTG,,T,,M,0.343,N,0.636,K,A*3A
$GNGGA,124422.00,5552.32025,N,03800.08775,E,1,11,0.91,129.1,M,12.9,M,,*4F

$GNGSA,A,3,08,01,02,10,32,,,,,,,,1.43,0.91,1.10,1*04
$GNGSA,A,3,88,86,71,87,72,80,,,,,,,1.43,0.91,1.10,2*06
$GNGSA,A,3,,,,,,,,,,,,,1.43,0.91,1.10,3*0D
$GPGSV,4,1,13,01,59,285,20,02,71,208,19,03,31,266,13,08,15,211,11,0*6B
$GPGSV,4,2,13,10,25,085,08,14,00,297,,17,22,320,21,19,03,339,,0*6D
$GPGSV,4,3,13,22,06,313,,24,00,016,,28,24,125,10,31,07,148,,0*65
$GPGSV,4,4,13,32,55,073,11,0*52
$GLGSV,2,1,08,70,27,051,,71,77,047,10,72,47,231,15,79,16,001,,0*7A
$GLGSV,2,2,08,80,16,053,10,86,49,172,14,87,71,282,10,88,15,326,25,0*7F
$GAGSV,1,1,00,0*74
$GNGLL,5552.32025,N,03800.08775,E,124422.00,A,A*73

$GNRMC,124423.00,A,5552.32040,N,03800.08901,E,0.676,,120625,,,A,V*1A
$GNVTG,,T,,M,0.676,N,1.253,K,A*3F

$GNGGA,124423.00,5552.32040,N,03800.08901,E,1,10,1.15,129.5,M,12.9,M,,*48
$GNGSA,A,3,01,02,10,32,,,,,,,,,1.94,1.15,1.56,1*09
$GNGSA,A,3,88,86,71,87,72,80,,,,,,,1.94,1.15,1.56,2*03
$GNGSA,A,3,,,,,,,,,,,,,1.94,1.15,1.56,3*08
$GPGSV,4,1,13,01,59,285,19,02,71,208,18,03,31,266,12,08,15,211,06,0*67
$GPGSV,4,2,13,10,25,085,08,14,00,297,,17,22,320,22,19,03,339,,0*6E
$GPGSV,4,3,13,22,06,313,,24,00,016,,28,24,124,10,31,07,148,,0*64
$GPGSV,4,4,13,32,55,073,13,0*50
$GLGSV,2,1,08,70,27,051,,71,77,047,14,72,47,231,15,79,16,001,,0*7E
$GLGSV,2,2,08,80,16,053,13,86,49,172,15,87,71,282,17,88,15,326,24,0*7B
$GAGSV,1,1,00,0*74
$GNGLL,5552.32040,N,03800.08901,E,124423.00,A,A*7C

$GNRMC,124424.00,A,5552.32070,N,03800.08955,E,0.581,,120625,,,A,V*14
$GNVTG,,T,,M,0.581,N,1.076,K,A*31
$GNGGA,124424.00,5552.32070,N,03800.08955,E,1,11,0.91,129.9,M,12.9,M,,*4D

$GNGSA,A,3,08,01,02,10,32,,,,,,,,1.43,0.91,1.10,1*04
$GNGSA,A,3,88,86,71,87,72,80,,,,,,,1.43,0.91,1.10,2*06
$GNGSA,A,3,,,,,,,,,,,,,1.43,0.91,1.10,3*0D
$GPGSV,4,1,13,01,59,285,18,02,71,208,17,03,31,266,11,08,15,211,08,0*64
$GPGSV,4,2,13,10,25,085,12,14,00,297,,17,22,320,21,19,03,339,,0*66
$GPGSV,4,3,13,22,06,313,,24,00,016,,28,24,124,09,31,07,148,,0*6C
$GPGSV,4,4,13,32,55,073,11,0*52
$GLGSV,2,1,08,70,27,051,,71,77,047,09,72,47,231,15,79,16,001,,0*72
$GLGSV,2,2,08,80,16,053,17,86,49,172,15,87,71,282,10,88,15,326,24,0*78
$GAGSV,1,1,00,0*74
$GNGLL,5552.32070,N,03800.08955,E,124424.00,A,A*79

$GNRMC,124425.00,A,5552.32115,N,03800.08871,E,0.296,,120625,,,A,V*11
$GNVTG,,T,,M,0.296,N,0.549,K,A*38

$GNGGA,124425.00,5552.32115,N,03800.08871,E,1,11,0.91,131.1,M,12.9,M,,*48
$GNGSA,A,3,08,01,02,10,32,,,,,,,,1.43,0.91,1.10,1*04
$GNGSA,A,3,88,86,71,87,72,80,,,,,,,1.43,0.91,1.10,2*06
$GNGSA,A,3,,,,,,,,,,,,,1.43,0.91,1.10,3*0D
$GPGSV,4,1,13,01,59,285,15,02,71,208,14,03,31,266,09,08,15,211,09,0*62
$GPGSV,4,2,13,10,25,085,10,14,00,297,,17,22,320,19,19,03,339,,0*6F
$GPGSV,4,3,13,22,06,313,,24,00,016,,28,24,124,09,31,07,148,,0*6C
$GPGSV,4,4,13,32,55,073,15,0*56
$GLGSV,2,1,08,70,27,051,,71,77,047,12,72,47,231,16,79,16,001,,0*7B
$GLGSV,2,2,08,80,16,053,13,86,49,172,16,87,71,282,16,88,15,326,23,0*7E
$GAGSV,1,1,00,0*74
$GNGLL,5552.32115,N,03800.08871,E,124425.00,A,A*7D

$GNRMC,124426.00,A,5552.32119,N,03800.09031,E,1.202,,120625,,,A,V*1F

$GNVTG,,T,,M,1.202,N,2.226,K,A*38
$GNGGA,124426.00,5552.32119,N,03800.09031,E,1,11,0.91,131.3,M,12.9,M,,*48
$GNGSA,A,3,08,01,02,10,32,,,,,,,,1.43,0.91,1.10,1*04
$GNGSA,A,3,88,86,71,87,72,80,,,,,,,1.43,0.91,1.10,2*06
$GNGSA,A,3,,,,,,,,,,,,,1.43,0.91,1.10,3*0D
$GPGSV,4,1,13,01,59,285,13,02,71,208,14,03,31,266,,08,15,211,07,0*63
$GPGSV,4,2,13,10,25,085,08,14,00,297,,17,22,320,18,19,03,339,,0*67
$GPGSV,4,3,13,22,06,313,,24,00,016,,28,24,124,08,31,08,148,,0*62
$GPGSV,4,4,13,32,55,073,07,0*55
$GLGSV,2,1,08,70,27,051,,71,77,047,15,72,47,231,15,79,16,001,,0*7F
$GLGSV,2,2,08,80,16,053,08,86,49,172,15,87,71,282,14,88,15,326,24,0*72
$GAGSV,1,1,00,0*74
$GNGLL,5552.32119,N,03800.09031,E,124426.00,A,A*7F

$GNRMC,124427.00,A,5552.32159,N,03800.09095,E,1.002,,120625,,,A,V*16
$GNVTG,,T,,M,1.002,N,1.855,K,A*37

$GNGGA,124427.00,5552.32159,N,03800.09095,E,1,10,1.01,131.5,M,12.9,M,,*4C
$GNGSA,A,3,08,01,02,32,,,,,,,,,1.52,1.01,1.14,1*09
$GNGSA,A,3,88,86,71,87,72,80,,,,,,,1.52,1.01,1.14,2*0A
$GNGSA,A,3,,,,,,,,,,,,,1.52,1.01,1.14,3*01
$GPGSV,4,1,13,01,59,285,13,02,71,208,13,03,31,266,,08,15,211,09,0*6A
$GPGSV,4,2,13,10,25,085,07,14,00,297,,17,22,320,17,19,03,339,,0*67
$GPGSV,4,3,13,22,06,313,,24,00,016,,28,24,124,07,31,08,148,,0*6D
$GPGSV,4,4,13,32,55,073,12,0*51
$GLGSV,2,1,08,70,27,051,,71,77,047,11,72,47,231,13,79,16,001,,0*7D
$GLGSV,2,2,08,80,16,053,13,86,49,172,17,87,71,282,15,88,15,326,24,0*7B
$GAGSV,1,1,00,0*74
$GNGLL,5552.32159,N,03800.09095,E,124427.00,A,A*74

$GNRMC,124428.00,A,5552.32134,N,03800.08894,E,0.411,,120625,,,A,V*1D
$GNVTG,,T,,M,0.411,N,0.761,K,A*39

$GNGGA,124428.00,5552.32134,N,03800.08894,E,1,10,0.93,131.2,M,12.9,M,,*4D
$GNGSA,A,3,08,01,02,10,32,,,,,,,,1.49,0.93,1.17,1*0B
$GNGSA,A,3,88,86,71,72,80,,,,,,,,1.49,0.93,1.17,2*06
$GNGSA,A,3,,,,,,,,,,,,,1.49,0.93,1.17,3*02
$GPGSV,4,1,13,01,59,285,11,02,71,208,15,03,31,266,,08,15,211,08,0*6F
$GPGSV,4,2,13,10,25,085,11,14,00,297,,17,22,320,16,19,03,339,,0*61
$GPGSV,4,3,13,22,06,313,,24,00,016,,28,24,124,09,31,08,148,,0*63
$GPGSV,4,4,13,32,55,073,10,0*53
$GLGSV,2,1,08,70,27,051,,71,77,047,13,72,47,231,13,79,16,001,,0*7F
$GLGSV,2,2,08,80,16,053,13,86,49,172,16,87,71,282,04,88,15,326,24,0*7A
$GAGSV,1,1,00,0*74
$GNGLL,5552.32134,N,03800.08894,E,124428.00,A,A*78

$GNRMC,124429.00,A,5552.32143,N,03800.08910,E,0.710,,120625,,,A,V*13
$GNVTG,,T,,M,0.710,N,1.314,K,A*3C

$GNGGA,124429.00,5552.32143,N,03800.08910,E,1,11,0.94,131.4,M,12.9,M,,*41
$GNGSA,A,3,08,01,02,10,32,,,,,,,,1.45,0.94,1.10,1*07
$GNGSA,A,3,88,86,71,87,72,80,,,,,,,1.45,0.94,1.10,2*05
$GNGSA,A,3,,,,,,,,,,,,,1.45,0.94,1.10,3*0E
$GPGSV,4,1,13,01,59,285,16,02,71,208,14,03,31,266,,08,15,211,08,0*69
$GPGSV,4,2,13,10,25,085,09,14,00,297,,17,22,320,14,19,03,339,,0*6A
$GPGSV,4,3,13,22,06,313,,24,00,016,,28,24,124,11,31,08,148,,0*6A
$GPGSV,4,4,13,32,55,073,11,0*52
$GLGSV,2,1,08,70,27,051,,71,77,047,10,72,47,231,13,79,16,001,,0*7C
$GLGSV,2,2,08,80,16,053,13,86,49,172,16,87,71,282,11,88,15,326,21,0*7B
$GAGSV,1,1,00,0*74
$GNGLL,5552.32143,N,03800.08910,E,124429.00,A,A*74

$GNRMC,124430.00,A,5552.32148,N,03800.08966,E,0.815,,120625,,,A,V*1B

$GNVTG,,T,,M,0.815,N,1.510,K,A*34
$GNGGA,124430.00,5552.32148,N,03800.08966,E,1,08,1.43,131.8,M,12.9,M,,*4C
$GNGSA,A,3,01,02,32,,,,,,,,,,2.50,1.43,2.05,1*05
$GNGSA,A,3,88,86,71,87,72,,,,,,,,2.50,1.43,2.05,2*06
$GNGSA,A,3,,,,,,,,,,,,,2.50,1.43,2.05,3*05
$GPGSV,4,1,13,01,59,285,20,02,71,208,12,03,31,266,,08,15,211,07,0*65
$GPGSV,4,2,13,10,25,085,06,14,00,297,,17,22,320,10,19,03,339,,0*61
$GPGSV,4,3,13,22,06,313,,24,00,016,,28,24,124,10,31,08,148,,0*6B
$GPGSV,4,4,13,32,55,073,17,0*54
$GLGSV,2,1,08,70,27,051,,71,77,047,14,72,47,231,17,79,16,001,,0*7C
$GLGSV,2,2,08,80,16,053,07,86,49,172,15,87,71,282,16,88,15,326,18,0*70
$GAGSV,1,1,00,0*74

$GNGLL,5552.32148,N,03800.08966,E,124430.00,A,A*76

$GNRMC,124431.00,A,5552.32151,N,03800.08868,E,0.710,,120625,,,A,V*17
$GNVTG,,T,,M,0.710,N,1.315,K,A*3D
$GNGGA,124431.00,5552.32151,N,03800.08868,E,1,11,0.91,133.0,M,12.9,M,,*46

$GNGSA,A,3,08,01,02,10,32,,,,,,,,1.43,0.91,1.10,1*04
$GNGSA,A,3,88,86,71,87,72,80,,,,,,,1.43,0.91,1.10,2*06
$GNGSA,A,3,,,,,,,,,,,,,1.43,0.91,1.10,3*0D
$GPGSV,4,1,13,01,59,285,22,02,71,208,15,03,31,266,,08,15,211,11,0*67
$GPGSV,4,2,13,10,25,085,09,14,00,297,,17,22,320,,19,03,339,,0*6F
$GPGSV,4,3,13,22,06,313,,24,00,016,,28,24,124,11,31,08,148,,0*6A
$GPGSV,4,4,13,32,55,073,15,0*56
$GLGSV,2,1,08,70,27,051,,71,77,047,08,72,47,231,18,79,16,001,,0*7E
$GLGSV,2,2,08,80,16,053,12,86,49,172,15,87,71,282,17,88,15,326,18,0*75
$GAGSV,1,1,00,0*74
$GNGLL,5552.32151,N,03800.08868,E,124431.00,A,A*70

$GNRMC,124432.00,A,5552.32224,N,03800.09052,E,0.862,,120625,,,A,V*1F
$GNVTG,,T,,M,0.862,N,1.597,K,A*3B
$GNGGA,124432.00,5552.32224,N,03800.09052,E,1,11,0.91,133.6,M,12.9,M,,*42

$GNGSA,A,3,08,01,02,10,32,,,,,,,,1.43,0.91,1.10,1*04
$GNGSA,A,3,88,86,71,87,72,80,,,,,,,1.43,0.91,1.10,2*06
$GNGSA,A,3,,,,,,,,,,,,,1.43,0.91,1.10,3*0D
$GPGSV,4,1,13,01,59,285,21,02,71,208,18,03,31,266,,08,15,211,09,0*60
$GPGSV,4,2,13,10,25,085,10,14,00,297,,17,22,320,18,19,03,339,,0*6E
$GPGSV,4,3,13,22,06,313,,24,00,016,,28,24,124,11,31,08,148,,0*6A
$GPGSV,4,4,13,32,55,073,14,0*57
$GLGSV,2,1,08,70,27,051,,71,77,047,14,72,47,231,17,79,16,001,,0*7C
$GLGSV,2,2,08,80,16,053,12,86,49,172,17,87,71,282,18,88,15,326,21,0*72
$GAGSV,1,1,00,0*74
$GNGLL,5552.32224,N,03800.09052,E,124432.00,A,A*72

$GNRMC,124433.00,A,5552.32287,N,03800.08926,E,0.746,,120625,,,A,V*15
$GNVTG,,T,,M,0.746,N,1.382,K,A*30
$GNGGA,124433.00,5552.32287,N,03800.08926,E,1,11,0.91,134.5,M,12.9,M,,*45

$GNGSA,A,3,08,01,02,10,32,,,,,,,,1.43,0.91,1.10,1*04
$GNGSA,A,3,88,86,71,87,72,80,,,,,,,1.43,0.91,1.10,2*06
$GNGSA,A,3,,,,,,,,,,,,,1.43,0.91,1.10,3*0D
$GPGSV,4,1,13,01,59,285,19,02,71,208,18,03,31,266,,08,15,211,10,0*63
$GPGSV,4,2,13,10,25,085,08,14,00,297,,17,22,320,17,19,03,339,,0*68
$GPGSV,4,3,13,22,06,313,,24,00,016,,28,24,124,09,31,08,148,,0*63
$GPGSV,4,4,13,32,55,073,13,0*50
$GLGSV,2,1,08,70,27,051,,71,77,047,12,72,47,231,14,79,16,001,,0*79
$GLGSV,2,2,08,80,16,053,14,86,49,172,17,87,71,282,18,88,15,326,21,0*74
$GAGSV,1,1,00,0*74
$GNGLL,5552.32287,N,03800.08926,E,124433.00,A,A*71

$GNRMC,124434.00,A,5552.32293,N,03800.08813,E,0.986,,120625,,,A,V*12
$GNVTG,,T,,M,0.986,N,1.826,K,A*37

$GNGGA,124434.00,5552.32293,N,03800.08813,E,1,10,0.94,134.2,M,12.9,M,,*43
$GNGSA,A,3,08,01,02,10,32,,,,,,,,1.45,0.94,1.10,1*07
$GNGSA,A,3,88,86,71,87,80,,,,,,,,1.45,0.94,1.10,2*00
$GNGSA,A,3,,,,,,,,,,,,,1.45,0.94,1.10,3*0E
$GPGSV,4,1,13,01,59,285,18,02,71,208,18,03,31,266,,08,15,211,11,0*63
$GPGSV,4,2,13,10,25,085,11,14,00,297,,17,22,320,15,19,03,339,,0*62
$GPGSV,4,3,13,22,06,313,,24,00,016,,28,24,124,,31,08,148,,0*6A
$GPGSV,4,4,13,32,55,073,11,0*52
$GLGSV,2,1,08,70,27,051,,71,77,047,13,72,47,231,10,79,16,001,,0*7C
$GLGSV,2,2,08,80,16,053,14,86,49,172,15,87,71,282,17,88,15,326,21,0*79
$GAGSV,1,1,00,0*74
$GNGLL,5552.32293,N,03800.08813,E,124434.00,A,A*74

$GNRMC,124435.00,A,5552.32307,N,03800.08783,E,0.788,,120625,,,A,V*19
$GNVTG,,T,,M,0.788,N,1.460,K,A*39

$GNGGA,124435.00,5552.32307,N,03800.08783,E,1,11,0.91,134.8,M,12.9,M,,*46
$GNGSA,A,3,08,01,02,10,32,,,,,,,,1.43,0.91,1.10,1*04
$GNGSA,A,3,88,86,71,87,72,80,,,,,,,1.43,0.91,1.10,2*06
$GNGSA,A,3,,,,,,,,,,,,,1.43,0.91,1.10,3*0D
$GPGSV,4,1,13,01,59,285,14,02,71,208,17,03,31,266,,08,15,211,11,0*60
$GPGSV,4,2,13,10,25,085,09,14,00,297,,17,22,320,13,19,03,339,,0*6D
$GPGSV,4,3,13,22,06,313,,24,00,016,,28,24,124,,31,08,148,,0*6A
$GPGSV,4,4,13,32,55,073,12,0*51
$GLGSV,2,1,08,70,27,051,,71,77,047,17,72,47,231,11,79,16,001,,0*79
$GLGSV,2,2,08,80,16,053,14,86,49,172,13,87,71,282,16,88,15,326,19,0*75
$GAGSV,1,1,00,0*74
$GNGLL,5552.32307,N,03800.08783,E,124435.00,A,A*7F

$GNRMC,124436.00,A,5552.32328,N,03800.08983,E,0.446,,120625,,,A,V*18
$GNVTG,,T,,M,0.446,N,0.826,K,A*37

$GNGGA,124436.00,5552.32328,N,03800.08983,E,1,11,0.91,135.0,M,12.9,M,,*4F
$GNGSA,A,3,08,01,02,10,32,,,,,,,,1.43,0.91,1.10,1*04
$GNGSA,A,3,88,86,71,87,72,80,,,,,,,1.43,0.91,1.10,2*06
$GNGSA,A,3,,,,,,,,,,,,,1.43,0.91,1.10,3*0D
$GPGSV,4,1,13,01,59,285,11,02,71,208,15,03,31,266,,08,15,211,09,0*6E
$GPGSV,4,2,13,10,25,085,14,14,00,297,,17,22,320,09,19,03,339,,0*6A
$GPGSV,4,3,13,22,06,313,,24,00,016,,28,24,124,,31,08,148,,0*6A
$GPGSV,4,4,13,32,55,073,10,0*53
$GLGSV,2,1,08,70,27,051,,71,77,047,10,72,47,231,11,79,16,001,,0*7E
$GLGSV,2,2,08,80,16,053,14,86,49,172,12,87,71,282,15,88,15,326,18,0*76
$GAGSV,1,1,00,0*74
$GNGLL,5552.32328,N,03800.08983,E,124436.00,A,A*7F

$GNRMC,124437.00,A,5552.32452,N,03800.09139,E,1.016,,120625,,,A,V*1B
$GNVTG,,T,,M,1.016,N,1.881,K,A*3B
$GNGGA,124437.00,5552.32452,N,03800.09139,E,1,09,1.13,135.2,M,12.9,M,,*4C

$GNGSA,A,3,08,01,02,32,,,,,,,,,1.60,1.13,1.14,1*0B
$GNGSA,A,3,88,71,87,72,80,,,,,,,,1.60,1.13,1.14,2*06
$GNGSA,A,3,,,,,,,,,,,,,1.60,1.13,1.14,3*03
$GPGSV,4,1,13,01,59,285,07,02,71,208,13,03,31,266,,08,15,211,08,0*6E
$GPGSV,4,2,13,10,25,085,06,14,00,297,,17,22,320,08,19,03,339,,0*68
$GPGSV,4,3,13,22,06,313,,24,00,016,,28,24,124,,31,08,148,,0*6A
$GPGSV,4,4,13,32,55,073,10,0*53
$GLGSV,2,1,08,70,27,051,,71,77,047,11,72,47,231,11,79,16,001,,0*7F
$GLGSV,2,2,08,80,16,053,12,86,49,172,,87,71,282,13,88,15,326,15,0*78
$GAGSV,1,1,00,0*74
$GNGLL,5552.32452,N,03800.09139,E,124437.00,A,A*7C

$GNRMC,124438.00,A,5552.32531,N,03800.09130,E,1.457,,120625,,,A,V*18
$GNVTG,,T,,M,1.457,N,2.698,K,A*3F

$GNGGA,124438.00,5552.32531,N,03800.09130,E,1,09,1.02,135.0,M,12.9,M,,*4C
$GNGSA,A,3,08,01,02,10,32,,,,,,,,1.56,1.02,1.17,1*0C
$GNGSA,A,3,88,71,72,80,,,,,,,,,1.56,1.02,1.17,2*0F
$GNGSA,A,3,,,,,,,,,,,,,1.56,1.02,1.17,3*05
$GPGSV,4,1,13,01,59,285,11,02,71,208,11,03,31,266,,08,15,211,08,0*6B
$GPGSV,4,2,13,10,25,085,09,14,00,297,,17,22,320,08,19,03,339,,0*67
$GPGSV,4,3,13,22,06,313,,24,00,016,,28,24,124,,31,08,148,,0*6A
$GPGSV,4,4,13,32,55,073,11,0*52
$GLGSV,2,1,08,70,27,051,,71,77,047,11,72,47,231,12,79,16,001,,0*7C
$GLGSV,2,2,08,80,16,053,12,86,49,172,,87,71,282,09,88,15,326,11,0*77
$GAGSV,1,1,00,0*74
$GNGLL,5552.32531,N,03800.09130,E,124438.00,A,A*7E

$GNRMC,124439.00,A,5552.32605,N,03800.09189,E,1.679,,120625,,,A,V*11
$GNVTG,,T,,M,1.679,N,3.109,K,A*3F

$GNGGA,124439.00,5552.32605,N,03800.09189,E,1,09,1.64,134.7,M,12.9,M,,*4D
$GNGSA,A,3,08,01,02,10,32,,,,,,,,2.20,1.64,1.47,1*0B
$GNGSA,A,3,71,87,72,80,,,,,,,,,2.20,1.64,1.47,2*07
$GNGSA,A,3,,,,,,,,,,,,,2.20,1.64,1.47,3*02
$GPGSV,4,1,13,01,59,285,09,02,71,208,11,03,31,266,,08,15,211,09,0*63
$GPGSV,4,2,13,10,25,085,11,14,00,297,,17,22,320,07,19,03,339,,0*61
$GPGSV,4,3,13,22,06,313,,24,00,016,,28,24,124,18,31,08,148,,0*63
$GPGSV,4,4,13,32,55,073,10,0*53
$GLGSV,2,1,08,70,27,051,,71,77,047,09,72,47,231,11,79,16,001,,0*76
$GLGSV,2,2,08,80,16,053,09,86,49,172,,87,71,282,09,88,15,326,08,0*75
$GAGSV,1,1,00,0*74
$GNGLL,5552.32605,N,03800.09189,E,124439.00,A,A*79

$GNRMC,124440.00,A,5552.32563,N,03800.08893,E,0.880,,120625,,,A,V*16
$GNVTG,,T,,M,0.880,N,1.629,K,A*31

$GNGGA,124440.00,5552.32563,N,03800.08893,E,1,07,3.17,135.2,M,12.9,M,,*4F
$GNGSA,A,3,08,01,10,32,,,,,,,,,4.67,3.17,3.42,1*0D
$GNGSA,A,3,71,87,72,,,,,,,,,,4.67,3.17,3.42,2*0B
$GNGSA,A,3,,,,,,,,,,,,,4.67,3.17,3.42,3*06
$GPGSV,4,1,13,01,59,285,11,02,71,208,10,03,31,266,,08,15,211,12,0*61
$GPGSV,4,2,13,10,25,085,09,14,00,297,,17,22,320,07,19,03,339,,0*68
$GPGSV,4,3,13,22,06,313,,24,00,016,,28,24,124,14,31,08,148,,0*6F
$GPGSV,4,4,13,32,55,073,08,0*5A
$GLGSV,2,1,08,70,27,051,,71,77,047,09,72,47,231,11,79,16,001,,0*76
$GLGSV,2,2,08,80,16,053,09,86,49,172,,87,71,282,08,88,15,326,08,0*74
$GAGSV,1,1,00,0*74
$GNGLL,5552.32563,N,03800.08893,E,124440.00,A,A*77

$GNRMC,124441.00,A,5552.32548,N,03800.08801,E,1.076,,120625,,,A,V*15
$GNVTG,,T,,M,1.076,N,1.993,K,A*3F
$GNGGA,124441.00,5552.32548,N,03800.08801,E,1,07,1.52,135.2,M,12.9,M,,*4F
$GNGSA,A,3,01,10,32,,,,,,,,,,2.33,1.52,1.77,1*05
$GNGSA,A,3,88,71,87,72,,,,,,,,,2.33,1.52,1.77,2*0B
$GNGSA,A,3,,,,,,,,,,,,,2.33,1.52,1.77,3*06

$GPGSV,4,1,13,01,59,285,10,02,71,208,10,03,31,266,,08,15,211,07,0*64
$GPGSV,4,2,13,10,25,085,08,14,00,297,,17,22,320,08,19,03,339,,0*66
$GPGSV,4,3,13,22,06,313,,24,00,016,,28,24,124,12,31,08,148,,0*69
$GPGSV,4,4,13,32,55,073,11,0*52
$GLGSV,2,1,08,70,27,051,,71,77,047,09,72,47,231,11,79,16,001,,0*76
$GLGSV,2,2,08,80,16,053,09,86,49,172,,87,71,282,12,88,15,326,10,0*76
$GAGSV,1,1,00,0*74
$GNGLL,5552.32548,N,03800.08801,E,124441.00,A,A*74

$GNRMC,124442.00,A,5552.32555,N,03800.08750,E,1.076,,120625,,,A,V*11
$GNVTG,,T,,M,1.076,N,1.993,K,A*3F

$GNGGA,124442.00,5552.32555,N,03800.08750,E,1,07,1.12,135.1,M,12.9,M,,*4C
$GNGSA,A,3,08,01,10,32,,,,,,,,,1.71,1.12,1.29,1*07
$GNGSA,A,3,88,71,87,,,,,,,,,,1.71,1.12,1.29,2*04
$GNGSA,A,3,,,,,,,,,,,,,1.71,1.12,1.29,3*0C
$GPGSV,4,1,13,01,59,285,14,02,71,208,09,03,31,266,,08,15,211,08,0*67
$GPGSV,4,2,13,10,25,085,10,14,00,297,,17,22,320,08,19,03,339,,0*6F
$GPGSV,4,3,13,22,06,313,,24,00,016,,28,24,124,10,31,08,148,,0*6B
$GPGSV,4,4,13,32,55,073,07,0*55
$GLGSV,2,1,08,70,27,051,,71,77,047,10,72,47,231,09,79,16,001,,0*77
$GLGSV,2,2,08,80,16,053,10,86,49,172,,87,71,282,11,88,15,326,10,0*7D
$GAGSV,1,1,00,0*74
$GNGLL,5552.32555,N,03800.08750,E,124442.00,A,A*70

$GNRMC,124443.00,A,5552.32639,N,03800.08867,E,1.038,,120625,,,A,V*18
$GNVTG,,T,,M,1.038,N,1.922,K,A*3F
$GNGGA,124443.00,5552.32639,N,03800.08867,E,1,08,1.04,135.7,M,12.9,M,,*41
$GNGSA,A,3,08,01,10,32,,,,,,,,,1.56,1.04,1.16,1*09
$GNGSA,A,3,88,71,87,80,,,,,,,,,1.56,1.04,1.16,2*02
$GNGSA,A,3,,,,,,,,,,,,,1.56,1.04,1.16,3*02
$GPGSV,4,1,13,01,59,285,12,02,71,208,08,03,31,266,,08,15,211,09,0*61

$GPGSV,4,2,13,10,25,085,10,14,00,297,,17,22,320,,19,03,339,,0*67
$GPGSV,4,3,13,22,06,313,,24,00,016,,28,24,124,08,31,08,148,,0*62
$GPGSV,4,4,13,32,55,073,10,0*53
$GLGSV,2,1,08,70,27,051,,71,77,047,08,72,47,231,09,79,16,001,,0*7E
$GLGSV,2,2,08,80,16,053,09,86,49,172,,87,71,282,08,88,15,326,10,0*7D
$GAGSV,1,1,00,0*74
$GNGLL,5552.32639,N,03800.08867,E,124443.00,A,A*73

$GNRMC,124444.00,A,5552.32651,N,03800.08820,E,1.038,,120625,,,A,V*12
$GNVTG,,T,,M,1.038,N,1.922,K,A*3F
$GNGGA,124444.00,5552.32651,N,03800.08820,E,1,09,1.01,135.6,M,12.9,M,,*4E
$GNGSA,A,3,08,01,02,10,32,,,,,,,,1.50,1.01,1.10,1*0E
$GNGSA,A,3,88,71,87,80,,,,,,,,,1.50,1.01,1.10,2*07

$GNGSA,A,3,,,,,,,,,,,,,1.50,1.01,1.10,3*07
$GPGSV,4,1,13,01,59,285,10,02,71,208,10,03,31,266,,08,15,211,11,0*63
$GPGSV,4,2,13,10,25,085,09,14,00,297,,17,22,320,,19,03,339,,0*6F
$GPGSV,4,3,13,22,06,313,,24,00,016,,28,24,124,09,31,08,148,,0*63
$GPGSV,4,4,13,32,55,073,10,0*53
$GLGSV,2,1,08,70,27,051,,71,77,047,10,72,47,231,08,79,16,001,,0*76
$GLGSV,2,2,08,80,16,053,08,86,49,172,,87,71,282,10,88,15,326,09,0*7D
$GAGSV,1,1,00,0*74
$GNGLL,5552.32651,N,03800.08820,E,124444.00,A,A*79

$GNRMC,124445.00,A,5552.32663,N,03800.08774,E,1.038,,120625,,,A,V*1C
$GNVTG,,T,,M,1.038,N,1.922,K,A*3F
$GNGGA,124445.00,5552.32663,N,03800.08774,E,1,10,0.98,135.6,M,12.9,M,,*49
$GNGSA,A,3,08,01,02,10,32,,,,,,,,1.48,0.98,1.10,1*06

$GNGSA,A,3,88,71,87,72,80,,,,,,,,1.48,0.98,1.10,2*0A
$GNGSA,A,3,,,,,,,,,,,,,1.48,0.98,1.10,3*0F
$GPGSV,4,1,13,01,59,285,10,02,71,208,10,03,31,266,,08,15,211,09,0*6A
$GPGSV,4,2,13,10,25,085,07,14,00,297,,17,22,320,,19,03,339,,0*61
$GPGSV,4,3,13,22,06,313,,24,00,016,,28,24,124,08,31,08,148,,0*62
$GPGSV,4,4,13,32,55,073,10,0*53
$GLGSV,2,1,08,70,27,051,,71,77,047,13,72,47,231,09,79,16,001,,0*74
$GLGSV,2,2,08,80,16,053,09,86,49,172,,87,71,282,09,88,15,326,09,0*74
$GAGSV,1,1,00,0*74
$GNGLL,5552.32663,N,03800.08774,E,124445.00,A,A*77

$GNRMC,124446.00,A,5552.32857,N,03800.08565,E,1.570,,120625,,,A,V*1D
$GNVTG,,T,,M,1.570,N,2.907,K,A*32

$GNGGA,124446.00,5552.32857,N,03800.08565,E,1,10,0.98,136.7,M,12.9,M,,*43
$GNGSA,A,3,08,01,02,10,32,,,,,,,,1.48,0.98,1.10,1*06
$GNGSA,A,3,88,71,87,72,80,,,,,,,,1.48,0.98,1.10,2*0A
$GNGSA,A,3,,,,,,,,,,,,,1.48,0.98,1.10,3*0F
$GPGSV,4,1,13,01,59,285,08,02,71,208,09,03,31,266,,08,15,211,11,0*62
$GPGSV,4,2,13,10,25,085,10,14,00,297,,17,22,320,,19,03,339,,0*67
$GPGSV,4,3,13,22,06,313,,24,00,016,,28,24,124,08,31,08,148,,0*62
$GPGSV,4,4,13,32,55,073,09,0*5B
$GLGSV,2,1,08,70,27,051,,71,77,047,11,72,47,231,11,79,16,001,,0*7F
$GLGSV,2,2,08,80,16,053,09,86,49,172,,87,71,282,10,88,15,326,10,0*74
$GAGSV,1,1,00,0*74
$GNGLL,5552.32857,N,03800.08565,E,124446.00,A,A*7F

$GNRMC,124447.00,A,5552.32887,N,03800.08509,E,1.570,,120625,,,A,V*1B
$GNVTG,,T,,M,1.570,N,2.907,K,A*32
$GNGGA,124447.00,5552.32887,N,03800.08509,E,1,10,0.98,136.7,M,12.9,M,,*45
$GNGSA,A,3,08,01,02,10,32,,,,,,,,1.48,0.98,1.10,1*06
$GNGSA,A,3,88,71,87,72,80,,,,,,,,1.48,0.98,1.10,2*0A
$GNGSA,A,3,,,,,,,,,,,,,1.48,0.98,1.10,3*0F

$GPGSV,4,1,13,01,59,285,09,02,71,208,11,03,31,266,,08,15,211,09,0*63
$GPGSV,4,2,13,10,25,085,09,14,00,297,,17,22,320,,19,03,339,,0*6F
$GPGSV,4,3,13,22,06,313,,24,00,016,,28,24,124,09,31,08,148,,0*63
$GPGSV,4,4,13,32,55,073,11,0*52
$GLGSV,2,1,08,70,27,051,,71,77,047,08,72,47,231,09,79,16,001,,0*7E
$GLGSV,2,2,08,80,16,053,07,86,49,172,,87,71,282,09,88,15,326,08,0*7B
$GAGSV,1,1,00,0*74
$GNGLL,5552.32887,N,03800.08509,E,124447.00,A,A*79

$GNRMC,124448.00,A,5552.32918,N,03800.08453,E,1.570,,120625,,,A,V*1D
$GNVTG,,T,,M,1.570,N,2.907,K,A*32

$GNGGA,124448.00,5552.32918,N,03800.08453,E,1,10,0.98,136.6,M,12.9,M,,*42
$GNGSA,A,3,08,01,02,10,32,,,,,,,,1.48,0.98,1.10,1*06
$GNGSA,A,3,88,71,87,72,80,,,,,,,,1.48,0.98,1.10,2*0A
$GNGSA,A,3,,,,,,,,,,,,,1.48,0.98,1.10,3*0F
$GPGSV,4,1,13,01,59,285,11,02,71,208,09,03,31,266,,08,15,211,09,0*63
$GPGSV,4,2,13,10,25,085,10,14,00,297,,17,22,320,,19,03,339,,0*67
$GPGSV,4,3,13,22,06,313,,24,00,016,,28,24,124,09,31,08,148,,0*63
$GPGSV,4,4,13,32,55,073,08,0*5A
$GLGSV,2,1,08,70,27,051,,71,77,047,08,72,47,231,09,79,16,001,,0*7E
$GLGSV,2,2,08,80,16,053,09,86,49,172,,87,71,282,09,88,15,326,08,0*75
$GAGSV,1,1,00,0*74
$GNGLL,5552.32918,N,03800.08453,E,124448.00,A,A*7F

$GNRMC,124449.00,A,5552.33101,N,03800.07970,E,2.500,,120625,,,A,V*1A
$GNVTG,,T,,M,2.500,N,4.630,K,A*3B
$GNGGA,124449.00,5552.33101,N,03800.07970,E,1,10,0.98,138.1,M,12.9,M,,*48
$GNGSA,A,3,08,01,02,10,32,,,,,,,,1.48,0.98,1.10,1*06
$GNGSA,A,3,88,71,87,72,80,,,,,,,,1.48,0.98,1.10,2*0A
$GNGSA,A,3,,,,,,,,,,,,,1.48,0.98,1.10,3*0F
$GPGSV,4,1,13,01,59,285,09,02,71,208,09,03,31,266,,08,15,211,10,0*62

$GPGSV,4,2,13,10,25,085,09,14,00,297,,17,22,320,,19,03,339,,0*6F
$GPGSV,4,3,13,22,06,313,,24,00,016,,28,24,124,09,31,08,148,,0*63
$GPGSV,4,4,13,32,55,073,10,0*53
$GLGSV,2,1,08,70,27,051,,71,77,047,11,72,47,231,10,79,16,001,,0*7E
$GLGSV,2,2,08,80,16,053,09,86,49,172,,87,71,282,08,88,15,326,09,0*75
$GAGSV,1,1,00,0*74
$GNGLL,5552.33101,N,03800.07970,E,124449.00,A,A*7C

$GNRMC,124450.00,A,5552.33153,N,03800.07889,E,2.500,,120625,,,A,V*12
$GNVTG,,T,,M,2.500,N,4.630,K,A*3B

$GNGGA,124450.00,5552.33153,N,03800.07889,E,1,10,0.98,138.0,M,12.9,M,,*41
$GNGSA,A,3,08,01,02,10,32,,,,,,,,1.48,0.98,1.10,1*06
$GNGSA,A,3,88,71,87,72,80,,,,,,,,1.48,0.98,1.10,2*0A
$GNGSA,A,3,,,,,,,,,,,,,1.48,0.98,1.10,3*0F
$GPGSV,4,1,13,01,59,285,12,02,71,208,10,03,31,266,,08,15,211,09,0*68
$GPGSV,4,2,13,10,25,085,08,14,00,297,,17,22,320,,19,03,339,,0*6E
$GPGSV,4,3,13,22,06,313,,24,00,016,,28,24,124,08,31,08,148,,0*62
$GPGSV,4,4,13,32,55,073,11,0*52
$GLGSV,2,1,08,70,27,051,,71,76,047,11,72,47,231,09,79,16,001,,0*77
$GLGSV,2,2,08,80,16,053,11,86,49,172,,87,71,282,11,88,15,326,09,0*74
$GAGSV,1,1,00,0*74
$GNGLL,5552.33153,N,03800.07889,E,124450.00,A,A*74

$GNRMC,124451.00,A,5552.33205,N,03800.07808,E,2.500,,120625,,,A,V*1A
$GNVTG,,T,,M,2.500,N,4.630,K,A*3B

$GNGGA,124451.00,5552.33205,N,03800.07808,E,1,08,1.02,138.0,M,12.9,M,,*42
$GNGSA,A,3,08,01,02,10,32,,,,,,,,1.56,1.02,1.17,1*0C
$GNGSA,A,3,88,71,80,,,,,,,,,,1.56,1.02,1.17,2*0A
$GNGSA,A,3,,,,,,,,,,,,,1.56,1.02,1.17,3*05
$GPGSV,4,1,13,01,59,285,11,02,71,208,07,03,31,266,,08,15,211,08,0*6C
$GPGSV,4,2,13,10,25,085,12,14,00,297,,17,22,320,,19,03,339,,0*65
$GPGSV,4,3,13,22,06,313,,24,00,016,,28,24,124,07,31,08,148,,0*6D
$GPGSV,4,4,13,32,55,073,08,0*5A
$GLGSV,2,1,08,70,27,051,,71,76,047,12,72,48,231,07,79,16,001,,0*75
$GLGSV,2,2,08,80,16,053,09,86,49,172,,87,71,282,06,88,15,326,11,0*72
$GAGSV,1,1,00,0*74
$GNGLL,5552.33205,N,03800.07808,E,124451.00,A,A*7C

$GNRMC,124452.00,A,5552.33439,N,03800.07232,E,3.088,,120625,,,A,V*17
$GNVTG,,T,,M,3.088,N,5.718,K,A*35

$GNGGA,124452.00,5552.33439,N,03800.07232,E,1,10,0.98,138.3,M,12.9,M,,*43
$GNGSA,A,3,08,01,02,10,32,,,,,,,,1.48,0.98,1.10,1*06
$GNGSA,A,3,88,71,87,72,80,,,,,,,,1.48,0.98,1.10,2*0A
$GNGSA,A,3,,,,,,,,,,,,,1.48,0.98,1.10,3*0F
$GPGSV,4,1,13,01,59,285,11,02,71,208,09,03,31,266,,08,15,211,11,0*6A
$GPGSV,4,2,13,10,25,085,08,14,00,297,,17,22,320,,19,03,339,,0*6E
$GPGSV,4,3,13,22,06,313,,24,00,016,,28,24,124,08,31,08,148,,0*62
$GPGSV,4,4,13,32,55,073,10,0*53
$GLGSV,2,1,08,70,27,051,,71,76,047,13,72,48,231,10,79,16,001,,0*72
$GLGSV,2,2,08,80,16,053,10,86,49,172,,87,71,282,11,88,15,326,09,0*75
$GAGSV,1,1,00,0*74
$GNGLL,5552.33439,N,03800.07232,E,124452.00,A,A*75

$GNRMC,124453.00,A,5552.33503,N,03800.07132,E,3.088,,120625,,,A,V*1D
$GNVTG,,T,,M,3.088,N,5.718,K,A*35

$GNGGA,124453.00,5552.33503,N,03800.07132,E,1,09,1.04,138.2,M,12.9,M,,*44
$GNGSA,A,3,08,01,02,10,32,,,,,,,,1.59,1.04,1.20,1*01
$GNGSA,A,3,88,71,87,72,,,,,,,,,1.59,1.04,1.20,2*05
$GNGSA,A,3,,,,,,,,,,,,,1.59,1.04,1.20,3*08
$GPGSV,4,1,13,01,59,285,09,02,71,208,09,03,31,266,,08,15,211,09,0*6A
$GPGSV,4,2,13,10,25,085,08,14,00,297,,17,22,320,,19,03,339,,0*6E
$GPGSV,4,3,13,22,06,313,,24,00,016,,28,24,124,09,31,08,148,,0*63
$GPGSV,4,4,13,32,55,073,10,0*53
$GLGSV,2,1,08,70,27,051,,71,76,047,11,72,48,231,11,79,16,001,,0*71
$GLGSV,2,2,08,80,16,053,07,86,49,172,,87,71,282,12,88,15,326,11,0*79
$GAGSV,1,1,00,0*74
$GNGLL,5552.33503,N,03800.07132,E,124453.00,A,A*7F

$GNRMC,124454.00,A,5552.33567,N,03800.07031,E,3.088,,120625,,,A,V*1A
$GNVTG,,T,,M,3.088,N,5.718,K,A*35
$GNGGA,124454.00,5552.33567,N,03800.07031,E,1,09,1.01,138.2,M,12.9,M,,*46

$GNGSA,A,3,08,01,02,10,,,,,,,,,1.53,1.01,1.14,1*08
$GNGSA,A,3,88,71,87,72,80,,,,,,,,1.53,1.01,1.14,2*05
$GNGSA,A,3,,,,,,,,,,,,,1.53,1.01,1.14,3*00
$GPGSV,4,1,13,01,59,285,10,02,71,208,13,03,31,266,,08,15,211,11,0*60
$GPGSV,4,2,13,10,25,085,09,14,00,297,,17,22,320,,19,03,339,,0*6F
$GPGSV,4,3,13,22,06,313,,24,00,016,,28,24,124,08,31,08,148,,0*62
$GPGSV,4,4,13,32,55,073,07,0*55
$GLGSV,2,1,08,70,27,051,,71,76,047,08,72,48,231,09,79,16,001,,0*70
$GLGSV,2,2,08,80,16,053,10,86,49,172,,87,71,282,09,88,15,326,09,0*7C
$GAGSV,1,1,00,0*74
$GNGLL,5552.33567,N,03800.07031,E,124454.00,A,A*78

$GNRMC,124455.00,A,5552.33710,N,03800.06394,E,3.908,,120625,,,A,V*15

$GNVTG,,T,,M,3.908,N,7.238,K,A*31
$GNGGA,124455.00,5552.33710,N,03800.06394,E,1,10,0.98,139.0,M,12.9,M,,*42
$GNGSA,A,3,08,01,02,10,32,,,,,,,,1.48,0.98,1.10,1*06
$GNGSA,A,3,88,71,87,72,80,,,,,,,,1.48,0.98,1.10,2*0A
$GNGSA,A,3,,,,,,,,,,,,,1.48,0.98,1.10,3*0F
$GPGSV,4,1,13,01,59,285,09,02,71,208,10,03,31,266,,08,15,211,09,0*62
$GPGSV,4,2,13,10,25,085,10,14,00,297,,17,22,320,,19,03,339,,0*67
$GPGSV,4,3,13,22,06,313,,24,00,016,,28,24,124,08,31,08,148,,0*62
$GPGSV,4,4,13,32,55,073,10,0*53
$GLGSV,2,1,08,70,27,051,,71,76,047,11,72,48,231,09,79,16,001,,0*78
$GLGSV,2,2,08,80,16,053,12,86,49,172,,87,71,282,10,88,15,326,09,0*76
$GAGSV,1,1,00,0*74
$GNGLL,5552.33710,N,03800.06394,E,124455.00,A,A*76

$GNRMC,124456.00,A,5552.33784,N,03800.06254,E,3.908,,120625,,,A,V*16
$GNVTG,,T,,M,3.908,N,7.238,K,A*31

$GNGGA,124456.00,5552.33784,N,03800.06254,E,1,10,0.98,139.0,M,12.9,M,,*41
$GNGSA,A,3,08,01,02,10,32,,,,,,,,1.48,0.98,1.10,1*06
$GNGSA,A,3,88,71,87,72,80,,,,,,,,1.48,0.98,1.10,2*0A
$GNGSA,A,3,,,,,,,,,,,,,1.48,0.98,1.10,3*0F
$GPGSV,4,1,13,01,59,285,11,02,71,208,08,03,31,266,,08,15,211,08,0*63
$GPGSV,4,2,13,10,25,085,09,14,00,297,,17,22,320,,19,03,339,,0*6F
$GPGSV,4,3,13,22,06,313,,24,00,016,,28,24,124,09,31,08,148,,0*63
$GPGSV,4,4,13,32,55,073,10,0*53
$GLGSV,2,1,08,70,27,051,,71,76,047,09,72,48,231,12,79,16,001,,0*7B
$GLGSV,2,2,08,80,16,053,09,86,49,172,,87,71,282,10,88,15,326,10,0*74
$GAGSV,1,1,00,0*74
$GNGLL,5552.33784,N,03800.06254,E,124456.00,A,A*75

$GNRMC,124457.00,A,5552.33859,N,03800.06114,E,3.908,,120625,,,A,V*1F
$GNVTG,,T,,M,3.908,N,7.238,K,A*31
$GNGGA,124457.00,5552.33859,N,03800.06114,E,1,09,1.04,139.0,M,12.9,M,,*44

$GNGSA,A,3,08,01,02,10,32,,,,,,,,1.59,1.04,1.20,1*01
$GNGSA,A,3,88,71,87,72,,,,,,,,,1.59,1.04,1.20,2*05
$GNGSA,A,3,,,,,,,,,,,,,1.59,1.04,1.20,3*08
$GPGSV,4,1,13,01,59,285,09,02,71,208,11,03,31,266,,08,15,211,10,0*6B
$GPGSV,4,2,13,10,25,085,10,14,00,297,,17,22,320,,19,03,339,,0*67
$GPGSV,4,3,13,22,06,313,,24,00,016,,28,24,124,09,31,08,148,,0*63
$GPGSV,4,4,13,32,55,073,09,0*5B
$GLGSV,2,1,08,70,27,051,,71,76,047,10,72,48,231,07,79,16,001,,0*77
$GLGSV,2,2,08,80,16,053,06,86,49,172,,87,71,282,09,88,15,326,09,0*7B
$GAGSV,1,1,00,0*74
$GNGLL,5552.33859,N,03800.06114,E,124457.00,A,A*7C

$GNRMC,124458.00,A,5552.33770,N,03800.06352,E,3.492,,120625,,,A,V*1A
$GNVTG,,T,,M,3.492,N,6.467,K,A*32
$GNGGA,124458.00,5552.33770,N,03800.06352,E,1,09,1.04,138.8,M,12.9,M,,*46
$GNGSA,A,3,08,01,02,10,32,,,,,,,,1.59,1.04,1.20,1*01
$GNGSA,A,3,88,71,87,72,,,,,,,,,1.59,1.04,1.20,2*05
$GNGSA,A,3,,,,,,,,,,,,,1.59,1.04,1.20,3*08
$GPGSV,4,1,13,01,59,285,08,02,71,208,10,03,31,266,,08,15,211,09,0*63
$GPGSV,4,2,13,10,25,085,08,14,00,297,,17,22,320,,19,03,339,,0*6E
$GPGSV,4,3,13,22,06,313,,24,00,016,,28,24,124,08,31,08,148,,0*62
$GPGSV,4,4,13,32,55,073,08,0*5A

$GLGSV,2,1,08,70,27,051,,71,76,047,08,72,48,231,10,79,15,000,,0*7A
$GLGSV,2,2,08,80,16,053,07,86,49,172,,87,71,282,09,88,15,326,09,0*7A
$GAGSV,1,1,00,0*74
$GNGLL,5552.33770,N,03800.06352,E,124458.00,A,A*77

$GNRMC,124459.00,A,5552.33831,N,03800.06219,E,3.492,,120625,,,A,V*1F
$GNVTG,,T,,M,3.492,N,6.467,K,A*32
$GNGGA,124459.00,5552.33831,N,03800.06219,E,1,10,0.98,138.8,M,12.9,M,,*4F

$GNGSA,A,3,08,01,02,10,32,,,,,,,,1.48,0.98,1.10,1*06
$GNGSA,A,3,88,71,87,72,80,,,,,,,,1.48,0.98,1.10,2*0A
$GNGSA,A,3,,,,,,,,,,,,,1.48,0.98,1.10,3*0F
$GPGSV,4,1,13,01,59,285,09,02,71,208,07,03,31,266,,08,15,211,09,0*64
$GPGSV,4,2,13,10,25,085,08,14,00,297,,17,22,320,,19,03,339,,0*6E
$GPGSV,4,3,13,22,06,313,,24,00,016,,28,24,124,09,31,08,148,,0*63
$GPGSV,4,4,13,32,55,073,12,0*51
$GLGSV,2,1,08,70,27,051,,71,76,047,09,72,48,231,09,79,15,000,,0*73
$GLGSV,2,2,08,80,16,053,09,86,49,172,,87,71,282,08,88,15,326,10,0*7D
$GAGSV,1,1,00,0*74
$GNGLL,5552.33831,N,03800.06219,E,124459.00,A,A*72

$GNRMC,124500.00,A,5552.33892,N,03800.06085,E,3.492,,120625,,,A,V*1C
$GNVTG,,T,,M,3.492,N,6.467,K,A*32
$GNGGA,124500.00,5552.33892,N,03800.06085,E,1,09,1.65,138.7,M,12.9,M,,*48

$GNGSA,A,3,08,01,02,10,32,,,,,,,,2.21,1.65,1.47,1*0B
$GNGSA,A,3,71,87,72,80,,,,,,,,,2.21,1.65,1.47,2*07
$GNGSA,A,3,,,,,,,,,,,,,2.21,1.65,1.47,3*02
$GPGSV,4,1,13,01,59,285,11,02,71,208,12,03,31,266,,08,15,211,09,0*69
$GPGSV,4,2,13,10,25,085,09,14,00,297,,17,22,320,,19,03,339,,0*6F
$GPGSV,4,3,13,22,06,313,,24,00,016,,28,24,124,09,31,08,148,,0*63
$GPGSV,4,4,13,32,55,073,09,0*5B
$GLGSV,2,1,08,70,27,051,,71,76,047,12,72,48,231,09,79,15,000,,0*79
$GLGSV,2,2,08,80,16,053,08,86,49,172,,87,71,282,08,88,15,326,07,0*7A
$GAGSV,1,1,00,0*74
$GNGLL,5552.33892,N,03800.06085,E,124500.00,A,A*71

$GNRMC,124501.00,A,5552.34140,N,03800.05885,E,3.557,,120625,,,A,V*1F
$GNVTG,,T,,M,3.557,N,6.588,K,A*3A

$GNGGA,124501.00,5552.34140,N,03800.05885,E,1,09,1.10,141.0,M,12.9,M,,*48
$GNGSA,A,3,08,01,02,32,,,,,,,,,1.58,1.10,1.14,1*03
$GNGSA,A,3,88,71,87,72,80,,,,,,,,1.58,1.10,1.14,2*0E
$GNGSA,A,3,,,,,,,,,,,,,1.58,1.10,1.14,3*0B
$GPGSV,4,1,13,01,59,285,11,02,71,208,12,03,31,266,,08,15,211,08,0*68
$GPGSV,4,2,13,10,25,085,08,14,00,297,,17,22,320,,19,03,339,,0*6E
$GPGSV,4,3,13,22,06,313,,24,00,016,,28,24,124,10,31,08,148,,0*6B
$GPGSV,4,4,13,32,55,073,08,0*5A
$GLGSV,2,1,08,70,27,051,,71,76,047,09,72,48,231,12,79,15,000,,0*79
$GLGSV,2,2,08,80,16,053,09,86,49,172,,87,71,282,08,88,15,326,08,0*74
$GAGSV,1,1,00,0*74
$GNGLL,5552.34140,N,03800.05885,E,124501.00,A,A*7A

$GNRMC,124502.00,V,,,,,,,120625,,,N,V*1B
$GNVTG,,,,,,,,,N*2E
$GNGGA,124502.00,,,,,0,00,99.99,,,,,,*78

$GNGSA,A,1,,,,,,,,,,,,,99.99,99.99,99.99,1*33
$GNGSA,A,1,,,,,,,,,,,,,99.99,99.99,99.99,2*30
$GNGSA,A,1,,,,,,,,,,,,,99.99,99.99,99.99,3*31
$GPGSV,4,1,13,01,59,285,,02,71,208,,03,31,266,,08,15,211,,0*63
$GPGSV,4,2,13,10,25,085,,14,00,297,,17,22,320,,19,03,339,,0*66
$GPGSV,4,3,13,22,06,313,,24,00,016,,28,24,124,09,31,08,148,,0*63
$GPGSV,4,4,13,32,55,073,,0*52
$GLGSV,2,1,08,70,27,051,,71,76,047,,72,48,231,,79,15,000,,0*73
$GLGSV,2,2,08,80,16,053,,86,49,172,,87,71,282,,88,15,326,,0*7D
$GAGSV,1,1,00,0*74
$GNGLL,,,,,124502.00,V,N*54

$GNRMC,124503.00,V,,,,,,,120625,,,N,V*1A
$GNVTG,,,,,,,,,N*2E
$GNGGA,124503.00,,,,,0,00,99.99,,,,,,*79
$GNGSA,A,1,,,,,,,,,,,,,99.99,99.99,99.99,1*33

$GNGSA,A,1,,,,,,,,,,,,,99.99,99.99,99.99,2*30
$GNGSA,A,1,,,,,,,,,,,,,99.99,99.99,99.99,3*31
$GPGSV,4,1,13,01,59,285,,02,71,208,,03,31,266,,08,15,211,,0*63
$GPGSV,4,2,13,10,25,085,,14,00,297,,17,22,320,,19,03,339,,0*66
$GPGSV,4,3,13,22,06,313,,24,00,016,,28,24,124,08,31,08,148,,0*62
$GPGSV,4,4,13,32,55,073,,0*52
$GLGSV,2,1,08,70,27,051,,71,76,047,,72,48,231,,79,15,000,,0*73
$GLGSV,2,2,08,80,16,053,,86,49,172,,87,71,282,,88,15,326,,0*7D
$GAGSV,1,1,00,0*74
$GNGLL,,,,,124503.00,V,N*55

$GNRMC,124504.00,V,,,,,,,120625,,,N,V*1D
$GNVTG,,,,,,,,,N*2E
$GNGGA,124504.00,,,,,0,00,99.99,,,,,,*7E
$GNGSA,A,1,,,,,,,,,,,,,99.99,99.99,99.99,1*33

$GNGSA,A,1,,,,,,,,,,,,,99.99,99.99,99.99,2*30
$GNGSA,A,1,,,,,,,,,,,,,99.99,99.99,99.99,3*31
$GPGSV,4,1,13,01,59,285,,02,71,208,,03,31,266,,08,15,211,,0*63
$GPGSV,4,2,13,10,25,085,,14,00,297,,17,22,320,,19,03,339,,0*66
$GPGSV,4,3,13,22,06,313,,24,00,016,,28,24,124,11,31,08,148,,0*6A
$GPGSV,4,4,13,32,55,073,,0*52
$GLGSV,2,1,08,70,27,051,,71,76,047,,72,48,231,,79,15,000,,0*73
$GLGSV,2,2,08,80,16,053,,86,49,172,,87,71,282,,88,15,326,,0*7D
$GAGSV,1,1,00,0*74
$GNGLL,,,,,124504.00,V,N*52

$GNRMC,124505.00,V,,,,,,,120625,,,N,V*1C
$GNVTG,,,,,,,,,N*2E
$GNGGA,124505.00,,,,,0,00,99.99,,,,,,*7F

$GNGSA,A,1,,,,,,,,,,,,,99.99,99.99,99.99,1*33
$GNGSA,A,1,,,,,,,,,,,,,99.99,99.99,99.99,2*30
$GNGSA,A,1,,,,,,,,,,,,,99.99,99.99,99.99,3*31
$GPGSV,4,1,13,01,59,285,,02,71,208,,03,31,266,,08,15,211,,0*63
$GPGSV,4,2,13,10,25,085,,14,00,297,,17,22,320,,19,03,339,,0*66
$GPGSV,4,3,13,22,06,313,,24,00,016,,28,24,124,11,31,08,148,,0*6A
$GPGSV,4,4,13,32,55,073,,0*52
$GLGSV,2,1,08,70,27,051,,71,76,047,,72,48,231,,79,15,000,,0*73
