$GNRMC,135805.00,A,5552.32739,N,03800.08495,E,0.814,,120625,,,A,V*11
$GNVTG,,T,,M,0.814,N,1.508,K,A*3C

$GNGGA,135805.00,5552.32739,N,03800.08495,E,1,10,1.15,125.9,M,12.9,M,,*49
$GNGSA,A,3,01,02,32,03,31,,,,,,,,2.57,1.15,2.30,1*06
$GNGSA,A,3,72,87,71,88,80,,,,,,,,2.57,1.15,2.30,2*02
$GNGSA,A,3,,,,,,,,,,,,,2.57,1.15,2.30,3*07
$GPGSV,3,1,11,01,64,209,15,02,39,180,15,03,65,282,09,04,24,225,,0*68
$GPGSV,3,2,11,12,08,018,,17,27,289,,19,21,318,,25,08,049,,0*65
$GPGSV,3,3,11,28,43,090,,31,37,129,14,32,26,060,12,0*58
$GLGSV,3,1,10,65,27,252,16,71,38,059,21,72,81,312,17,73,24,075,22,0*76
$GLGSV,3,2,10,74,06,116,,80,20,017,16,81,04,340,21,86,09,176,,0*7F
$GLGSV,3,3,10,87,47,202,24,88,47,308,19,0*72

$GAGSV,1,1,00,0*74
$GNGLL,5552.32739,N,03800.08495,E,135805.00,A,A*7D

$GNTXT,01,01,02,u-blox AG - www.u-blox.com*4E

$GNTXT,01,01,02,HW UBX-M8030 00080000*60
$GNTXT,01,01,02,ROM CORE 3.01 (107888)*2B
$GNTXT,01,01,02,FWVER=SPG 3.01*46
$GNTXT,01,01,02,PROTVER=18.00*11
$GNTXT,01,01,02,GPS;GLO;GAL;BDS*77

$GNTXT,01,01,02,SBAS;IMES;QZSS*49
$GNTXT,01,01,02,GNSS OTP=GPS;GLO*37
$GNTXT,01,01,02,LLC=FFFFFFFF-FFFFFFFF-FFFFFFFF-FFFFFFFF-FFFFFFFD*2F
$GNTXT,01,01,02,ANTSUPERV=AC SD PDoS SR*3E
$GNTXT,01,01,02,ANTSTATUS=OK*25
$GNTXT,01,01,02,PF=3FF*4B

$GNRMC,135806.00,A,5552.32750,N,03800.08507,E,0.321,,120625,,,A,V*1A
$GNVTG,,T,,M,0.321,N,0.595,K,A*34

$GNGGA,135806.00,5552.32750,N,03800.08507,E,1,09,1.21,125.4,M,12.9,M,,*4D
$GNGSA,A,3,01,02,03,31,,,,,,,,,2.60,1.21,2.30,1*04
$GNGSA,A,3,72,87,71,88,80,,,,,,,,2.60,1.21,2.30,2*01
$GNGSA,A,3,,,,,,,,,,,,,2.60,1.21,2.30,3*04
$GPGSV,3,1,11,01,64,209,15,02,39,180,11,03,65,282,09,04,24,225,,0*6C
$GPGSV,3,2,11,12,08,018,,17,27,289,,19,21,318,,25,08,049,,0*65
$GPGSV,3,3,11,28,43,090,,31,37,129,13,32,26,060,12,0*5F

$GLGSV,3,1,10,65,27,252,16,71,38,059,21,72,81,312,16,73,24,075,19,0*7F
$GLGSV,3,2,10,74,06,116,,80,20,017,19,81,04,340,21,86,09,176,,0*70
$GLGSV,3,3,10,87,47,202,24,88,47,308,19,0*72
$GAGSV,1,1,00,0*74
$GNGLL,5552.32750,N,03800.08507,E,135806.00,A,A*7B

$GNRMC,135807.00,A,5552.32724,N,03800.08574,E,0.396,,120625,,,A,V*10
$GNVTG,,T,,M,0.396,N,0.733,K,A*36

$GNGGA,135807.00,5552.32724,N,03800.08574,E,1,09,1.21,125.1,M,12.9,M,,*4E
$GNGSA,A,3,01,02,03,31,,,,,,,,,2.60,1.21,2.30,1*04
$GNGSA,A,3,72,87,71,88,80,,,,,,,,2.60,1.21,2.30,2*01
$GNGSA,A,3,,,,,,,,,,,,,2.60,1.21,2.30,3*04
$GPGSV,3,1,11,01,64,209,14,02,39,180,09,03,65,282,14,04,24,225,,0*68
$GPGSV,3,2,11,12,08,018,,17,27,289,,19,21,318,,25,08,049,,0*65
$GPGSV,3,3,11,28,43,090,,31,37,129,13,32,26,060,11,0*5C
$GLGSV,3,1,10,65,27,252,14,71,38,059,21,72,81,312,16,73,24,075,18,0*7C
$GLGSV,3,2,10,74,06,116,,80,20,017,20,81,04,340,20,86,09,176,,0*7B
$GLGSV,3,3,10,87,47,202,23,88,47,308,19,0*75

$GAGSV,1,1,00,0*74
$GNGLL,5552.32724,N,03800.08574,E,135807.00,A,A*7D

$GNRMC,135808.00,A,5552.32652,N,03800.08632,E,1.300,,120625,,,A,V*10
$GNVTG,,T,,M,1.300,N,2.407,K,A*3E

$GNGGA,135808.00,5552.32652,N,03800.08632,E,1,09,1.21,125.1,M,12.9,M,,*40
$GNGSA,A,3,01,02,03,31,,,,,,,,,2.60,1.21,2.30,1*04
$GNGSA,A,3,72,87,71,88,80,,,,,,,,2.60,1.21,2.30,2*01
$GNGSA,A,3,,,,,,,,,,,,,2.60,1.21,2.30,3*04
$GPGSV,3,1,11,01,64,209,13,02,39,180,09,03,65,282,14,04,24,225,,0*6F
$GPGSV,3,2,11,12,08,018,,17,27,289,,19,21,318,,25,08,049,,0*65
$GPGSV,3,3,11,28,43,090,,31,37,129,13,32,26,060,12,0*5F
$GLGSV,3,1,10,65,27,252,13,71,38,059,21,72,81,312,15,73,24,075,18,0*78
$GLGSV,3,2,10,74,06,116,,80,20,017,17,81,04,340,19,86,09,176,,0*75
$GLGSV,3,3,10,87,47,202,23,88,47,308,18,0*74
$GAGSV,1,1,00,0*74
$GNGLL,5552.32652,N,03800.08632,E,135808.00,A,A*73

$GNRMC,135809.00,A,5552.32570,N,03800.08664,E,1.962,,120625,,,A,V*1F
$GNVTG,,T,,M,1.962,N,3.634,K,A*33

$GNGGA,135809.00,5552.32570,N,03800.08664,E,1,09,1.27,125.3,M,12.9,M,,*45
$GNGSA,A,3,01,32,03,31,,,,,,,,,2.84,1.27,2.54,1*09
$GNGSA,A,3,72,87,71,88,80,,,,,,,,2.84,1.27,2.54,2*0F
$GNGSA,A,3,,,,,,,,,,,,,2.84,1.27,2.54,3*0A
$GPGSV,3,1,11,01,64,209,09,02,39,180,09,03,65,282,14,04,24,225,,0*64
$GPGSV,3,2,11,12,08,018,,17,27,289,,19,21,318,,25,08,049,,0*65
$GPGSV,3,3,11,28,43,090,,31,37,129,14,32,26,060,12,0*58
$GLGSV,3,1,10,65,27,252,,71,38,059,20,72,81,312,16,73,24,075,17,0*77
$GLGSV,3,2,10,74,06,116,,80,20,017,16,81,04,340,19,86,09,176,,0*74
$GLGSV,3,3,10,87,47,202,21,88,47,308,17,0*79
$GAGSV,1,1,00,0*74
$GNGLL,5552.32570,N,03800.08664,E,135809.00,A,A*72

$GNRMC,135810.00,A,5552.32521,N,03800.08625,E,1.887,,120625,,,A,V*1C
$GNVTG,,T,,M,1.887,N,3.494,K,A*31

$GNGGA,135810.00,5552.32521,N,03800.08625,E,1,08,1.29,125.4,M,12.9,M,,*44
$GNGSA,A,3,32,03,31,,,,,,,,,,2.87,1.29,2.57,1*06
$GNGSA,A,3,72,87,71,88,80,,,,,,,,2.87,1.29,2.57,2*01
$GNGSA,A,3,,,,,,,,,,,,,2.87,1.29,2.57,3*04
$GPGSV,3,1,11,01,64,209,09,02,39,180,09,03,65,282,14,04,24,225,,0*64
$GPGSV,3,2,11,12,08,018,,17,27,289,,19,21,318,,25,08,049,,0*65
$GPGSV,3,3,11,28,43,090,,31,37,129,16,32,26,060,12,0*5A
$GLGSV,3,1,10,65,27,252,,71,38,059,20,72,81,312,15,73,24,075,13,0*70
$GLGSV,3,2,10,74,06,116,,80,20,017,16,81,04,340,21,86,09,176,,0*7F
$GLGSV,3,3,10,87,47,202,19,88,47,308,14,0*71
$GAGSV,1,1,00,0*74
$GNGLL,5552.32521,N,03800.08625,E,135810.00,A,A*7B

$GNRMC,135811.00,A,5552.32518,N,03800.08581,E,1.225,,120625,,,A,V*18
$GNVTG,,T,,M,1.225,N,2.268,K,A*37

$GNGGA,135811.00,5552.32518,N,03800.08581,E,1,08,1.29,125.4,M,12.9,M,,*42
$GNGSA,A,3,32,03,31,,,,,,,,,,2.87,1.29,2.57,1*06
$GNGSA,A,3,72,87,71,88,80,,,,,,,,2.87,1.29,2.57,2*01
$GNGSA,A,3,,,,,,,,,,,,,2.87,1.29,2.57,3*04
$GPGSV,3,1,11,01,64,209,09,02,39,180,09,03,65,282,14,04,24,225,,0*64
$GPGSV,3,2,11,12,08,018,,17,27,289,,19,21,318,,25,08,049,,0*65
$GPGSV,3,3,11,28,43,090,,31,37,129,17,32,26,060,12,0*5B
$GLGSV,3,1,10,65,27,252,,71,38,059,20,72,81,312,15,73,24,075,13,0*70
$GLGSV,3,2,10,74,06,116,,80,20,017,15,81,04,340,23,86,09,176,,0*7E
$GLGSV,3,3,10,87,47,202,18,88,47,308,15,0*71
$GAGSV,1,1,00,0*74
$GNGLL,5552.32518,N,03800.08581,E,135811.00,A,A*7D

$GNRMC,135812.00,A,5552.32521,N,03800.08430,E,1.242,,120625,,,A,V*1B
$GNVTG,,T,,M,1.242,N,2.300,K,A*39

$GNGGA,135812.00,5552.32521,N,03800.08430,E,1,08,1.21,125.5,M,12.9,M,,*49
$GNGSA,A,3,02,03,31,,,,,,,,,,2.66,1.21,2.37,1*04
$GNGSA,A,3,72,87,71,88,80,,,,,,,,2.66,1.21,2.37,2*00
$GNGSA,A,3,,,,,,,,,,,,,2.66,1.21,2.37,3*05
$GPGSV,3,1,11,01,64,209,09,02,39,180,09,03,65,282,14,04,24,225,,0*64
$GPGSV,3,2,11,12,08,018,,17,27,289,,19,21,318,,25,08,049,,0*65
$GPGSV,3,3,11,28,43,090,,31,37,129,18,32,26,060,,0*57
$GLGSV,3,1,10,65,27,252,,71,38,059,20,72,81,312,14,73,24,075,11,0*73
$GLGSV,3,2,10,74,06,116,,80,20,017,13,81,04,340,24,86,09,176,,0*7F
$GLGSV,3,3,10,87,47,202,18,88,47,308,17,0*73
$GAGSV,1,1,00,0*74
$GNGLL,5552.32521,N,03800.08430,E,135812.00,A,A*7F

$GNRMC,135813.00,A,5552.32483,N,03800.08400,E,1.282,,120625,,,A,V*1C
$GNVTG,,T,,M,1.282,N,2.375,K,A*37

$GNGGA,135813.00,5552.32483,N,03800.08400,E,1,08,1.21,125.3,M,12.9,M,,*44
$GNGSA,A,3,02,03,31,,,,,,,,,,2.66,1.21,2.37,1*04
$GNGSA,A,3,72,87,71,88,80,,,,,,,,2.66,1.21,2.37,2*00
$GNGSA,A,3,,,,,,,,,,,,,2.66,1.21,2.37,3*05
$GPGSV,3,1,11,01,64,209,10,02,39,180,12,03,65,282,19,04,24,225,,0*6B
$GPGSV,3,2,11,12,08,018,,17,27,288,,19,21,318,,25,08,049,,0*64
$GPGSV,3,3,11,28,43,090,,31,37,129,19,32,26,060,,0*56
$GLGSV,3,1,10,65,27,252,,71,38,059,20,72,81,312,15,73,24,075,,0*72
$GLGSV,3,2,10,74,06,116,,80,20,017,12,81,04,340,22,86,09,176,,0*78
$GLGSV,3,3,10,87,47,202,18,88,47,308,17,0*73
$GAGSV,1,1,00,0*74
$GNGLL,5552.32483,N,03800.08400,E,135813.00,A,A*74

$GNRMC,135814.00,A,5552.32429,N,03800.08268,E,1.776,,120625,,,A,V*1D
$GNVTG,,T,,M,1.776,N,3.288,K,A*3B

$GNGGA,135814.00,5552.32429,N,03800.08268,E,1,08,1.21,124.9,M,12.9,M,,*40
$GNGSA,A,3,02,03,31,,,,,,,,,,2.66,1.21,2.37,1*04
$GNGSA,A,3,72,87,71,88,80,,,,,,,,2.66,1.21,2.37,2*00
$GNGSA,A,3,,,,,,,,,,,,,2.66,1.21,2.37,3*05
$GPGSV,3,1,11,01,64,209,05,02,39,180,09,03,65,282,17,04,24,225,,0*6B
$GPGSV,3,2,11,12,08,018,,17,27,288,16,19,21,318,,25,08,049,,0*63
$GPGSV,3,3,11,28,43,090,,31,37,129,19,32,26,060,,0*56
$GLGSV,3,1,10,65,27,252,,71,38,059,21,72,81,312,17,73,24,075,,0*71
$GLGSV,3,2,10,74,06,116,,80,20,017,14,81,04,340,20,86,09,176,,0*7C
$GLGSV,3,3,10,87,47,202,16,88,47,308,17,0*7D
$GAGSV,1,1,00,0*74
$GNGLL,5552.32429,N,03800.08268,E,135814.00,A,A*7B

$GNRMC,135815.00,A,5552.32440,N,03800.08267,E,1.119,,120625,,,A,V*13
$GNVTG,,T,,M,1.119,N,2.073,K,A*33

$GNGGA,135815.00,5552.32440,N,03800.08267,E,1,08,1.21,124.5,M,12.9,M,,*4D
$GNGSA,A,3,02,03,31,,,,,,,,,,2.66,1.21,2.37,1*04
$GNGSA,A,3,72,87,71,88,80,,,,,,,,2.66,1.21,2.37,2*00
$GNGSA,A,3,,,,,,,,,,,,,2.66,1.21,2.37,3*05
$GPGSV,3,1,11,01,64,209,05,02,39,180,15,03,65,282,20,04,24,225,,0*62
$GPGSV,3,2,11,12,08,018,,17,27,288,13,19,21,317,,25,08,049,,0*69
$GPGSV,3,3,11,28,43,090,,31,37,129,20,32,26,060,,0*5C
$GLGSV,3,1,10,65,27,252,,71,38,059,23,72,81,312,17,73,24,075,,0*73
$GLGSV,3,2,10,74,06,116,,80,20,017,18,81,04,340,18,86,09,176,,0*7B
$GLGSV,3,3,10,87,47,202,15,88,47,308,18,0*71
$GAGSV,1,1,00,0*74
$GNGLL,5552.32440,N,03800.08267,E,135815.00,A,A*7A

$GNRMC,135816.00,A,5552.32417,N,03800.08314,E,0.882,,120625,,,A,V*1D

$GNVTG,,T,,M,0.882,N,1.634,K,A*3F
$GNGGA,135816.00,5552.32417,N,03800.08314,E,1,08,1.21,124.4,M,12.9,M,,*48
$GNGSA,A,3,02,03,31,,,,,,,,,,2.66,1.21,2.37,1*04
$GNGSA,A,3,72,87,71,88,80,,,,,,,,2.66,1.21,2.37,2*00
$GNGSA,A,3,,,,,,,,,,,,,2.66,1.21,2.37,3*05
$GPGSV,3,1,11,01,64,209,05,02,39,180,16,03,65,282,21,04,24,225,,0*60
$GPGSV,3,2,11,12,08,018,,17,27,288,10,19,21,317,,25,08,049,,0*6A
$GPGSV,3,3,11,28,43,090,,31,37,129,21,32,26,060,17,0*5B
$GLGSV,3,1,10,65,27,252,,71,38,059,23,72,81,312,15,73,24,075,,0*71
$GLGSV,3,2,10,74,06,116,,80,20,017,15,81,04,340,15,86,09,176,,0*7B
$GLGSV,3,3,10,87,47,202,14,88,47,308,20,0*7B
$GAGSV,1,1,00,0*74
$GNGLL,5552.32417,N,03800.08314,E,135816.00,A,A*7E

$GNRMC,135817.00,A,5552.32444,N,03800.08337,E,0.351,,120625,,,A,V*1E
$GNVTG,,T,,M,0.351,N,0.650,K,A*39

$GNGGA,135817.00,5552.32444,N,03800.08337,E,1,08,1.21,124.2,M,12.9,M,,*48
$GNGSA,A,3,02,03,31,,,,,,,,,,2.66,1.21,2.37,1*04
$GNGSA,A,3,72,87,71,88,80,,,,,,,,2.66,1.21,2.37,2*00
$GNGSA,A,3,,,,,,,,,,,,,2.66,1.21,2.37,3*05
$GPGSV,3,1,11,01,64,209,05,02,39,180,16,03,65,282,22,04,24,225,,0*63
$GPGSV,3,2,11,12,08,018,,17,27,288,13,19,21,317,,25,08,049,,0*69
$GPGSV,3,3,11,28,43,090,,31,37,129,22,32,26,060,14,0*5B
$GLGSV,3,1,10,65,27,252,,71,38,059,21,72,81,312,12,73,24,075,,0*74
$GLGSV,3,2,10,74,06,116,,80,20,017,19,81,04,340,13,86,09,176,,0*71
$GLGSV,3,3,10,87,47,202,15,88,47,308,21,0*7B
$GAGSV,1,1,00,0*74
$GNGLL,5552.32444,N,03800.08337,E,135817.00,A,A*78

$GNRMC,135818.00,A,5552.32439,N,03800.08327,E,0.301,,120625,,,A,V*1F
$GNVTG,,T,,M,0.301,N,0.557,K,A*38

$GNGGA,135818.00,5552.32439,N,03800.08327,E,1,06,1.47,124.0,M,12.9,M,,*40
$GNGSA,A,3,03,31,,,,,,,,,,,3.93,1.47,3.65,1*0B
$GNGSA,A,3,87,71,88,80,,,,,,,,,3.93,1.47,3.65,2*08
$GNGSA,A,3,,,,,,,,,,,,,3.93,1.47,3.65,3*08
$GPGSV,3,1,11,01,64,209,05,02,39,180,07,03,65,282,21,04,24,225,,0*60
$GPGSV,3,2,11,12,08,018,,17,27,288,13,19,21,317,,25,08,049,,0*69
$GPGSV,3,3,11,28,43,090,,31,37,129,24,32,26,060,16,0*5F
$GLGSV,3,1,10,65,27,252,21,71,38,059,19,72,81,312,10,73,24,075,,0*7E
$GLGSV,3,2,10,74,06,116,,80,20,017,19,81,04,340,12,86,09,176,,0*70
$GLGSV,3,3,10,87,47,202,17,88,47,308,21,0*79
$GAGSV,1,1,00,0*74
$GNGLL,5552.32439,N,03800.08327,E,135818.00,A,A*7C

$GNRMC,135819.00,A,5552.32438,N,03800.08370,E,0.179,,120625,,,A,V*10
$GNVTG,,T,,M,0.179,N,0.332,K,A*30
$GNGGA,135819.00,5552.32438,N,03800.08370,E,1,08,1.09,125.2,M,12.9,M,,*45

$GNGSA,A,3,17,03,31,,,,,,,,,,2.23,1.09,1.95,1*00
$GNGSA,A,3,72,87,71,88,80,,,,,,,,2.23,1.09,1.95,2*00
$GNGSA,A,3,,,,,,,,,,,,,2.23,1.09,1.95,3*05
$GPGSV,3,1,11,01,64,209,05,02,39,180,08,03,65,282,20,04,24,225,,0*6E
$GPGSV,3,2,11,12,08,018,,17,27,288,12,19,21,317,,25,08,049,,0*68
$GPGSV,3,3,11,28,43,090,,31,37,129,25,32,26,060,17,0*5F
$GLGSV,3,1,10,65,27,252,19,71,38,059,15,72,81,312,12,73,24,075,,0*7B
$GLGSV,3,2,10,74,06,116,,80,20,017,17,81,04,340,,86,09,176,,0*7D
$GLGSV,3,3,10,87,47,202,19,88,47,308,19,0*7C
$GAGSV,1,1,00,0*74
$GNGLL,5552.32438,N,03800.08370,E,135819.00,A,A*7E

$GNRMC,135820.00,A,5552.32441,N,03800.08460,E,0.423,,120625,,,A,V*18
$GNVTG,,T,,M,0.423,N,0.783,K,A*34
$GNGGA,135820.00,5552.32441,N,03800.08460,E,1,10,0.98,126.2,M,12.9,M,,*44

$GNGSA,A,3,01,02,32,17,03,31,,,,,,,2.05,0.98,1.80,1*0B
$GNGSA,A,3,72,87,88,80,,,,,,,,,2.05,0.98,1.80,2*0F
$GNGSA,A,3,,,,,,,,,,,,,2.05,0.98,1.80,3*0C
$GPGSV,3,1,11,01,64,209,11,02,39,180,08,03,65,282,20,04,24,225,,0*6B
$GPGSV,3,2,11,12,08,018,,17,27,288,13,19,21,317,,25,08,049,,0*69
$GPGSV,3,3,11,28,43,090,,31,37,129,25,32,26,060,16,0*5E
$GLGSV,3,1,10,65,27,252,17,71,38,059,10,72,81,312,11,73,24,075,,0*73
$GLGSV,3,2,10,74,06,116,,80,20,017,16,81,04,340,,86,09,176,,0*7C
$GLGSV,3,3,10,87,47,202,22,88,47,308,18,0*75
$GAGSV,1,1,00,0*74
$GNGLL,5552.32441,N,03800.08460,E,135820.00,A,A*7C

$GNRMC,135821.00,A,5552.32441,N,03800.08489,E,0.264,,120625,,,A,V*1B
$GNVTG,,T,,M,0.264,N,0.490,K,A*30
$GNGGA,135821.00,5552.32441,N,03800.08489,E,1,09,1.05,127.1,M,12.9,M,,*4D

$GNGSA,A,3,01,02,32,17,03,31,,,,,,,2.54,1.05,2.32,1*00
$GNGSA,A,3,87,88,80,,,,,,,,,,2.54,1.05,2.32,2*01
$GNGSA,A,3,,,,,,,,,,,,,2.54,1.05,2.32,3*07
$GPGSV,3,1,11,01,64,209,11,02,39,180,09,03,65,282,21,04,24,225,,0*6B
$GPGSV,3,2,11,12,08,018,,17,27,288,13,19,21,317,,25,08,049,,0*69
$GPGSV,3,3,11,28,43,090,,31,37,129,24,32,26,060,14,0*5D
$GLGSV,3,1,10,65,27,252,16,71,38,059,08,72,81,312,10,73,24,075,,0*7A
$GLGSV,3,2,10,74,06,116,,80,20,017,17,81,04,340,,86,09,176,,0*7D
$GLGSV,3,3,10,87,47,202,23,88,47,308,22,0*7D
$GAGSV,1,1,00,0*74
$GNGLL,5552.32441,N,03800.08489,E,135821.00,A,A*7A

$GNRMC,135822.00,A,5552.32453,N,03800.08499,E,0.429,,120625,,,A,V*15
$GNVTG,,T,,M,0.429,N,0.794,K,A*38

$GNGGA,135822.00,5552.32453,N,03800.08499,E,1,10,0.98,128.1,M,12.9,M,,*4E
$GNGSA,A,3,01,02,32,17,03,31,,,,,,,2.05,0.98,1.80,1*0B
$GNGSA,A,3,72,87,88,80,,,,,,,,,2.05,0.98,1.80,2*0F
$GNGSA,A,3,,,,,,,,,,,,,2.05,0.98,1.80,3*0C
$GPGSV,3,1,11,01,64,209,11,02,39,180,12,03,65,282,21,04,24,225,,0*61
$GPGSV,3,2,11,12,08,018,,17,27,288,12,19,21,317,,25,08,049,,0*68
$GPGSV,3,3,11,28,43,090,,31,37,129,22,32,26,060,13,0*5C
$GLGSV,3,1,10,65,27,252,14,71,38,059,09,72,81,312,14,73,24,075,,0*7D
$GLGSV,3,2,10,74,06,116,,80,20,017,20,81,04,340,,86,09,176,,0*79
$GLGSV,3,3,10,87,47,202,24,88,47,308,24,0*7C
$GAGSV,1,1,00,0*74
$GNGLL,5552.32453,N,03800.08499,E,135822.00,A,A*7B

$GNRMC,135823.00,A,5552.32440,N,03800.08537,E,0.282,,120625,,,A,V*14
$GNVTG,,T,,M,0.282,N,0.523,K,A*31

$GNGGA,135823.00,5552.32440,N,03800.08537,E,1,11,0.91,128.8,M,12.9,M,,*49
$GNGSA,A,3,01,02,32,17,03,31,,,,,,,1.99,0.91,1.77,1*0C
$GNGSA,A,3,72,87,71,88,80,,,,,,,,1.99,0.91,1.77,2*0E
$GNGSA,A,3,,,,,,,,,,,,,1.99,0.91,1.77,3*0B
$GPGSV,3,1,11,01,64,209,11,02,39,180,11,03,65,282,21,04,24,225,,0*62
$GPGSV,3,2,11,12,08,018,,17,27,288,11,19,21,317,,25,08,049,,0*6B
$GPGSV,3,3,11,28,43,090,,31,37,129,20,32,26,060,13,0*5E
$GLGSV,3,1,10,65,27,252,11,71,38,059,15,72,81,312,18,73,24,075,21,0*7A
$GLGSV,3,2,10,74,06,116,,80,20,017,20,81,04,340,,86,09,176,,0*79
$GLGSV,3,3,10,87,47,202,25,88,47,308,25,0*7C
$GAGSV,1,1,00,0*74
$GNGLL,5552.32440,N,03800.08537,E,135823.00,A,A*7D

$GNRMC,135824.00,A,5552.32401,N,03800.08550,E,0.588,,120625,,,A,V*1A
$GNVTG,,T,,M,0.588,N,1.089,K,A*38
$GNGGA,135824.00,5552.32401,N,03800.08550,E,1,10,0.92,129.7,M,12.9,M,,*46
$GNGSA,A,3,02,32,17,03,31,,,,,,,,2.06,0.92,1.84,1*07
$GNGSA,A,3,72,87,71,88,80,,,,,,,,2.06,0.92,1.84,2*04

$GNGSA,A,3,,,,,,,,,,,,,2.06,0.92,1.84,3*01
$GPGSV,3,1,11,01,64,209,11,02,39,180,08,03,65,282,22,04,24,225,,0*69
$GPGSV,3,2,11,12,08,018,,17,27,288,11,19,21,317,,25,08,049,,0*6B
$GPGSV,3,3,11,28,43,090,,31,37,129,19,32,26,060,11,0*56
$GLGSV,3,1,10,65,27,252,10,71,38,059,15,72,81,312,20,73,24,075,23,0*72
$GLGSV,3,2,10,74,06,116,,80,20,017,20,81,04,340,,86,09,176,,0*79
$GLGSV,3,3,10,87,47,202,24,88,47,308,22,0*7A
$GAGSV,1,1,00,0*74
$GNGLL,5552.32401,N,03800.08550,E,135824.00,A,A*7E

$GNRMC,135825.00,A,5552.32370,N,03800.08566,E,0.750,,120625,,,A,V*18
$GNVTG,,T,,M,0.750,N,1.390,K,A*34

$GNGGA,135825.00,5552.32370,N,03800.08566,E,1,09,0.95,130.4,M,12.9,M,,*47
$GNGSA,A,3,02,32,17,03,31,,,,,,,,2.62,0.95,2.44,1*0D
$GNGSA,A,3,87,71,88,80,,,,,,,,,2.62,0.95,2.44,2*0B
$GNGSA,A,3,,,,,,,,,,,,,2.62,0.95,2.44,3*0B
$GPGSV,3,1,11,01,64,209,11,02,39,180,11,03,65,282,21,04,24,225,,0*62
$GPGSV,3,2,11,12,08,018,,17,27,288,12,19,21,317,,25,08,049,,0*68
$GPGSV,3,3,11,28,43,090,,31,37,129,20,32,26,060,11,0*5C
$GLGSV,3,1,10,65,27,252,09,71,38,059,15,72,81,312,,73,24,075,22,0*79
$GLGSV,3,2,10,74,06,116,,80,20,017,19,81,04,340,,86,09,176,,0*73
$GLGSV,3,3,10,87,47,202,24,88,47,308,21,0*79
$GAGSV,1,1,00,0*74
$GNGLL,5552.32370,N,03800.08566,E,135825.00,A,A*7B

$GNRMC,135826.00,A,5552.32340,N,03800.08561,E,0.833,,120625,,,A,V*15
$GNVTG,,T,,M,0.833,N,1.543,K,A*36

$GNGGA,135826.00,5552.32340,N,03800.08561,E,1,09,0.95,131.0,M,12.9,M,,*45
$GNGSA,A,3,02,32,17,03,31,,,,,,,,2.62,0.95,2.44,1*0D
$GNGSA,A,3,87,71,88,80,,,,,,,,,2.62,0.95,2.44,2*0B
$GNGSA,A,3,,,,,,,,,,,,,2.62,0.95,2.44,3*0B
$GPGSV,3,1,11,01,64,209,06,02,39,180,09,03,65,282,20,04,24,225,,0*6C
$GPGSV,3,2,11,12,08,018,,17,27,288,13,19,21,317,,25,08,049,,0*69
$GPGSV,3,3,11,28,43,090,,31,37,129,20,32,26,060,11,0*5C
$GLGSV,3,1,10,65,27,252,08,71,38,059,15,72,81,312,,73,24,075,23,0*79
$GLGSV,3,2,10,74,06,116,,80,20,017,17,81,04,340,,86,09,176,,0*7D
$GLGSV,3,3,10,87,47,202,23,88,47,308,23,0*7C
$GAGSV,1,1,00,0*74
$GNGLL,5552.32340,N,03800.08561,E,135826.00,A,A*7C

$GNRMC,135827.00,A,5552.32306,N,03800.08551,E,0.948,,120625,,,A,V*18
$GNVTG,,T,,M,0.948,N,1.755,K,A*3E

$GNGGA,135827.00,5552.32306,N,03800.08551,E,1,09,0.95,131.6,M,12.9,M,,*43
$GNGSA,A,3,02,32,17,03,31,,,,,,,,2.62,0.95,2.44,1*0D
$GNGSA,A,3,87,71,88,80,,,,,,,,,2.62,0.95,2.44,2*0B
$GNGSA,A,3,,,,,,,,,,,,,2.62,0.95,2.44,3*0B
$GPGSV,3,1,11,01,64,209,,02,39,180,13,03,65,282,19,04,24,225,,0*6B
$GPGSV,3,2,11,12,08,018,,17,27,288,10,19,21,317,,25,08,049,,0*6A
$GPGSV,3,3,11,28,43,090,,31,37,129,20,32,26,060,14,0*59
$GLGSV,3,1,10,65,27,252,08,71,38,059,13,72,81,312,,73,24,075,24,0*78
$GLGSV,3,2,10,74,06,116,,80,20,017,16,81,04,340,,86,09,176,,0*7C
$GLGSV,3,3,10,87,47,202,22,88,47,308,26,0*78
$GAGSV,1,1,00,0*74
$GNGLL,5552.32306,N,03800.08551,E,135827.00,A,A*7C

$GNRMC,135828.00,A,5552.32301,N,03800.08580,E,0.608,,120625,,,A,V*17
$GNVTG,,T,,M,0.608,N,1.127,K,A*36

$GNGGA,135828.00,5552.32301,N,03800.08580,E,1,09,0.95,132.3,M,12.9,M,,*41
$GNGSA,A,3,02,32,17,03,31,,,,,,,,2.62,0.95,2.44,1*0D
$GNGSA,A,3,87,71,88,80,,,,,,,,,2.62,0.95,2.44,2*0B
$GNGSA,A,3,,,,,,,,,,,,,2.62,0.95,2.44,3*0B
$GPGSV,3,1,11,01,64,209,,02,39,180,12,03,65,282,16,04,24,225,,0*65
$GPGSV,3,2,11,12,08,018,,17,27,288,12,19,21,317,,25,08,049,,0*68
$GPGSV,3,3,11,28,43,090,,31,37,129,24,32,26,060,14,0*5D
$GLGSV,3,1,10,65,27,252,08,71,38,059,18,72,81,312,20,73,24,075,22,0*77
$GLGSV,3,2,10,74,06,116,,80,20,017,16,81,04,340,,86,09,176,,0*7C
$GLGSV,3,3,10,87,47,202,20,88,47,308,25,0*79
$GAGSV,1,1,00,0*74
$GNGLL,5552.32301,N,03800.08580,E,135828.00,A,A*78

$GNRMC,135829.00,A,5552.32348,N,03800.08688,E,0.581,,120625,,,A,V*12
$GNVTG,,T,,M,0.581,N,1.077,K,A*30
$GNGGA,135829.00,5552.32348,N,03800.08688,E,1,09,0.95,133.2,M,12.9,M,,*46

$GNGSA,A,3,02,32,17,03,31,,,,,,,,2.61,0.95,2.44,1*0E
$GNGSA,A,3,87,71,88,80,,,,,,,,,2.61,0.95,2.44,2*08
$GNGSA,A,3,,,,,,,,,,,,,2.61,0.95,2.44,3*08
$GPGSV,3,1,11,01,64,209,07,02,39,180,11,03,65,282,18,04,24,225,,0*6F
$GPGSV,3,2,11,12,08,018,,17,27,288,14,19,21,317,,25,08,049,,0*6E
$GPGSV,3,3,11,28,43,090,,31,37,129,25,32,26,060,14,0*5C
$GLGSV,3,1,10,65,27,252,08,71,38,059,19,72,81,312,19,73,24,075,19,0*74
$GLGSV,3,2,10,74,06,116,,80,20,017,15,81,04,340,,86,09,176,,0*7F
$GLGSV,3,3,10,87,47,202,18,88,47,308,22,0*75
$GAGSV,1,1,00,0*74
$GNGLL,5552.32348,N,03800.08688,E,135829.00,A,A*7F

$GNRMC,135830.00,A,5552.32371,N,03800.08746,E,0.793,,120625,,,A,V*12
$GNVTG,,T,,M,0.793,N,1.468,K,A*3B

$GNGGA,135830.00,5552.32371,N,03800.08746,E,1,09,0.95,133.7,M,12.9,M,,*42
$GNGSA,A,3,02,32,17,03,31,,,,,,,,2.61,0.95,2.44,1*0E
$GNGSA,A,3,87,71,88,80,,,,,,,,,2.61,0.95,2.44,2*08
$GNGSA,A,3,,,,,,,,,,,,,2.61,0.95,2.44,3*08
$GPGSV,3,1,11,01,64,209,08,02,39,180,15,03,65,282,17,04,24,225,,0*6B
$GPGSV,3,2,11,12,08,018,,17,27,288,13,19,21,317,,25,08,049,,0*69
$GPGSV,3,3,11,28,43,090,,31,37,129,22,32,26,060,15,0*5A
$GLGSV,3,1,10,65,27,252,11,71,38,059,21,72,81,312,19,73,24,075,18,0*76
$GLGSV,3,2,10,74,06,116,,80,20,017,12,81,04,340,,86,09,176,,0*78
$GLGSV,3,3,10,87,47,202,20,88,47,308,22,0*7E
$GAGSV,1,1,00,0*74
$GNGLL,5552.32371,N,03800.08746,E,135830.00,A,A*7E

$GNRMC,135831.00,A,5552.32376,N,03800.08783,E,0.727,,120625,,,A,V*12
$GNVTG,,T,,M,0.727,N,1.347,K,A*3E
$GNGGA,135831.00,5552.32376,N,03800.08783,E,1,10,0.91,133.7,M,12.9,M,,*41
$GNGSA,A,3,02,32,17,03,31,,,,,,,,2.05,0.91,1.84,1*07
$GNGSA,A,3,72,87,71,88,80,,,,,,,,2.05,0.91,1.84,2*04
$GNGSA,A,3,,,,,,,,,,,,,2.05,0.91,1.84,3*01

$GPGSV,3,1,11,01,64,209,11,02,39,180,14,03,65,282,14,04,24,225,,0*61
$GPGSV,3,2,11,12,08,018,,17,27,288,12,19,21,317,,25,08,049,,0*68
$GPGSV,3,3,11,28,43,090,,31,37,129,21,32,26,060,12,0*5E
$GLGSV,3,1,10,65,27,252,13,71,38,059,23,72,81,312,20,73,24,075,21,0*76
$GLGSV,3,2,10,74,06,116,,80,20,017,16,81,04,340,,86,09,176,,0*7C
$GLGSV,3,3,10,87,47,202,18,88,47,308,25,0*72
$GAGSV,1,1,00,0*74
$GNGLL,5552.32376,N,03800.08783,E,135831.00,A,A*71

$GNRMC,135832.00,A,5552.32352,N,03800.08844,E,0.567,,120625,,,A,V*15
$GNVTG,,T,,M,0.567,N,1.050,K,A*3D

$GNGGA,135832.00,5552.32352,N,03800.08844,E,1,09,0.97,134.0,M,12.9,M,,*4E
$GNGSA,A,3,02,17,03,31,,,,,,,,,2.10,0.97,1.86,1*06
$GNGSA,A,3,72,87,71,88,80,,,,,,,,2.10,0.97,1.86,2*04
$GNGSA,A,3,,,,,,,,,,,,,2.10,0.97,1.86,3*01
$GPGSV,3,1,11,01,64,209,11,02,39,180,15,03,65,282,11,04,24,225,,0*65
$GPGSV,3,2,11,12,08,018,,17,27,288,12,19,21,317,,25,08,049,,0*68
$GPGSV,3,3,11,28,43,090,,31,37,129,17,32,26,060,08,0*50
$GLGSV,3,1,10,65,27,252,13,71,38,059,21,72,81,312,21,73,24,075,21,0*75
$GLGSV,3,2,10,74,06,116,,80,20,017,18,81,04,340,,86,09,176,,0*72
$GLGSV,3,3,10,87,47,202,19,88,47,308,25,0*73
$GAGSV,1,1,00,0*74
$GNGLL,5552.32352,N,03800.08844,E,135832.00,A,A*70

$GNRMC,135833.00,A,5552.32369,N,03800.08875,E,0.341,,120625,,,A,V*1C
$GNVTG,,T,,M,0.341,N,0.631,K,A*3F

$GNGGA,135833.00,5552.32369,N,03800.08875,E,1,09,0.97,134.6,M,12.9,M,,*43
$GNGSA,A,3,02,17,03,31,,,,,,,,,2.10,0.97,1.86,1*06
$GNGSA,A,3,72,87,71,88,80,,,,,,,,2.10,0.97,1.86,2*04
$GNGSA,A,3,,,,,,,,,,,,,2.10,0.97,1.86,3*01
$GPGSV,3,1,11,01,64,209,12,02,39,180,15,03,65,282,13,04,24,225,,0*64
$GPGSV,3,2,11,12,08,018,,17,27,288,10,19,21,317,,25,08,049,,0*6A
$GPGSV,3,3,11,28,43,090,,31,37,129,16,32,26,060,08,0*51
$GLGSV,3,1,10,65,27,252,12,71,38,059,20,72,81,312,21,73,24,075,19,0*7E
$GLGSV,3,2,10,74,06,116,,80,20,017,18,81,04,340,,86,09,176,,0*72
$GLGSV,3,3,10,87,47,202,20,88,47,308,25,0*79
$GAGSV,1,1,00,0*74
$GNGLL,5552.32369,N,03800.08875,E,135833.00,A,A*7B

$GNRMC,135834.00,A,5552.32334,N,03800.08881,E,0.504,,120625,,,A,V*1F
$GNVTG,,T,,M,0.504,N,0.934,K,A*32

$GNGGA,135834.00,5552.32334,N,03800.08881,E,1,09,1.20,134.4,M,12.9,M,,*48
$GNGSA,A,3,01,02,03,31,,,,,,,,,2.58,1.20,2.28,1*07
$GNGSA,A,3,72,87,71,88,80,,,,,,,,2.58,1.20,2.28,2*02
$GNGSA,A,3,,,,,,,,,,,,,2.58,1.20,2.28,3*07
$GPGSV,3,1,11,01,64,209,11,02,39,180,15,03,65,282,14,04,24,225,,0*60
$GPGSV,3,2,11,12,08,018,,17,27,288,09,19,21,317,,25,08,049,,0*62
$GPGSV,3,3,11,28,43,090,,31,37,129,15,32,26,060,09,0*53
$GLGSV,3,1,10,65,27,252,10,71,38,059,19,72,81,312,21,73,24,075,18,0*77
$GLGSV,3,2,10,74,06,116,,80,20,017,18,81,04,340,,86,09,176,,0*72
$GLGSV,3,3,10,87,47,202,19,88,47,308,24,0*72
$GAGSV,1,1,00,0*74
$GNGLL,5552.32334,N,03800.08881,E,135834.00,A,A*7F

$GNRMC,135835.00,A,5552.32316,N,03800.08862,E,0.668,,120625,,,A,V*1A
$GNVTG,,T,,M,0.668,N,1.238,K,A*3D

$GNGGA,135835.00,5552.32316,N,03800.08862,E,1,11,0.91,134.7,M,12.9,M,,*45
$GNGSA,A,3,01,02,32,17,03,31,,,,,,,1.99,0.91,1.76,1*0D
$GNGSA,A,3,72,87,71,88,80,,,,,,,,1.99,0.91,1.76,2*0F
$GNGSA,A,3,,,,,,,,,,,,,1.99,0.91,1.76,3*0A
$GPGSV,3,1,11,01,64,209,12,02,39,180,15,03,65,282,17,04,24,225,,0*60
$GPGSV,3,2,11,12,08,018,,17,27,288,07,19,21,317,,25,08,049,,0*6C
$GPGSV,3,3,11,28,43,090,,31,37,129,18,32,26,060,11,0*57
$GLGSV,3,1,10,65,27,252,10,71,38,059,18,72,81,312,20,73,24,075,19,0*76
$GLGSV,3,2,10,74,06,116,,80,20,017,16,81,04,340,,86,09,176,,0*7C
$GLGSV,3,3,10,87,47,202,19,88,47,308,21,0*77
$GAGSV,1,1,00,0*74
$GNGLL,5552.32316,N,03800.08862,E,135835.00,A,A*73

$GNRMC,135836.00,A,5552.32316,N,03800.08957,E,0.681,,120625,,,A,V*19
$GNVTG,,T,,M,0.681,N,1.262,K,A*35

$GNGGA,135836.00,5552.32316,N,03800.08957,E,1,11,0.91,135.4,M,12.9,M,,*43
$GNGSA,A,3,01,02,32,17,03,31,,,,,,,1.99,0.91,1.76,1*0D
$GNGSA,A,3,72,87,71,88,80,,,,,,,,1.99,0.91,1.76,2*0F
$GNGSA,A,3,,,,,,,,,,,,,1.99,0.91,1.76,3*0A
$GPGSV,3,1,11,01,64,209,17,02,39,180,15,03,65,282,19,04,24,225,,0*6B
$GPGSV,3,2,11,12,08,018,,17,27,288,07,19,21,317,,25,08,049,,0*6C
$GPGSV,3,3,11,28,43,090,,31,37,129,19,32,26,060,12,0*55
$GLGSV,3,1,10,65,27,252,11,71,38,059,17,72,81,312,19,73,24,075,19,0*72
$GLGSV,3,2,10,74,06,116,,80,20,017,15,81,04,340,,86,09,176,,0*7F
$GLGSV,3,3,10,87,47,202,21,88,47,308,21,0*7C
$GAGSV,1,1,00,0*74
$GNGLL,5552.32316,N,03800.08957,E,135836.00,A,A*77

$GNRMC,135837.00,A,5552.32314,N,03800.08965,E,0.537,,120625,,,A,V*15
$GNVTG,,T,,M,0.537,N,0.995,K,A*39
$GNGGA,135837.00,5552.32314,N,03800.08965,E,1,10,1.14,135.3,M,12.9,M,,*4B

$GNGSA,A,3,01,02,32,03,31,,,,,,,,2.55,1.14,2.28,1*0C
$GNGSA,A,3,72,87,71,88,80,,,,,,,,2.55,1.14,2.28,2*08
$GNGSA,A,3,,,,,,,,,,,,,2.55,1.14,2.28,3*0D
$GPGSV,3,1,11,01,64,209,19,02,39,180,15,03,65,282,18,04,24,225,,0*64
$GPGSV,3,2,11,12,08,018,,17,27,288,07,19,21,317,,25,08,049,,0*6C
$GPGSV,3,3,11,28,43,090,,31,37,129,21,32,26,060,14,0*58
$GLGSV,3,1,10,65,27,252,11,71,38,059,18,72,81,312,19,73,24,075,20,0*77
$GLGSV,3,2,10,74,06,116,,80,20,017,13,81,04,340,,86,09,176,,0*79
$GLGSV,3,3,10,87,47,202,20,88,47,308,22,0*7E
$GAGSV,1,1,00,0*74
$GNGLL,5552.32314,N,03800.08965,E,135837.00,A,A*75

$GNRMC,135838.00,A,5552.32329,N,03800.09003,E,0.319,,120625,,,A,V*16
$GNVTG,,T,,M,0.319,N,0.590,K,A*3A
$GNGGA,135838.00,5552.32329,N,03800.09003,E,1,11,0.91,135.3,M,12.9,M,,*4F

$GNGSA,A,3,01,02,32,17,03,31,,,,,,,1.98,0.91,1.76,1*0C
$GNGSA,A,3,72,87,71,88,80,,,,,,,,1.98,0.91,1.76,2*0E
$GNGSA,A,3,,,,,,,,,,,,,1.98,0.91,1.76,3*0B
$GPGSV,3,1,11,01,64,209,17,02,39,180,17,03,65,282,17,04,24,225,,0*67
$GPGSV,3,2,11,12,08,018,,17,27,288,09,19,21,317,,25,08,049,,0*62
$GPGSV,3,3,11,28,43,090,,31,37,129,20,32,26,060,18,0*55
$GLGSV,3,1,10,65,27,252,12,71,38,059,22,72,81,312,19,73,24,075,19,0*77
$GLGSV,3,2,10,74,06,116,,80,20,017,13,81,04,340,,86,09,176,,0*79
$GLGSV,3,3,10,87,47,202,20,88,47,308,25,0*79
$GAGSV,1,1,00,0*74
$GNGLL,5552.32329,N,03800.09003,E,135838.00,A,A*7C

$GNRMC,135839.00,A,5552.32343,N,03800.09035,E,0.444,,120625,,,A,V*11
$GNVTG,,T,,M,0.444,N,0.822,K,A*31

$GNGGA,135839.00,5552.32343,N,03800.09035,E,1,11,0.91,135.3,M,12.9,M,,*47
$GNGSA,A,3,01,02,32,17,03,31,,,,,,,1.98,0.91,1.76,1*0C
$GNGSA,A,3,72,87,71,88,80,,,,,,,,1.98,0.91,1.76,2*0E
$GNGSA,A,3,,,,,,,,,,,,,1.98,0.91,1.76,3*0B
$GPGSV,3,1,11,01,64,209,15,02,39,180,12,03,65,282,19,04,24,225,,0*6E
$GPGSV,3,2,11,12,08,018,,17,27,288,09,19,21,317,,25,08,049,,0*62
$GPGSV,3,3,11,28,43,090,,31,37,129,19,32,26,060,18,0*5F
$GLGSV,3,1,10,65,27,252,11,71,38,059,24,72,81,312,20,73,24,075,17,0*76
$GLGSV,3,2,10,74,06,116,,80,20,017,12,81,04,340,,86,09,176,,0*78
$GLGSV,3,3,10,87,47,202,19,88,47,308,26,0*70
$GAGSV,1,1,00,0*74
$GNGLL,5552.32343,N,03800.09035,E,135839.00,A,A*74

$GNRMC,135840.00,A,5552.32334,N,03800.09138,E,0.998,,120625,,,A,V*1F
$GNVTG,,T,,M,0.998,N,1.848,K,A*30

$GNGGA,135840.00,5552.32334,N,03800.09138,E,1,11,0.91,135.6,M,12.9,M,,*40
$GNGSA,A,3,01,02,32,17,03,31,,,,,,,1.98,0.91,1.76,1*0C
$GNGSA,A,3,72,87,71,88,80,,,,,,,,1.98,0.91,1.76,2*0E
$GNGSA,A,3,,,,,,,,,,,,,1.98,0.91,1.76,3*0B
$GPGSV,3,1,11,01,64,209,16,02,39,180,15,03,65,282,20,04,24,225,,0*60
$GPGSV,3,2,11,12,08,018,,17,27,288,10,19,21,317,,25,08,049,,0*6A
$GPGSV,3,3,11,28,43,090,,31,37,129,22,32,26,060,18,0*57
$GLGSV,3,1,10,65,27,252,12,71,38,059,22,72,81,312,20,73,24,075,17,0*73
$GLGSV,3,2,10,74,06,116,,80,20,017,11,81,04,340,,86,09,176,,0*7B
$GLGSV,3,3,10,87,47,202,21,88,47,308,27,0*7A
$GAGSV,1,1,00,0*74
$GNGLL,5552.32334,N,03800.09138,E,135840.00,A,A*76

$GNRMC,135841.00,A,5552.32373,N,03800.09308,E,2.017,66.90,120625,,,A,V*37
$GNVTG,66.90,T,,M,2.017,N,3.735,K,A*1C
$GNGGA,135841.00,5552.32373,N,03800.09308,E,1,11,0.91,136.0,M,12.9,M,,*46

$GNGSA,A,3,01,02,32,17,03,31,,,,,,,1.98,0.91,1.76,1*0C
$GNGSA,A,3,72,87,71,88,80,,,,,,,,1.98,0.91,1.76,2*0E
$GNGSA,A,3,,,,,,,,,,,,,1.98,0.91,1.76,3*0B
$GPGSV,3,1,11,01,64,209,14,02,39,180,16,03,65,282,22,04,24,225,,0*63
$GPGSV,3,2,11,12,08,018,,17,27,288,10,19,21,317,,25,08,049,,0*6A
$GPGSV,3,3,11,28,43,090,,31,37,129,25,32,26,060,18,0*50
$GLGSV,3,1,10,65,27,252,14,71,38,059,20,72,81,312,19,73,24,075,15,0*7F
$GLGSV,3,2,10,74,06,116,,80,20,017,12,81,04,340,,86,09,176,,0*78
$GLGSV,3,3,10,87,47,202,20,88,47,308,28,0*74
$GAGSV,1,1,00,0*74
$GNGLL,5552.32373,N,03800.09308,E,135841.00,A,A*75

$GNRMC,135842.00,A,5552.32312,N,03800.09288,E,1.149,,120625,,,A,V*14
$GNVTG,,T,,M,1.149,N,2.128,K,A*39

$GNGGA,135842.00,5552.32312,N,03800.09288,E,1,11,0.91,135.9,M,12.9,M,,*41
$GNGSA,A,3,01,02,32,17,03,31,,,,,,,1.98,0.91,1.76,1*0C
$GNGSA,A,3,72,87,71,88,80,,,,,,,,1.98,0.91,1.76,2*0E
$GNGSA,A,3,,,,,,,,,,,,,1.98,0.91,1.76,3*0B
$GPGSV,3,1,11,01,64,209,13,02,39,180,18,03,65,282,24,04,24,225,,0*6C
$GPGSV,3,2,11,12,08,018,,17,27,288,10,19,21,317,,25,08,049,,0*6A
$GPGSV,3,3,11,28,43,090,,31,37,129,28,32,26,060,18,0*5D
$GLGSV,3,1,10,65,27,252,14,71,38,059,16,72,81,312,17,73,24,075,15,0*74
$GLGSV,3,2,10,74,06,116,,80,20,017,15,81,04,340,,86,09,176,,0*7F
$GLGSV,3,3,10,87,47,202,19,88,47,308,28,0*7E
$GAGSV,1,1,00,0*74
$GNGLL,5552.32312,N,03800.09288,E,135842.00,A,A*78

$GNRMC,135843.00,A,5552.32284,N,03800.09293,E,0.619,,120625,,,A,V*12
$GNVTG,,T,,M,0.619,N,1.147,K,A*30
$GNGGA,135843.00,5552.32284,N,03800.09293,E,1,11,0.91,136.2,M,12.9,M,,*4C

$GNGSA,A,3,01,02,32,17,03,31,,,,,,,1.98,0.91,1.76,1*0C
$GNGSA,A,3,72,87,71,88,80,,,,,,,,1.98,0.91,1.76,2*0E
$GNGSA,A,3,,,,,,,,,,,,,1.98,0.91,1.76,3*0B
$GPGSV,3,1,11,01,64,209,11,02,39,180,18,03,65,282,24,04,24,225,,0*6E
$GPGSV,3,2,11,12,08,018,,17,27,288,09,19,21,317,,25,08,049,,0*62
$GPGSV,3,3,11,28,43,090,,31,37,129,29,32,26,060,17,0*53
$GLGSV,3,1,10,65,27,252,13,71,38,059,18,72,81,312,17,73,24,075,15,0*7D
$GLGSV,3,2,10,74,06,116,,80,20,017,17,81,04,340,,86,09,176,,0*7D
$GLGSV,3,3,10,87,47,202,19,88,47,308,28,0*7E
$GAGSV,1,1,00,0*74
$GNGLL,5552.32284,N,03800.09293,E,135843.00,A,A*7D

$GNRMC,135844.00,A,5552.32283,N,03800.09306,E,0.364,,120625,,,A,V*10
$GNVTG,,T,,M,0.364,N,0.674,K,A*39

$GNGGA,135844.00,5552.32283,N,03800.09306,E,1,11,0.91,135.8,M,12.9,M,,*48
$GNGSA,A,3,01,02,32,17,03,31,,,,,,,1.98,0.91,1.76,1*0C
$GNGSA,A,3,72,87,71,88,80,,,,,,,,1.98,0.91,1.76,2*0E
$GNGSA,A,3,,,,,,,,,,,,,1.98,0.91,1.76,3*0B
$GPGSV,3,1,11,01,64,209,16,02,39,180,17,03,65,282,22,04,24,225,,0*60
$GPGSV,3,2,11,12,08,018,,17,27,288,10,19,21,317,,25,08,049,,0*6A
$GPGSV,3,3,11,28,43,090,16,31,37,129,27,32,26,060,19,0*54
$GLGSV,3,1,10,65,27,252,10,71,38,059,20,72,81,312,18,73,24,075,16,0*79
$GLGSV,3,2,10,74,06,116,,80,20,017,16,81,04,340,,86,09,176,,0*7C
$GLGSV,3,3,10,87,47,202,19,88,47,308,30,0*77
$GAGSV,1,1,00,0*74
$GNGLL,5552.32283,N,03800.09306,E,135844.00,A,A*70

$GNRMC,135845.00,A,5552.32276,N,03800.09320,E,0.302,,120625,,,A,V*1F
$GNVTG,,T,,M,0.302,N,0.558,K,A*34

$GNGGA,135845.00,5552.32276,N,03800.09320,E,1,11,0.91,135.6,M,12.9,M,,*49
$GNGSA,A,3,01,02,32,17,03,31,,,,,,,1.98,0.91,1.76,1*0C
$GNGSA,A,3,72,87,71,88,80,,,,,,,,1.98,0.91,1.76,2*0E
$GNGSA,A,3,,,,,,,,,,,,,1.98,0.91,1.76,3*0B
$GPGSV,3,1,11,01,64,209,18,02,39,180,14,03,65,282,21,04,24,225,,0*6E
$GPGSV,3,2,11,12,08,018,,17,27,288,10,19,21,317,,25,08,049,,0*6A
$GPGSV,3,3,11,28,43,090,13,31,37,129,26,32,26,060,18,0*51
$GLGSV,3,1,10,65,27,253,09,71,38,059,19,72,81,312,18,73,24,075,17,0*7B
$GLGSV,3,2,10,74,06,116,,80,20,017,15,81,04,340,,86,09,176,,0*7F
$GLGSV,3,3,10,87,47,202,22,88,47,308,30,0*7F
$GAGSV,1,1,00,0*74
$GNGLL,5552.32276,N,03800.09320,E,135845.00,A,A*7F

$GNRMC,135846.00,A,5552.32259,N,03800.09323,E,0.524,,120625,,,A,V*10
$GNVTG,,T,,M,0.524,N,0.971,K,A*31

$GNGGA,135846.00,5552.32259,N,03800.09323,E,1,11,0.91,135.7,M,12.9,M,,*45
$GNGSA,A,3,01,02,32,17,03,31,,,,,,,1.98,0.91,1.76,1*0C
$GNGSA,A,3,72,87,71,88,80,,,,,,,,1.98,0.91,1.76,2*0E
$GNGSA,A,3,,,,,,,,,,,,,1.98,0.91,1.76,3*0B
$GPGSV,3,1,11,01,64,209,17,02,39,180,13,03,65,282,19,04,24,225,,0*6D
$GPGSV,3,2,11,12,08,018,,17,27,288,10,19,21,317,,25,08,049,,0*6A
$GPGSV,3,3,11,28,43,090,10,31,37,129,25,32,26,060,17,0*5E
$GLGSV,3,1,10,65,27,253,,71,38,059,19,72,81,312,20,73,24,075,17,0*79
$GLGSV,3,2,10,74,06,116,,80,20,017,13,81,04,340,,86,09,176,,0*79
$GLGSV,3,3,10,87,47,202,23,88,47,308,30,0*7E
$GAGSV,1,1,00,0*74

$GNGLL,5552.32259,N,03800.09323,E,135846.00,A,A*72

$GNRMC,135847.00,A,5552.32271,N,03800.09317,E,0.190,,120625,,,A,V*17
$GNVTG,,T,,M,0.190,N,0.352,K,A*31

$GNGGA,135847.00,5552.32271,N,03800.09317,E,1,11,0.91,135.4,M,12.9,M,,*4A
$GNGSA,A,3,01,02,32,17,03,31,,,,,,,1.98,0.91,1.76,1*0C
$GNGSA,A,3,72,87,71,88,80,,,,,,,,1.98,0.91,1.76,2*0E
$GNGSA,A,3,,,,,,,,,,,,,1.98,0.91,1.76,3*0B
$GPGSV,3,1,11,01,64,209,18,02,39,180,12,03,65,282,20,04,24,225,,0*69
$GPGSV,3,2,11,12,08,018,,17,27,288,10,19,21,317,,25,08,049,,0*6A
$GPGSV,3,3,11,28,43,090,08,31,37,129,24,32,26,060,17,0*56
$GLGSV,3,1,10,65,27,253,,71,38,059,24,72,81,312,21,73,24,075,18,0*79
$GLGSV,3,2,10,74,06,116,,80,20,017,12,81,04,340,,86,09,176,,0*78
$GLGSV,3,3,10,87,47,202,27,88,47,308,30,0*7A
$GAGSV,1,1,00,0*74
$GNGLL,5552.32271,N,03800.09317,E,135847.00,A,A*7E

$GNRMC,135848.00,A,5552.32285,N,03800.09336,E,0.103,,120625,,,A,V*1A
$GNVTG,,T,,M,0.103,N,0.190,K,A*37
$GNGGA,135848.00,5552.32285,N,03800.09336,E,1,10,0.96,135.8,M,12.9,M,,*47
$GNGSA,A,3,01,02,32,17,03,31,,,,,,,2.12,0.96,1.89,1*0A
$GNGSA,A,3,72,87,71,88,,,,,,,,,2.12,0.96,1.89,2*00

$GNGSA,A,3,,,,,,,,,,,,,2.12,0.96,1.89,3*0D
$GPGSV,3,1,11,01,64,209,19,02,39,180,15,03,65,282,21,04,24,225,,0*6E
$GPGSV,3,2,11,12,08,018,,17,27,288,10,19,21,317,,25,08,049,,0*6A
$GPGSV,3,3,11,28,43,090,08,31,37,129,24,32,26,060,16,0*57
$GLGSV,3,1,10,65,27,253,,71,38,059,27,72,81,312,21,73,24,075,18,0*7A
$GLGSV,3,2,10,74,06,116,,80,20,017,09,81,04,340,,86,09,176,,0*72
$GLGSV,3,3,10,87,47,202,28,88,47,308,31,0*74
$GAGSV,1,1,00,0*74
$GNGLL,5552.32285,N,03800.09336,E,135848.00,A,A*79

$GNRMC,135849.00,A,5552.32277,N,03800.09344,E,0.243,,120625,,,A,V*14
$GNVTG,,T,,M,0.243,N,0.451,K,A*38

$GNGGA,135849.00,5552.32277,N,03800.09344,E,1,10,0.96,135.8,M,12.9,M,,*4E
$GNGSA,A,3,01,02,32,17,03,31,,,,,,,2.12,0.96,1.89,1*0A
$GNGSA,A,3,72,87,71,88,,,,,,,,,2.12,0.96,1.89,2*00
$GNGSA,A,3,,,,,,,,,,,,,2.12,0.96,1.89,3*0D
$GPGSV,3,1,11,01,64,209,19,02,39,180,16,03,65,282,21,04,24,225,,0*6D
$GPGSV,3,2,11,12,08,018,,17,27,288,10,19,21,317,,25,08,049,,0*6A
$GPGSV,3,3,11,28,43,090,08,31,37,129,24,32,26,060,18,0*59
$GLGSV,3,1,10,65,27,253,,71,38,059,25,72,81,312,20,73,24,075,18,0*79
$GLGSV,3,2,10,74,06,116,,80,20,017,08,81,04,340,,86,09,176,,0*73
$GLGSV,3,3,10,87,47,202,27,88,47,308,31,0*7B
$GAGSV,1,1,00,0*74
$GNGLL,5552.32277,N,03800.09344,E,135849.00,A,A*70

$GNRMC,135850.00,A,5552.32260,N,03800.09340,E,0.322,,120625,,,A,V*18
$GNVTG,,T,,M,0.322,N,0.596,K,A*34

$GNGGA,135850.00,5552.32260,N,03800.09340,E,1,11,0.91,135.9,M,12.9,M,,*43
$GNGSA,A,3,01,02,32,17,03,31,,,,,,,1.98,0.91,1.76,1*0C
$GNGSA,A,3,72,87,71,88,80,,,,,,,,1.98,0.91,1.76,2*0E
$GNGSA,A,3,,,,,,,,,,,,,1.98,0.91,1.76,3*0B
$GPGSV,3,1,11,01,64,209,18,02,39,180,14,03,65,282,21,04,24,225,,0*6E
$GPGSV,3,2,11,12,08,018,,17,27,288,11,19,21,317,,25,08,049,,0*6B
$GPGSV,3,3,11,28,43,090,08,31,37,129,24,32,26,060,18,0*59
$GLGSV,3,1,10,65,27,253,,71,38,059,25,72,81,312,19,73,24,075,18,0*73
$GLGSV,3,2,10,74,06,116,,80,20,017,13,81,04,340,,86,09,176,,0*79
$GLGSV,3,3,10,87,47,202,25,88,47,308,32,0*7A
$GAGSV,1,1,00,0*74
$GNGLL,5552.32260,N,03800.09340,E,135850.00,A,A*7A

$GNRMC,135851.00,A,5552.32253,N,03800.09329,E,0.074,,120625,,,A,V*16
$GNVTG,,T,,M,0.074,N,0.136,K,A*3A

$GNGGA,135851.00,5552.32253,N,03800.09329,E,1,11,0.91,136.0,M,12.9,M,,*47
$GNGSA,A,3,01,02,32,17,03,31,,,,,,,1.98,0.91,1.76,1*0C
$GNGSA,A,3,72,87,71,88,80,,,,,,,,1.98,0.91,1.76,2*0E
$GNGSA,A,3,,,,,,,,,,,,,1.98,0.91,1.76,3*0B
$GPGSV,3,1,11,01,64,209,16,02,39,180,11,03,65,282,20,04,24,225,,0*64
$GPGSV,3,2,11,12,08,018,,17,27,288,11,19,21,317,,25,08,049,,0*6B
$GPGSV,3,3,11,28,43,090,10,31,37,129,22,32,26,060,16,0*58
$GLGSV,3,1,10,65,27,253,,71,37,059,26,72,81,312,18,73,24,075,16,0*70
$GLGSV,3,2,10,74,06,116,,80,20,017,15,81,04,340,,86,09,176,,0*7F
$GLGSV,3,3,10,87,47,202,24,88,47,308,32,0*7B
$GAGSV,1,1,00,0*74
$GNGLL,5552.32253,N,03800.09329,E,135851.00,A,A*74

$GNRMC,135852.00,A,5552.32243,N,03800.09321,E,0.094,,120625,,,A,V*12
$GNVTG,,T,,M,0.094,N,0.174,K,A*32

$GNGGA,135852.00,5552.32243,N,03800.09321,E,1,11,0.91,136.4,M,12.9,M,,*49
$GNGSA,A,3,01,02,32,17,03,31,,,,,,,1.98,0.91,1.76,1*0C
$GNGSA,A,3,72,87,71,88,80,,,,,,,,1.98,0.91,1.76,2*0E
$GNGSA,A,3,,,,,,,,,,,,,1.98,0.91,1.76,3*0B
$GPGSV,3,1,11,01,64,209,16,02,39,180,11,03,65,282,21,04,24,225,,0*65
$GPGSV,3,2,11,12,08,018,,17,27,288,11,19,21,317,,25,08,049,,0*6B
$GPGSV,3,3,11,28,43,090,10,31,37,129,19,32,26,060,13,0*55
$GLGSV,3,1,10,65,27,253,,71,37,059,24,72,81,317,18,73,24,075,16,0*77
$GLGSV,3,2,10,74,06,116,,80,20,017,15,81,04,340,,86,09,176,,0*7F
$GLGSV,3,3,10,87,47,202,23,88,47,308,31,0*7F
$GAGSV,1,1,00,0*74
$GNGLL,5552.32243,N,03800.09321,E,135852.00,A,A*7E

$GNRMC,135853.00,A,5552.32238,N,03800.09284,E,0.224,,120625,,,A,V*18
$GNVTG,,T,,M,0.224,N,0.416,K,A*3A

$GNGGA,135853.00,5552.32238,N,03800.09284,E,1,11,0.91,136.3,M,12.9,M,,*4D
$GNGSA,A,3,01,02,32,17,03,31,,,,,,,1.98,0.91,1.76,1*0C
$GNGSA,A,3,72,87,71,88,80,,,,,,,,1.98,0.91,1.76,2*0E
$GNGSA,A,3,,,,,,,,,,,,,1.98,0.91,1.76,3*0B
$GPGSV,3,1,11,01,64,209,17,02,39,180,14,03,65,282,22,04,24,225,,0*62
$GPGSV,3,2,11,12,08,018,,17,27,288,11,19,21,317,,25,08,049,,0*6B
$GPGSV,3,3,11,28,43,090,13,31,37,129,14,32,26,060,12,0*5A
$GLGSV,3,1,10,65,27,253,,71,37,059,25,72,81,317,17,73,25,074,15,0*7A
$GLGSV,3,2,10,74,06,116,,80,20,017,13,81,04,340,,86,09,176,,0*79
$GLGSV,3,3,10,87,47,202,26,88,47,308,31,0*7A
$GAGSV,1,1,00,0*74
$GNGLL,5552.32238,N,03800.09284,E,135853.00,A,A*7D

$GNRMC,135854.00,A,5552.32226,N,03800.09242,E,0.527,,120625,,,A,V*1E
$GNVTG,,T,,M,0.527,N,0.976,K,A*35

$GNGGA,135854.00,5552.32226,N,03800.09242,E,1,10,1.14,136.5,M,12.9,M,,*44
$GNGSA,A,3,01,02,32,03,31,,,,,,,,2.54,1.14,2.27,1*02
$GNGSA,A,3,72,87,71,88,80,,,,,,,,2.54,1.14,2.27,2*06
$GNGSA,A,3,,,,,,,,,,,,,2.54,1.14,2.27,3*03
$GPGSV,3,1,11,01,64,209,14,02,39,180,14,03,65,282,20,04,24,225,17,0*65
$GPGSV,3,2,11,12,08,018,,17,27,288,,19,21,317,,25,08,049,,0*6B
$GPGSV,3,3,11,28,43,090,14,31,37,129,14,32,26,060,13,0*5C
$GLGSV,3,1,10,65,27,253,,71,37,059,25,72,81,317,16,73,25,074,14,0*7A
$GLGSV,3,2,10,74,07,116,,80,20,017,10,81,04,340,,86,09,176,,0*7B
$GLGSV,3,3,10,87,47,202,27,88,47,308,28,0*73
$GAGSV,1,1,00,0*74
$GNGLL,5552.32226,N,03800.09242,E,135854.00,A,A*7F

$GNRMC,135855.00,A,5552.32222,N,03800.09247,E,0.207,,120625,,,A,V*1B
$GNVTG,,T,,M,0.207,N,0.383,K,A*30

$GNGGA,135855.00,5552.32222,N,03800.09247,E,1,09,1.29,136.8,M,12.9,M,,*4F
$GNGSA,A,3,01,02,32,03,31,,,,,,,,3.19,1.29,2.92,1*0A
$GNGSA,A,3,72,87,71,88,,,,,,,,,3.19,1.29,2.92,2*06
$GNGSA,A,3,,,,,,,,,,,,,3.19,1.29,2.92,3*0B
$GPGSV,3,1,11,01,64,209,12,02,39,180,15,03,65,282,18,04,24,225,16,0*68
$GPGSV,3,2,11,12,08,018,,17,27,288,17,19,21,317,,25,08,049,,0*6D
$GPGSV,3,3,11,28,43,090,13,31,37,129,13,32,26,060,13,0*5C
$GLGSV,3,1,10,65,27,253,,71,37,059,27,72,81,317,13,73,25,074,17,0*7E
$GLGSV,3,2,10,74,07,116,,80,20,017,07,81,04,340,,86,09,176,,0*7D
$GLGSV,3,3,10,87,47,202,26,88,47,308,28,0*72
$GAGSV,1,1,00,0*74
$GNGLL,5552.32222,N,03800.09247,E,135855.00,A,A*7F

$GNRMC,135856.00,A,5552.32216,N,03800.09247,E,0.090,,120625,,,A,V*13
$GNVTG,,T,,M,0.090,N,0.167,K,A*34
$GNGGA,135856.00,5552.32216,N,03800.09247,E,1,08,1.43,136.5,M,12.9,M,,*4B

$GNGSA,A,3,01,02,32,03,31,,,,,,,,4.27,1.43,4.02,1*03
$GNGSA,A,3,87,71,88,,,,,,,,,,4.27,1.43,4.02,2*0A
$GNGSA,A,3,,,,,,,,,,,,,4.27,1.43,4.02,3*02
$GPGSV,3,1,11,01,64,209,11,02,39,180,18,03,65,282,15,04,24,225,14,0*69
$GPGSV,3,2,11,12,08,018,,17,27,288,15,19,21,317,,25,08,049,,0*6F
$GPGSV,3,3,11,28,43,090,,31,37,129,12,32,26,060,12,0*5E
$GLGSV,3,1,10,65,27,253,,71,37,059,27,72,81,317,08,73,25,074,16,0*75
$GLGSV,3,2,10,74,07,116,,80,20,017,06,81,04,340,,86,09,176,,0*7C
$GLGSV,3,3,10,87,47,202,24,88,47,308,29,0*71
$GAGSV,1,1,00,0*74
$GNGLL,5552.32216,N,03800.09247,E,135856.00,A,A*7B

$GNRMC,135857.00,A,5552.32228,N,03800.09249,E,0.301,,120625,,,A,V*1A
$GNVTG,,T,,M,0.301,N,0.557,K,A*38
$GNGGA,135857.00,5552.32228,N,03800.09249,E,1,09,1.15,137.0,M,12.9,M,,*4F
$GNGSA,A,3,02,32,03,31,,,,,,,,,2.60,1.15,2.33,1*00

$GNGSA,A,3,72,87,71,88,80,,,,,,,,2.60,1.15,2.33,2*05
$GNGSA,A,3,,,,,,,,,,,,,2.60,1.15,2.33,3*00
$GPGSV,3,1,11,01,64,209,10,02,39,180,18,03,65,282,17,04,24,225,10,0*6E
$GPGSV,3,2,11,12,08,018,,17,27,288,15,19,21,317,,25,08,049,,0*6F
$GPGSV,3,3,11,28,43,090,,31,37,129,12,32,26,060,12,0*5E
$GLGSV,3,1,10,65,27,253,,71,37,059,26,72,81,317,11,73,25,074,15,0*7F
$GLGSV,3,2,10,74,07,116,,80,20,017,13,81,04,340,,86,09,176,,0*78
$GLGSV,3,3,10,87,47,202,22,88,47,308,28,0*76
$GAGSV,1,1,00,0*74
$GNGLL,5552.32228,N,03800.09249,E,135857.00,A,A*79

$GNRMC,135858.00,A,5552.32206,N,03800.09220,E,0.440,,120625,,,A,V*14
$GNVTG,,T,,M,0.440,N,0.815,K,A*31

$GNGGA,135858.00,5552.32206,N,03800.09220,E,1,07,1.39,137.2,M,12.9,M,,*41
$GNGSA,A,3,02,03,,,,,,,,,,,2.73,1.39,2.34,1*08
$GNGSA,A,3,72,87,71,88,80,,,,,,,,2.73,1.39,2.34,2*0E
$GNGSA,A,3,,,,,,,,,,,,,2.73,1.39,2.34,3*0B
$GPGSV,3,1,11,01,64,209,10,02,39,180,18,03,65,282,18,04,24,225,08,0*68
$GPGSV,3,2,11,12,08,018,,17,27,288,11,19,21,317,,25,08,049,,0*6B
$GPGSV,3,3,11,28,43,090,,31,37,129,09,32,26,060,09,0*5E
$GLGSV,3,1,10,65,27,253,,71,37,059,24,72,81,317,11,73,25,074,13,0*7B
$GLGSV,3,2,10,74,07,116,,80,20,017,13,81,04,340,,86,09,176,,0*78
$GLGSV,3,3,10,87,47,202,20,88,47,308,30,0*7D
$GAGSV,1,1,00,0*74
$GNGLL,5552.32206,N,03800.09220,E,135858.00,A,A*75

$GNRMC,135859.00,A,5552.32191,N,03800.09189,E,0.444,,120625,,,A,V*1C
$GNVTG,,T,,M,0.444,N,0.822,K,A*31

$GNGGA,135859.00,5552.32191,N,03800.09189,E,1,09,1.20,137.5,M,12.9,M,,*4C
$GNGSA,A,3,01,02,03,31,,,,,,,,,2.57,1.20,2.27,1*07
$GNGSA,A,3,72,87,71,88,80,,,,,,,,2.57,1.20,2.27,2*02
$GNGSA,A,3,,,,,,,,,,,,,2.57,1.20,2.27,3*07
$GPGSV,3,1,11,01,64,209,12,02,39,180,19,03,65,282,18,04,24,225,07,0*64
$GPGSV,3,2,11,12,08,018,,17,27,288,11,19,21,317,,25,08,049,,0*6B
$GPGSV,3,3,11,28,43,090,,31,37,129,09,32,26,060,10,0*56
$GLGSV,3,1,10,65,27,253,,71,37,059,26,72,81,317,18,73,25,074,15,0*76
$GLGSV,3,2,10,74,07,116,,80,20,017,11,81,04,340,,86,09,176,,0*7A
$GLGSV,3,3,10,87,47,202,19,88,47,308,28,0*7E
$GAGSV,1,1,00,0*74
$GNGLL,5552.32191,N,03800.09189,E,135859.00,A,A*79

$GNRMC,135900.00,A,5552.32185,N,03800.09163,E,0.392,,120625,,,A,V*1C
$GNVTG,,T,,M,0.392,N,0.727,K,A*37
$GNGGA,135900.00,5552.32185,N,03800.09163,E,1,10,1.14,137.8,M,12.9,M,,*42
$GNGSA,A,3,01,02,32,03,31,,,,,,,,2.53,1.14,2.26,1*04

$GNGSA,A,3,72,87,71,88,80,,,,,,,,2.53,1.14,2.26,2*00
$GNGSA,A,3,,,,,,,,,,,,,2.53,1.14,2.26,3*05
$GPGSV,3,1,11,01,64,209,14,02,39,180,21,03,65,282,17,04,24,225,07,0*66
$GPGSV,3,2,11,12,08,018,,17,27,288,09,19,21,317,,25,08,049,,0*62
$GPGSV,3,3,11,28,43,090,,31,37,129,11,32,26,060,12,0*5D
$GLGSV,3,1,10,65,27,253,,71,37,059,25,72,81,317,11,73,25,074,17,0*7E
$GLGSV,3,2,10,74,07,116,,80,20,016,09,81,04,340,,86,09,176,,0*72
$GLGSV,3,3,10,87,47,202,19,88,47,308,30,0*77
$GAGSV,1,1,00,0*74
$GNGLL,5552.32185,N,03800.09163,E,135900.00,A,A*75

$GNRMC,135901.00,A,5552.32177,N,03800.09169,E,0.276,,120625,,,A,V*11
$GNVTG,,T,,M,0.276,N,0.511,K,A*3B

$GNGGA,135901.00,5552.32177,N,03800.09169,E,1,10,1.14,137.7,M,12.9,M,,*4B
$GNGSA,A,3,01,02,32,03,31,,,,,,,,2.53,1.14,2.26,1*04
$GNGSA,A,3,72,87,71,88,80,,,,,,,,2.53,1.14,2.26,2*00
$GNGSA,A,3,,,,,,,,,,,,,2.53,1.14,2.26,3*05
$GPGSV,3,1,11,01,64,209,17,02,39,180,22,03,65,282,16,04,24,225,07,0*67
$GPGSV,3,2,11,12,08,018,,17,27,288,08,19,21,317,,25,08,049,,0*63
$GPGSV,3,3,11,28,43,090,,31,37,129,11,32,26,060,12,0*5D
$GLGSV,3,1,10,65,27,253,,71,37,059,25,72,81,317,11,73,25,074,15,0*7C
$GLGSV,3,2,10,74,07,116,,80,20,016,09,81,04,340,,86,09,176,,0*72
$GLGSV,3,3,10,87,47,202,15,88,47,308,32,0*79
$GAGSV,1,1,00,0*74

$GNGLL,5552.32177,N,03800.09169,E,135901.00,A,A*73

$GNRMC,135902.00,A,5552.32174,N,03800.09189,E,0.300,,120625,,,A,V*1F
$GNVTG,,T,,M,0.300,N,0.556,K,A*38
$GNGGA,135902.00,5552.32174,N,03800.09189,E,1,10,1.14,137.7,M,12.9,M,,*45
$GNGSA,A,3,01,02,32,03,31,,,,,,,,2.53,1.14,2.26,1*04

$GNGSA,A,3,72,87,71,88,80,,,,,,,,2.53,1.14,2.26,2*00
$GNGSA,A,3,,,,,,,,,,,,,2.53,1.14,2.26,3*05
$GPGSV,3,1,11,01,64,209,19,02,39,180,21,03,65,282,17,04,24,225,08,0*64
$GPGSV,3,2,11,12,08,018,,17,27,288,08,19,21,317,,25,08,049,,0*63
$GPGSV,3,3,11,28,43,090,,31,37,129,11,32,26,060,13,0*5C
$GLGSV,3,1,10,65,27,253,22,71,37,059,25,72,81,317,11,73,25,074,11,0*78
$GLGSV,3,2,10,74,07,116,,80,20,016,09,81,04,340,,86,09,176,,0*72
$GLGSV,3,3,10,87,47,202,19,88,47,308,33,0*74
$GAGSV,1,1,00,0*74
$GNGLL,5552.32174,N,03800.09189,E,135902.00,A,A*7D

$GNRMC,135903.00,A,5552.32192,N,03800.09168,E,0.043,,120625,,,A,V*1D
$GNVTG,,T,,M,0.043,N,0.080,K,A*32

$GNGGA,135903.00,5552.32192,N,03800.09168,E,1,10,1.14,137.7,M,12.9,M,,*43
$GNGSA,A,3,01,02,32,03,31,,,,,,,,2.53,1.14,2.26,1*04
$GNGSA,A,3,72,87,71,88,80,,,,,,,,2.53,1.14,2.26,2*00
$GNGSA,A,3,,,,,,,,,,,,,2.53,1.14,2.26,3*05
$GPGSV,3,1,11,01,64,209,20,02,39,180,20,03,65,282,20,04,24,225,08,0*6B
$GPGSV,3,2,11,12,08,018,,17,27,288,08,19,21,317,,25,08,049,,0*63
$GPGSV,3,3,11,28,43,090,,31,37,129,11,32,26,060,14,0*5B
$GLGSV,3,1,10,65,27,253,19,71,37,059,25,72,81,317,18,73,25,074,09,0*70
$GLGSV,3,2,10,74,07,116,,80,20,016,15,81,04,340,,86,09,176,,0*7F
$GLGSV,3,3,10,87,47,202,23,88,47,308,33,0*7D
$GAGSV,1,1,00,0*74
$GNGLL,5552.32192,N,03800.09168,E,135903.00,A,A*7B

$GNRMC,135904.00,A,5552.32208,N,03800.09155,E,0.050,,120625,,,A,V*16
$GNVTG,,T,,M,0.050,N,0.093,K,A*32

$GNGGA,135904.00,5552.32208,N,03800.09155,E,1,10,1.14,137.9,M,12.9,M,,*44
$GNGSA,A,3,01,02,32,03,31,,,,,,,,2.53,1.14,2.26,1*04
$GNGSA,A,3,72,87,71,88,80,,,,,,,,2.53,1.14,2.26,2*00
$GNGSA,A,3,,,,,,,,,,,,,2.53,1.14,2.26,3*05
$GPGSV,3,1,11,01,64,209,19,02,39,180,19,03,65,282,20,04,24,225,07,0*64
$GPGSV,3,2,11,12,08,018,,17,27,288,08,19,21,317,,25,08,049,,0*63
$GPGSV,3,3,11,28,43,090,,31,37,129,11,32,26,060,16,0*59
$GLGSV,3,1,10,65,27,253,16,71,37,059,25,72,81,317,18,73,25,074,,0*76
$GLGSV,3,2,10,74,07,116,,80,20,016,15,81,04,340,,86,09,176,,0*7F
$GLGSV,3,3,10,87,47,202,26,88,47,308,31,0*7A
$GAGSV,1,1,00,0*74
$GNGLL,5552.32208,N,03800.09155,E,135904.00,A,A*72

$GNRMC,135905.00,A,5552.32207,N,03800.09142,E,0.159,,120625,,,A,V*16
$GNVTG,,T,,M,0.159,N,0.295,K,A*3E

$GNGGA,135905.00,5552.32207,N,03800.09142,E,1,10,1.14,137.8,M,12.9,M,,*4D
$GNGSA,A,3,01,02,32,03,31,,,,,,,,2.53,1.14,2.26,1*04
$GNGSA,A,3,72,87,71,88,80,,,,,,,,2.53,1.14,2.26,2*00
$GNGSA,A,3,,,,,,,,,,,,,2.53,1.14,2.26,3*05
$GPGSV,3,1,11,01,64,209,17,02,39,180,16,03,65,282,18,04,24,225,07,0*6E
$GPGSV,3,2,11,12,08,018,,17,27,288,08,19,21,317,,25,08,049,,0*63
$GPGSV,3,3,11,28,43,090,,31,37,129,11,32,26,060,17,0*58
$GLGSV,3,1,10,65,27,253,14,71,37,059,24,72,81,317,19,73,25,074,,0*74
$GLGSV,3,2,10,74,07,116,,80,20,016,08,81,04,340,,86,09,176,,0*73
$GLGSV,3,3,10,87,47,202,25,88,47,308,31,0*79
$GAGSV,1,1,00,0*74
$GNGLL,5552.32207,N,03800.09142,E,135905.00,A,A*7A

$GNRMC,135906.00,A,5552.32202,N,03800.09194,E,0.537,,120625,,,A,V*17

$GNVTG,,T,,M,0.537,N,0.994,K,A*38
$GNGGA,135906.00,5552.32202,N,03800.09194,E,1,10,1.14,138.0,M,12.9,M,,*47
$GNGSA,A,3,01,02,32,03,31,,,,,,,,2.53,1.14,2.26,1*04
$GNGSA,A,3,72,87,71,88,80,,,,,,,,2.53,1.14,2.26,2*00
$GNGSA,A,3,,,,,,,,,,,,,2.53,1.14,2.26,3*05
$GPGSV,3,1,11,01,64,209,13,02,39,180,14,03,65,282,15,04,24,225,,0*62
$GPGSV,3,2,11,12,08,018,,17,27,288,08,19,21,317,,25,08,049,,0*63
$GPGSV,3,3,11,28,43,090,,31,37,129,11,32,26,060,18,0*57
$GLGSV,3,1,10,65,27,253,14,71,37,059,22,72,81,317,22,73,25,074,,0*7A
$GLGSV,3,2,10,74,07,116,,80,20,016,08,81,04,340,,86,08,176,,0*72
$GLGSV,3,3,10,87,47,202,25,88,47,308,30,0*78
$GAGSV,1,1,00,0*74
$GNGLL,5552.32202,N,03800.09194,E,135906.00,A,A*77

$GNRMC,135907.00,A,5552.32215,N,03800.09231,E,0.679,,120625,,,A,V*15
$GNVTG,,T,,M,0.679,N,1.257,K,A*34
$GNGGA,135907.00,5552.32215,N,03800.09231,E,1,10,1.14,137.8,M,12.9,M,,*4B

$GNGSA,A,3,01,02,32,03,31,,,,,,,,2.53,1.14,2.26,1*04
$GNGSA,A,3,72,87,71,88,80,,,,,,,,2.53,1.14,2.26,2*00
$GNGSA,A,3,,,,,,,,,,,,,2.53,1.14,2.26,3*05
$GPGSV,3,1,11,01,64,209,11,02,39,180,14,03,65,282,15,04,24,225,,0*60
$GPGSV,3,2,11,12,08,018,,17,27,288,08,19,21,317,,25,08,049,,0*63
$GPGSV,3,3,11,28,43,090,,31,37,129,22,32,26,060,16,0*59
$GLGSV,3,1,10,65,27,253,17,71,37,059,19,72,81,317,23,73,25,074,,0*70
$GLGSV,3,2,10,74,07,116,,80,20,016,08,81,04,340,,86,08,176,,0*72
$GLGSV,3,3,10,87,46,202,24,88,47,308,29,0*70
$GAGSV,1,1,00,0*74
$GNGLL,5552.32215,N,03800.09231,E,135907.00,A,A*7C

$GNRMC,135908.00,A,5552.32216,N,03800.09239,E,0.307,,120625,,,A,V*1D
$GNVTG,,T,,M,0.307,N,0.569,K,A*33
$GNGGA,135908.00,5552.32216,N,03800.09239,E,1,10,1.14,137.9,M,12.9,M,,*4E
$GNGSA,A,3,01,02,32,03,31,,,,,,,,2.53,1.14,2.26,1*04
$GNGSA,A,3,72,87,71,88,80,,,,,,,,2.53,1.14,2.26,2*00
$GNGSA,A,3,,,,,,,,,,,,,2.53,1.14,2.26,3*05

$GPGSV,3,1,11,01,64,209,11,02,39,180,14,03,65,282,16,04,24,225,,0*63
$GPGSV,3,2,11,12,08,018,,17,27,288,,19,21,317,,25,08,049,,0*6B
$GPGSV,3,3,11,28,43,090,,31,37,129,21,32,26,060,14,0*58
$GLGSV,3,1,10,65,27,253,18,71,37,059,17,72,81,317,22,73,25,074,,0*70
$GLGSV,3,2,10,74,07,116,,80,20,016,08,81,04,340,,86,08,176,,0*72
$GLGSV,3,3,10,87,46,202,22,88,48,307,28,0*77
$GAGSV,1,1,00,0*74
$GNGLL,5552.32216,N,03800.09239,E,135908.00,A,A*78

$GNRMC,135909.00,A,5552.32199,N,03800.09239,E,0.322,,120625,,,A,V*1F
$GNVTG,,T,,M,0.322,N,0.597,K,A*35

$GNGGA,135909.00,5552.32199,N,03800.09239,E,1,10,1.14,137.9,M,12.9,M,,*4B
$GNGSA,A,3,01,02,32,03,31,,,,,,,,2.53,1.14,2.26,1*04
$GNGSA,A,3,72,87,71,88,80,,,,,,,,2.53,1.14,2.26,2*00
$GNGSA,A,3,,,,,,,,,,,,,2.53,1.14,2.26,3*05
$GPGSV,3,1,11,01,64,208,11,02,39,180,14,03,65,282,16,04,24,225,,0*62
$GPGSV,3,2,11,12,08,018,,17,27,288,,19,21,317,,25,08,049,,0*6B
$GPGSV,3,3,11,28,43,090,,31,37,129,22,32,26,060,16,0*59
$GLGSV,3,1,10,65,27,253,18,71,37,059,17,72,81,317,21,73,25,074,,0*73
$GLGSV,3,2,10,74,07,116,,80,20,016,16,81,04,340,,86,08,176,,0*7D
$GLGSV,3,3,10,87,46,202,20,88,48,307,27,0*7A
$GAGSV,1,1,00,0*74
$GNGLL,5552.32199,N,03800.09239,E,135909.00,A,A*7D

$GNRMC,135910.00,A,5552.32173,N,03800.09260,E,0.542,,120625,,,A,V*1F
$GNVTG,,T,,M,0.542,N,1.004,K,A*3B

$GNGGA,135910.00,5552.32173,N,03800.09260,E,1,10,1.14,138.1,M,12.9,M,,*4C
$GNGSA,A,3,01,02,32,03,31,,,,,,,,2.53,1.14,2.26,1*04
$GNGSA,A,3,72,87,71,88,80,,,,,,,,2.53,1.14,2.26,2*00
$GNGSA,A,3,,,,,,,,,,,,,2.53,1.14,2.26,3*05
$GPGSV,3,1,11,01,64,208,13,02,38,180,14,03,65,282,18,04,24,225,,0*6F
$GPGSV,3,2,11,12,08,018,,17,27,288,,19,21,317,,25,08,049,,0*6B
$GPGSV,3,3,11,28,43,090,,31,37,129,21,32,26,060,16,0*5A
$GLGSV,3,1,10,65,27,253,18,71,37,059,15,72,81,317,20,73,25,074,,0*70
$GLGSV,3,2,10,74,07,116,,80,20,016,16,81,04,340,,86,08,176,,0*7D
$GLGSV,3,3,10,87,46,202,18,88,48,307,24,0*72
$GAGSV,1,1,00,0*74
$GNGLL,5552.32173,N,03800.09260,E,135910.00,A,A*7D

$GNRMC,135911.00,A,5552.32164,N,03800.09284,E,0.530,,120625,,,A,V*17
$GNVTG,,T,,M,0.530,N,0.981,K,A*3B

$GNGGA,135911.00,5552.32164,N,03800.09284,E,1,10,1.14,137.7,M,12.9,M,,*48
$GNGSA,A,3,01,02,32,03,31,,,,,,,,2.53,1.14,2.25,1*07
$GNGSA,A,3,72,87,71,88,80,,,,,,,,2.53,1.14,2.25,2*03
$GNGSA,A,3,,,,,,,,,,,,,2.53,1.14,2.25,3*06
$GPGSV,3,1,11,01,64,208,15,02,38,180,14,03,65,282,21,04,24,225,,0*63
$GPGSV,3,2,11,12,08,018,,17,27,288,,19,21,317,,25,08,049,,0*6B
$GPGSV,3,3,11,28,43,090,,31,37,129,20,32,26,060,15,0*58
$GLGSV,3,1,10,65,27,253,17,71,37,059,16,72,81,317,17,73,25,074,,0*78
$GLGSV,3,2,10,74,07,116,,80,20,016,16,81,04,340,,86,08,176,,0*7D
$GLGSV,3,3,10,87,46,202,16,88,48,307,23,0*7B
$GAGSV,1,1,00,0*74
$GNGLL,5552.32164,N,03800.09284,E,135911.00,A,A*70

$GNRMC,135912.00,A,5552.32175,N,03800.09341,E,0.479,,120625,,,A,V*10
$GNVTG,,T,,M,0.479,N,0.888,K,A*3F

$GNGGA,135912.00,5552.32175,N,03800.09341,E,1,10,1.14,137.8,M,12.9,M,,*4C
$GNGSA,A,3,01,02,32,03,31,,,,,,,,2.53,1.14,2.25,1*07
$GNGSA,A,3,72,87,71,88,80,,,,,,,,2.53,1.14,2.25,2*03
$GNGSA,A,3,,,,,,,,,,,,,2.53,1.14,2.25,3*06
$GPGSV,3,1,11,01,64,208,14,02,38,180,14,03,65,282,22,04,25,225,,0*60
$GPGSV,3,2,11,12,08,018,,17,27,288,,19,21,317,,25,08,049,,0*6B
$GPGSV,3,3,11,28,43,090,,31,37,129,19,32,26,060,11,0*56
$GLGSV,3,1,10,65,27,253,15,71,37,059,17,72,81,317,14,73,25,074,,0*78
$GLGSV,3,2,10,74,07,116,,80,20,016,22,81,04,340,,86,08,176,,0*7A
$GLGSV,3,3,10,87,46,202,11,88,48,307,27,0*78
$GAGSV,1,1,00,0*74
$GNGLL,5552.32175,N,03800.09341,E,135912.00,A,A*7B

$GNRMC,135913.00,A,5552.32112,N,03800.09319,E,0.994,,120625,,,A,V*13
$GNVTG,,T,,M,0.994,N,1.841,K,A*35

$GNGGA,135913.00,5552.32112,N,03800.09319,E,1,09,1.24,138.0,M,12.9,M,,*4D
$GNGSA,A,3,01,02,32,03,31,,,,,,,,2.68,1.24,2.37,1*0F
$GNGSA,A,3,72,71,88,80,,,,,,,,,2.68,1.24,2.37,2*04
$GNGSA,A,3,,,,,,,,,,,,,2.68,1.24,2.37,3*0E
$GPGSV,3,1,11,01,64,208,13,02,38,180,13,03,65,282,22,04,25,225,,0*60
$GPGSV,3,2,11,12,08,018,,17,27,288,,19,21,317,,25,08,049,,0*6B
$GPGSV,3,3,11,28,43,090,,31,37,129,18,32,26,060,15,0*53
$GLGSV,3,1,10,65,27,253,,71,37,059,29,72,81,317,11,73,25,074,,0*74
$GLGSV,3,2,10,74,07,116,,80,20,016,23,81,04,340,,86,08,176,,0*7B
$GLGSV,3,3,10,87,46,202,09,88,48,307,33,0*74
$GAGSV,1,1,00,0*74
$GNGLL,5552.32112,N,03800.09319,E,135913.00,A,A*76

$GNRMC,135914.00,A,5552.32108,N,03800.09341,E,0.786,,120625,,,A,V*1F
$GNVTG,,T,,M,0.786,N,1.455,K,A*31

$GNGGA,135914.00,5552.32108,N,03800.09341,E,1,09,1.24,138.0,M,12.9,M,,*4C
$GNGSA,A,3,01,02,32,03,31,,,,,,,,2.68,1.24,2.37,1*0F
$GNGSA,A,3,72,71,88,80,,,,,,,,,2.68,1.24,2.37,2*04
$GNGSA,A,3,,,,,,,,,,,,,2.68,1.24,2.37,3*0E
$GPGSV,3,1,11,01,64,208,13,02,38,180,09,03,65,282,20,04,25,225,,0*69
$GPGSV,3,2,11,12,08,018,,17,27,288,,19,21,317,,25,08,049,,0*6B
$GPGSV,3,3,11,28,43,090,,31,37,129,17,32,26,060,14,0*5D
$GLGSV,3,1,10,65,27,253,,71,37,059,16,72,81,317,12,73,25,074,,0*7B
$GLGSV,3,2,10,74,07,116,,80,20,016,20,81,04,340,,86,08,176,,0*78
$GLGSV,3,3,10,87,46,202,08,88,48,307,26,0*71
$GAGSV,1,1,00,0*74
$GNGLL,5552.32108,N,03800.09341,E,135914.00,A,A*77

$GNRMC,135915.00,A,5552.32108,N,03800.09354,E,0.484,,120625,,,A,V*1B

$GNVTG,,T,,M,0.484,N,0.897,K,A*33
$GNGGA,135915.00,5552.32108,N,03800.09354,E,1,10,1.14,138.5,M,12.9,M,,*47
$GNGSA,A,3,01,02,32,03,31,,,,,,,,2.52,1.14,2.25,1*06
$GNGSA,A,3,72,87,71,88,80,,,,,,,,2.52,1.14,2.25,2*02
$GNGSA,A,3,,,,,,,,,,,,,2.52,1.14,2.25,3*07
$GPGSV,3,1,11,01,64,208,11,02,38,180,12,03,65,282,19,04,25,225,,0*6B
$GPGSV,3,2,11,12,08,018,,17,27,288,,19,21,317,,25,08,049,,0*6B
$GPGSV,3,3,11,28,43,090,,31,37,129,15,32,26,060,14,0*5F
$GLGSV,3,1,10,65,27,253,,71,37,059,16,72,81,317,12,73,25,074,,0*7B
$GLGSV,3,2,10,74,07,116,,80,20,016,18,81,04,340,,86,08,176,,0*73
$GLGSV,3,3,10,87,46,202,14,88,48,307,23,0*79
$GAGSV,1,1,00,0*74
$GNGLL,5552.32108,N,03800.09354,E,135915.00,A,A*72

$GNRMC,135916.00,A,5552.32180,N,03800.09345,E,0.632,,120625,,,A,V*17
$GNVTG,,T,,M,0.632,N,1.170,K,A*3D

$GNGGA,135916.00,5552.32180,N,03800.09345,E,1,09,1.14,139.1,M,12.9,M,,*49
$GNGSA,A,3,02,32,03,31,,,,,,,,,2.58,1.14,2.32,1*0B
$GNGSA,A,3,72,87,71,88,80,,,,,,,,2.58,1.14,2.32,2*0E
$GNGSA,A,3,,,,,,,,,,,,,2.58,1.14,2.32,3*0B
$GPGSV,3,1,11,01,64,208,10,02,38,180,08,03,65,282,19,04,25,225,,0*61
$GPGSV,3,2,11,12,08,018,,17,27,288,,19,21,317,,25,08,049,,0*6B
$GPGSV,3,3,11,28,43,090,,31,37,129,13,32,26,060,14,0*59
$GLGSV,3,1,10,65,27,253,,71,37,059,19,72,81,317,12,73,25,074,,0*74
$GLGSV,3,2,10,74,07,116,,80,20,016,18,81,04,340,,86,08,176,,0*73
$GLGSV,3,3,10,87,46,202,20,88,48,307,24,0*79
$GAGSV,1,1,00,0*74
$GNGLL,5552.32180,N,03800.09345,E,135916.00,A,A*71

$GNRMC,135917.00,A,5552.32174,N,03800.09315,E,0.415,,120625,,,A,V*1F
$GNVTG,,T,,M,0.415,N,0.768,K,A*34

$GNGGA,135917.00,5552.32174,N,03800.09315,E,1,09,1.14,139.5,M,12.9,M,,*42
$GNGSA,A,3,02,32,03,31,,,,,,,,,2.58,1.14,2.32,1*0B
$GNGSA,A,3,72,87,71,88,80,,,,,,,,2.58,1.14,2.32,2*0E
$GNGSA,A,3,,,,,,,,,,,,,2.58,1.14,2.32,3*0B
$GPGSV,3,1,11,01,64,208,09,02,38,180,11,03,65,282,19,04,25,225,,0*61
$GPGSV,3,2,11,12,08,018,,17,27,288,,19,21,317,,25,08,049,,0*6B
$GPGSV,3,3,11,28,43,090,,31,37,129,12,32,26,060,14,0*58
$GLGSV,3,1,10,65,27,253,,71,37,059,21,72,81,317,14,73,25,074,,0*79
$GLGSV,3,2,10,74,07,116,,80,20,016,14,81,04,340,,86,08,176,,0*7F
$GLGSV,3,3,10,87,46,202,22,88,48,307,23,0*7C
$GAGSV,1,1,00,0*74
$GNGLL,5552.32174,N,03800.09315,E,135917.00,A,A*7E

$GNRMC,135918.00,A,5552.32191,N,03800.09259,E,0.561,,120625,,,A,V*10
$GNVTG,,T,,M,0.561,N,1.039,K,A*34
$GNGGA,135918.00,5552.32191,N,03800.09259,E,1,08,1.20,139.9,M,12.9,M,,*45

$GNGSA,A,3,02,03,31,,,,,,,,,,2.62,1.20,2.32,1*04
$GNGSA,A,3,72,87,71,88,80,,,,,,,,2.62,1.20,2.32,2*00
$GNGSA,A,3,,,,,,,,,,,,,2.62,1.20,2.32,3*05
$GPGSV,3,1,11,01,64,208,09,02,38,180,15,03,65,282,18,04,25,225,,0*64
$GPGSV,3,2,11,12,08,018,,17,27,288,,19,21,317,,25,08,049,,0*6B
$GPGSV,3,3,11,28,43,090,,31,37,129,11,32,26,060,14,0*5B
$GLGSV,3,1,10,65,27,253,,71,37,059,22,72,81,317,14,73,25,074,,0*7A
$GLGSV,3,2,10,74,07,116,,80,20,016,14,81,04,340,,86,08,176,,0*7F
$GLGSV,3,3,10,87,46,202,21,88,48,307,24,0*78
$GAGSV,1,1,00,0*74
$GNGLL,5552.32191,N,03800.09259,E,135918.00,A,A*73

$GNRMC,135919.00,A,5552.32221,N,03800.09214,E,0.692,,120625,,,A,V*1F
$GNVTG,,T,,M,0.692,N,1.282,K,A*39

$GNGGA,135919.00,5552.32221,N,03800.09214,E,1,08,1.20,139.6,M,12.9,M,,*4A
$GNGSA,A,3,02,03,31,,,,,,,,,,2.62,1.20,2.32,1*04
$GNGSA,A,3,72,87,71,88,80,,,,,,,,2.62,1.20,2.32,2*00
$GNGSA,A,3,,,,,,,,,,,,,2.62,1.20,2.32,3*05
$GPGSV,3,1,11,01,64,208,09,02,38,180,15,03,65,282,18,04,25,225,,0*64
$GPGSV,3,2,11,12,08,018,,17,27,288,,19,21,317,,25,08,049,,0*6B
$GPGSV,3,3,11,28,43,090,,31,37,129,12,32,26,060,16,0*5A
$GLGSV,3,1,10,65,27,253,,71,37,059,21,72,81,317,12,73,25,074,,0*7F
$GLGSV,3,2,10,74,07,116,,80,20,016,15,81,04,340,,86,08,176,,0*7E
$GLGSV,3,3,10,87,46,202,22,88,48,307,25,0*7A
$GAGSV,1,1,00,0*74
$GNGLL,5552.32221,N,03800.09214,E,135919.00,A,A*73

$GNRMC,135920.00,A,5552.32220,N,03800.09169,E,0.663,,120625,,,A,V*13

$GNVTG,,T,,M,0.663,N,1.229,K,A*36
$GNGGA,135920.00,5552.32220,N,03800.09169,E,1,09,1.20,139.6,M,12.9,M,,*49
$GNGSA,A,3,01,02,03,31,,,,,,,,,2.55,1.20,2.26,1*04
$GNGSA,A,3,72,87,71,88,80,,,,,,,,2.55,1.20,2.26,2*01
$GNGSA,A,3,,,,,,,,,,,,,2.55,1.20,2.26,3*04
$GPGSV,3,1,11,01,64,208,14,02,38,180,08,03,65,282,19,04,25,225,,0*65
$GPGSV,3,2,11,12,08,017,,17,27,288,,19,21,317,,25,08,049,,0*64
$GPGSV,3,3,11,28,43,090,,31,37,129,10,32,26,060,15,0*5B
$GLGSV,3,1,10,65,27,253,,71,37,059,22,72,81,317,13,73,25,074,,0*7D
$GLGSV,3,2,10,74,07,116,,80,20,016,15,81,04,340,,86,08,176,,0*7E
$GLGSV,3,3,10,87,46,202,22,88,48,307,23,0*7C
$GAGSV,1,1,00,0*74
$GNGLL,5552.32220,N,03800.09169,E,135920.00,A,A*71

$GNRMC,135921.00,A,5552.32221,N,03800.09130,E,0.636,,120625,,,A,V*1F
$GNVTG,,T,,M,0.636,N,1.177,K,A*3E

