$GNTXT,01,01,02,u-blox AG - www.u-blox.com*4E
$GNTXT,01,01,02,HW UBX-M8030 00080000*60
$GNTXT,01,01,02,ROM CORE 3.01 (107888)*2B
$GNTXT,01,01,02,FWVER=SPG 3.01*46
$GNTXT,01,01,02,PROTVER=18.00*11
$GNTXT,01,01,02,GPS;GLO;GAL;BDS*77
$GNTXT,01,01,02,SBAS;IMES;QZSS*49
$GNTXT,01,01,02,GNSS OTP=GPS;GLO*37
$GNTXT,01,01,02,LLC=FFFFFFFF-FFFFFFFF-FFFFFFFF-FFFFFFFF-FFFFFFFD*2F
$GNTXT,01,01,02,ANTSUPERV=AC SD PDoS SR*3E
$GNTXT,01,01,02,ANTSTATUS=OK*25
$GNTXT,01,01,02,PF=3FF*4B

$GNRMC,134517.00,A,5552.32117,N,03800.08270,E,0.910,,120625,,,A,V*1C

$GNVTG,,T,,M,0.910,N,1.686,K,A*3C
$GNGGA,134517.00,5552.32117,N,03800.08270,E,1,11,0.96,132.2,M,12.9,M,,*47
$GNGSA,A,3,01,02,32,17,03,31,,,,,,,2.19,0.96,1.97,1*0E
$GNGSA,A,3,72,87,71,88,80,,,,,,,,2.19,0.96,1.97,2*0C
$GNGSA,A,3,,,,,,,,,,,,,2.19,0.96,1.97,3*09
$GPGSV,3,1,12,01,68,222,14,02,45,181,19,03,58,279,20,04,18,223,,0*61
$GPGSV,3,2,12,10,01,098,,12,07,023,,17,28,294,08,19,19,322,,0*6B
$GPGSV,3,3,12,25,06,054,,28,42,098,,31,32,133,19,32,31,060,19,0*6C

$GLGSV,3,1,11,65,21,248,,70,00,063,,71,44,055,22,72,77,276,19,0*7F
$GLGSV,3,2,11,73,20,081,,74,00,119,,79,00,338,,80,22,023,08,0*7A
$GLGSV,3,3,11,86,16,175,,87,54,206,16,88,43,315,15,0*4A

$GAGSV,1,1,00,0*74
$GNGLL,5552.32117,N,03800.08270,E,134517.00,A,A*75

$GNRMC,134518.00,A,5552.32102,N,03800.08311,E,0.591,,120625,,,A,V*14
$GNVTG,,T,,M,0.591,N,1.094,K,A*3C

$GNGGA,134518.00,5552.32102,N,03800.08311,E,1,09,1.27,131.7,M,12.9,M,,*4E
$GNGSA,A,3,01,02,32,03,31,,,,,,,,3.41,1.27,3.16,1*04
$GNGSA,A,3,72,87,71,88,,,,,,,,,3.41,1.27,3.16,2*08
$GNGSA,A,3,,,,,,,,,,,,,3.41,1.27,3.16,3*05
$GPGSV,3,1,12,01,68,222,15,02,45,181,19,03,58,279,20,04,18,223,,0*60
$GPGSV,3,2,12,10,01,098,,12,07,023,,17,28,294,07,19,19,322,,0*64

$GPGSV,3,3,12,25,06,054,,28,42,098,,31,32,133,16,32,31,060,20,0*69
$GLGSV,3,1,11,65,21,248,,70,00,063,,71,44,055,22,72,77,276,20,0*75
$GLGSV,3,2,11,73,20,081,,74,00,119,,79,00,338,,80,22,023,08,0*7A
$GLGSV,3,3,11,86,16,175,,87,54,206,16,88,43,315,20,0*4C
$GAGSV,1,1,00,0*74
$GNGLL,5552.32102,N,03800.08311,E,134518.00,A,A*78

$GNRMC,134519.00,A,5552.32100,N,03800.08349,E,0.404,,120625,,,A,V*17
$GNVTG,,T,,M,0.404,N,0.749,K,A*37

$GNGGA,134519.00,5552.32100,N,03800.08349,E,1,10,1.19,131.3,M,12.9,M,,*41
$GNGSA,A,3,01,02,32,03,31,,,,,,,,2.87,1.19,2.61,1*03
$GNGSA,A,3,72,87,71,88,80,,,,,,,,2.87,1.19,2.61,2*07
$GNGSA,A,3,,,,,,,,,,,,,2.87,1.19,2.61,3*02
$GPGSV,3,1,12,01,68,222,14,02,45,181,17,03,58,279,19,04,18,223,,0*65
$GPGSV,3,2,12,10,01,098,,12,07,023,,17,28,294,06,19,19,322,,0*65
$GPGSV,3,3,12,25,06,054,,28,42,098,,31,32,133,13,32,31,060,20,0*6C

$GLGSV,3,1,11,65,21,248,,70,00,063,,71,44,055,22,72,77,276,20,0*75
$GLGSV,3,2,11,73,20,081,,74,00,119,,79,00,338,,80,22,023,18,0*7B
$GLGSV,3,3,11,86,16,175,,87,54,206,17,88,43,315,22,0*4F
$GAGSV,1,1,00,0*74
$GNGLL,5552.32100,N,03800.08349,E,134519.00,A,A*76

$GNRMC,134520.00,A,5552.32115,N,03800.08360,E,0.405,,120625,,,A,V*13

$GNVTG,,T,,M,0.405,N,0.751,K,A*3F
$GNGGA,134520.00,5552.32115,N,03800.08360,E,1,11,0.96,131.7,M,12.9,M,,*47
$GNGSA,A,3,01,02,32,17,03,31,,,,,,,2.19,0.96,1.97,1*0E
$GNGSA,A,3,72,87,71,88,80,,,,,,,,2.19,0.96,1.97,2*0C
$GNGSA,A,3,,,,,,,,,,,,,2.19,0.96,1.97,3*09
$GPGSV,3,1,12,01,68,222,14,02,45,181,15,03,58,279,18,04,18,223,,0*66
$GPGSV,3,2,12,10,01,098,,12,07,023,,17,28,294,08,19,19,322,,0*6B

$GPGSV,3,3,12,25,06,054,,28,42,098,,31,32,133,13,32,31,060,18,0*67
$GLGSV,3,1,11,65,21,248,,70,00,063,,71,44,055,21,72,77,276,21,0*77
$GLGSV,3,2,11,73,20,081,,74,00,119,,79,00,338,,80,22,023,18,0*7B
$GLGSV,3,3,11,86,16,175,,87,54,206,21,88,43,315,22,0*4A
$GAGSV,1,1,00,0*74
$GNGLL,5552.32115,N,03800.08360,E,134520.00,A,A*73

$GNRMC,134521.00,A,5552.32120,N,03800.08421,E,0.072,,120625,,,A,V*12

$GNVTG,,T,,M,0.072,N,0.134,K,A*3E
$GNGGA,134521.00,5552.32120,N,03800.08421,E,1,11,0.96,131.4,M,12.9,M,,*41
$GNGSA,A,3,01,02,32,17,03,31,,,,,,,2.19,0.96,1.97,1*0E
$GNGSA,A,3,72,87,71,88,80,,,,,,,,2.19,0.96,1.97,2*0C
$GNGSA,A,3,,,,,,,,,,,,,2.19,0.96,1.97,3*09
$GPGSV,3,1,12,01,68,222,15,02,45,181,16,03,58,279,18,04,18,223,,0*64
$GPGSV,3,2,12,10,01,098,,12,07,023,,17,28,294,08,19,19,322,,0*6B

$GPGSV,3,3,12,25,06,054,,28,42,098,,31,32,133,15,32,31,060,19,0*60
$GLGSV,3,1,11,65,21,248,,70,00,063,,71,44,055,20,72,77,276,20,0*77
$GLGSV,3,2,11,73,20,081,,74,00,119,,79,00,338,,80,22,023,18,0*7B
$GLGSV,3,3,11,86,16,175,,87,54,206,22,88,43,315,20,0*4B

$GAGSV,1,1,00,0*74
$GNGLL,5552.32120,N,03800.08421,E,134521.00,A,A*76

$GNRMC,134522.00,A,5552.32152,N,03800.08479,E,0.440,,120625,,,A,V*1C
$GNVTG,,T,,M,0.440,N,0.815,K,A*31
$GNGGA,134522.00,5552.32152,N,03800.08479,E,1,11,0.96,131.2,M,12.9,M,,*4C

$GNGSA,A,3,01,02,32,17,03,31,,,,,,,2.19,0.96,1.97,1*0E
$GNGSA,A,3,72,87,71,88,80,,,,,,,,2.19,0.96,1.97,2*0C
$GNGSA,A,3,,,,,,,,,,,,,2.19,0.96,1.97,3*09
$GPGSV,3,1,12,01,68,222,16,02,45,181,18,03,58,279,18,04,18,223,,0*69
$GPGSV,3,2,12,10,01,098,,12,07,023,,17,28,294,08,19,19,322,,0*6B
$GPGSV,3,3,12,25,06,054,,28,42,098,,31,32,133,18,32,31,060,17,0*63
$GLGSV,3,1,11,65,21,248,,70,00,063,,71,44,055,19,72,77,276,21,0*7C
$GLGSV,3,2,11,73,20,081,,74,00,119,,79,00,338,,80,22,023,18,0*7B
$GLGSV,3,3,11,86,16,175,,87,54,206,21,88,43,315,17,0*4C
$GAGSV,1,1,00,0*74
$GNGLL,5552.32152,N,03800.08479,E,134522.00,A,A*7D

$GNRMC,134523.00,A,5552.32149,N,03800.08489,E,0.195,,120625,,,A,V*15
$GNVTG,,T,,M,0.195,N,0.361,K,A*34
$GNGGA,134523.00,5552.32149,N,03800.08489,E,1,10,1.19,131.1,M,12.9,M,,*4C
$GNGSA,A,3,01,02,32,03,31,,,,,,,,2.87,1.19,2.61,1*03
$GNGSA,A,3,72,87,71,88,80,,,,,,,,2.87,1.19,2.61,2*07
$GNGSA,A,3,,,,,,,,,,,,,2.87,1.19,2.61,3*02

$GPGSV,3,1,12,01,68,222,17,02,45,181,18,03,58,279,19,04,18,223,,0*69
$GPGSV,3,2,12,10,01,098,,12,07,023,,17,28,294,08,19,19,322,,0*6B
$GPGSV,3,3,12,25,06,054,,28,42,098,,31,32,133,19,32,31,060,14,0*61
$GLGSV,3,1,11,65,21,248,,70,00,063,,71,44,055,16,72,77,276,21,0*73
$GLGSV,3,2,11,73,20,081,22,74,00,119,,79,00,338,,80,22,023,13,0*70
$GLGSV,3,3,11,86,16,175,,87,54,206,20,88,43,315,17,0*4D
$GAGSV,1,1,00,0*74
$GNGLL,5552.32149,N,03800.08489,E,134523.00,A,A*79

$GNRMC,134524.00,A,5552.32125,N,03800.08518,E,0.396,,120625,,,A,V*10
$GNVTG,,T,,M,0.396,N,0.733,K,A*36
$GNGGA,134524.00,5552.32125,N,03800.08518,E,1,10,1.19,130.8,M,12.9,M,,*40

$GNGSA,A,3,01,02,32,03,31,,,,,,,,2.87,1.19,2.61,1*03
$GNGSA,A,3,72,87,71,88,80,,,,,,,,2.87,1.19,2.61,2*07
$GNGSA,A,3,,,,,,,,,,,,,2.87,1.19,2.61,3*02
$GPGSV,3,1,12,01,68,222,17,02,45,181,17,03,58,279,21,04,18,223,,0*6D
$GPGSV,3,2,12,10,01,098,,12,07,023,,17,28,294,09,19,19,322,,0*6A
$GPGSV,3,3,12,25,06,054,,28,42,098,,31,32,133,20,32,31,060,14,0*6B
$GLGSV,3,1,11,65,21,248,,70,00,063,,71,44,055,17,72,77,276,22,0*71
$GLGSV,3,2,11,73,20,081,20,74,00,119,,79,00,338,,80,22,023,13,0*72
$GLGSV,3,3,11,86,16,175,,87,54,206,18,88,43,315,21,0*43
$GAGSV,1,1,00,0*74
$GNGLL,5552.32125,N,03800.08518,E,134524.00,A,A*7D

$GNRMC,134525.00,A,5552.32171,N,03800.08552,E,0.360,,120625,,,A,V*17
$GNVTG,,T,,M,0.360,N,0.666,K,A*3E

$GNGGA,134525.00,5552.32171,N,03800.08552,E,1,10,1.19,130.3,M,12.9,M,,*45
$GNGSA,A,3,01,02,32,03,31,,,,,,,,2.87,1.19,2.61,1*03
$GNGSA,A,3,72,87,71,88,80,,,,,,,,2.87,1.19,2.61,2*07
$GNGSA,A,3,,,,,,,,,,,,,2.87,1.19,2.61,3*02
$GPGSV,3,1,12,01,68,222,17,02,45,181,16,03,58,279,21,04,18,223,,0*6C
$GPGSV,3,2,12,10,01,098,,12,07,023,,17,28,294,09,19,19,322,,0*6A
$GPGSV,3,3,12,25,06,054,,28,42,098,,31,32,133,19,32,31,060,14,0*61
$GLGSV,3,1,11,65,21,248,,70,00,063,,71,44,055,17,72,77,276,23,0*70
$GLGSV,3,2,11,73,20,081,18,74,00,119,,79,00,338,,80,22,023,14,0*7E
$GLGSV,3,3,11,86,16,175,,87,54,206,19,88,43,315,21,0*42
$GAGSV,1,1,00,0*74
$GNGLL,5552.32171,N,03800.08552,E,134525.00,A,A*73

$GNRMC,134526.00,A,5552.32212,N,03800.08609,E,0.759,,120625,,,A,V*11
$GNVTG,,T,,M,0.759,N,1.405,K,A*36
$GNGGA,134526.00,5552.32212,N,03800.08609,E,1,11,0.96,129.8,M,12.9,M,,*49
$GNGSA,A,3,01,02,32,17,03,31,,,,,,,2.19,0.96,1.97,1*0E

$GNGSA,A,3,72,87,71,88,80,,,,,,,,2.19,0.96,1.97,2*0C
$GNGSA,A,3,,,,,,,,,,,,,2.19,0.96,1.97,3*09
$GPGSV,3,1,12,01,68,222,16,02,45,181,13,03,58,279,20,04,18,223,,0*69
$GPGSV,3,2,12,10,01,098,,12,07,023,,17,28,294,11,19,19,322,,0*63
$GPGSV,3,3,12,25,06,054,,28,42,098,,31,32,133,18,32,31,060,13,0*67
$GLGSV,3,1,11,65,21,248,,70,00,063,,71,44,055,18,72,77,276,24,0*78
$GLGSV,3,2,11,73,20,081,16,74,00,119,,79,00,338,,80,22,023,14,0*70
$GLGSV,3,3,11,86,16,175,,87,54,206,19,88,43,315,20,0*43
$GAGSV,1,1,00,0*74
$GNGLL,5552.32212,N,03800.08609,E,134526.00,A,A*7B

$GNRMC,134527.00,A,5552.32153,N,03800.08600,E,0.673,,120625,,,A,V*16
$GNVTG,,T,,M,0.673,N,1.246,K,A*3E

$GNGGA,134527.00,5552.32153,N,03800.08600,E,1,11,0.96,129.0,M,12.9,M,,*4F
$GNGSA,A,3,01,02,32,17,03,31,,,,,,,2.19,0.96,1.97,1*0E
$GNGSA,A,3,72,87,71,88,80,,,,,,,,2.19,0.96,1.97,2*0C
$GNGSA,A,3,,,,,,,,,,,,,2.19,0.96,1.97,3*09
$GPGSV,3,1,12,01,68,222,16,02,45,181,13,03,58,279,19,04,18,223,,0*63
$GPGSV,3,2,12,10,01,098,,12,07,023,,17,28,294,13,19,19,322,,0*61
$GPGSV,3,3,12,25,06,054,,28,42,098,,31,32,133,16,32,31,060,15,0*6F
$GLGSV,3,1,11,65,21,248,,70,00,063,,71,44,055,20,72,77,276,24,0*73
$GLGSV,3,2,11,73,20,081,16,74,00,119,,79,00,338,,80,22,023,14,0*70
$GLGSV,3,3,11,86,16,175,,87,54,206,18,88,43,315,18,0*49
$GAGSV,1,1,00,0*74
$GNGLL,5552.32153,N,03800.08600,E,134527.00,A,A*75

$GNRMC,134528.00,A,5552.32190,N,03800.08775,E,1.475,,120625,,,A,V*10
$GNVTG,,T,,M,1.475,N,2.732,K,A*3E

$GNGGA,134528.00,5552.32190,N,03800.08775,E,1,11,0.96,128.9,M,12.9,M,,*44
$GNGSA,A,3,01,02,32,17,03,31,,,,,,,2.19,0.96,1.97,1*0E
$GNGSA,A,3,72,87,71,88,80,,,,,,,,2.19,0.96,1.97,2*0C
$GNGSA,A,3,,,,,,,,,,,,,2.19,0.96,1.97,3*09
$GPGSV,3,1,12,01,68,222,19,02,45,181,11,03,58,279,18,04,18,223,,0*6F
$GPGSV,3,2,12,10,01,098,,12,07,023,,17,28,294,13,19,19,322,,0*61
$GPGSV,3,3,12,25,06,054,,28,42,098,,31,32,133,17,32,31,060,15,0*6E
$GLGSV,3,1,11,65,21,248,,70,00,063,,71,44,055,18,72,77,276,23,0*7F
$GLGSV,3,2,11,73,20,081,15,74,00,119,,79,00,338,,80,22,023,14,0*73
$GLGSV,3,3,11,86,16,175,,87,54,206,21,88,43,315,17,0*4C
$GAGSV,1,1,00,0*74
$GNGLL,5552.32190,N,03800.08775,E,134528.00,A,A*76

$GNRMC,134529.00,A,5552.32238,N,03800.08710,E,0.611,,120625,,,A,V*12

$GNVTG,,T,,M,0.611,N,1.131,K,A*39
$GNGGA,134529.00,5552.32238,N,03800.08710,E,1,11,0.96,128.9,M,12.9,M,,*47
$GNGSA,A,3,01,02,32,17,03,31,,,,,,,2.19,0.96,1.97,1*0E
$GNGSA,A,3,72,87,71,88,80,,,,,,,,2.19,0.96,1.97,2*0C
$GNGSA,A,3,,,,,,,,,,,,,2.19,0.96,1.97,3*09
$GPGSV,3,1,12,01,68,222,22,02,45,181,12,03,58,279,18,04,18,223,,0*64
$GPGSV,3,2,12,10,01,098,,12,07,023,,17,28,294,12,19,19,322,,0*60
$GPGSV,3,3,12,25,06,054,,28,42,098,,31,32,133,21,32,31,060,16,0*68
$GLGSV,3,1,11,65,21,248,,70,00,063,,71,44,055,18,72,77,276,21,0*7D
$GLGSV,3,2,11,73,20,081,15,74,00,119,,79,00,338,,80,22,023,11,0*76
$GLGSV,3,3,11,86,16,175,,87,54,206,20,88,43,315,17,0*4D
$GAGSV,1,1,00,0*74
$GNGLL,5552.32238,N,03800.08710,E,134529.00,A,A*75

$GNRMC,134530.00,A,5552.32344,N,03800.08685,E,1.447,,120625,,,A,V*1D
$GNVTG,,T,,M,1.447,N,2.680,K,A*37

$GNGGA,134530.00,5552.32344,N,03800.08685,E,1,11,0.96,128.5,M,12.9,M,,*44
$GNGSA,A,3,01,02,32,17,03,31,,,,,,,2.19,0.96,1.97,1*0E
$GNGSA,A,3,72,87,71,88,80,,,,,,,,2.19,0.96,1.97,2*0C
$GNGSA,A,3,,,,,,,,,,,,,2.19,0.96,1.97,3*09
$GPGSV,3,1,12,01,68,222,22,02,45,181,14,03,58,279,18,04,18,223,,0*62
$GPGSV,3,2,12,10,01,098,,12,07,023,,17,28,294,13,19,19,322,,0*61
$GPGSV,3,3,12,25,06,054,,28,42,098,,31,32,133,23,32,31,060,15,0*69
$GLGSV,3,1,11,65,21,248,,70,00,063,,71,44,055,20,72,77,276,19,0*7D
$GLGSV,3,2,11,73,20,081,18,74,00,119,,79,00,338,,80,22,023,12,0*78
$GLGSV,3,3,11,86,16,175,,87,54,206,20,88,43,315,16,0*4C
$GAGSV,1,1,00,0*74
$GNGLL,5552.32344,N,03800.08685,E,134530.00,A,A*7A

$GNRMC,134531.00,A,5552.32394,N,03800.08666,E,1.413,,120625,,,A,V*1D
$GNVTG,,T,,M,1.413,N,2.617,K,A*38

$GNGGA,134531.00,5552.32394,N,03800.08666,E,1,11,0.96,128.2,M,12.9,M,,*42
$GNGSA,A,3,01,02,32,17,03,31,,,,,,,2.19,0.96,1.97,1*0E
$GNGSA,A,3,72,87,71,88,80,,,,,,,,2.19,0.96,1.97,2*0C
$GNGSA,A,3,,,,,,,,,,,,,2.19,0.96,1.97,3*09
$GPGSV,3,1,12,01,68,222,22,02,45,181,13,03,58,279,20,04,18,223,,0*6E
$GPGSV,3,2,12,10,01,098,,12,07,023,,17,28,294,13,19,19,322,,0*61
$GPGSV,3,3,12,25,06,054,,28,42,098,,31,32,133,25,32,31,060,14,0*6E
$GLGSV,3,1,11,65,21,248,,70,00,063,,71,44,055,22,72,77,276,18,0*7E
$GLGSV,3,2,11,73,20,081,18,74,00,119,,79,00,338,,80,22,023,12,0*78
$GLGSV,3,3,11,86,16,175,,87,54,206,18,88,43,315,15,0*44
$GAGSV,1,1,00,0*74
$GNGLL,5552.32394,N,03800.08666,E,134531.00,A,A*7B

$GNRMC,134532.00,A,5552.32409,N,03800.08608,E,1.077,,120625,,,A,V*13
$GNVTG,,T,,M,1.077,N,1.994,K,A*39

$GNGGA,134532.00,5552.32409,N,03800.08608,E,1,11,0.96,128.3,M,12.9,M,,*4B
$GNGSA,A,3,01,02,32,17,03,31,,,,,,,2.19,0.96,1.97,1*0E
$GNGSA,A,3,72,87,71,88,80,,,,,,,,2.19,0.96,1.97,2*0C
$GNGSA,A,3,,,,,,,,,,,,,2.19,0.96,1.97,3*09
$GPGSV,3,1,12,01,68,222,22,02,45,181,16,03,58,279,20,04,18,223,,0*6B
$GPGSV,3,2,12,10,01,098,,12,07,023,,17,28,294,14,19,19,322,,0*66
$GPGSV,3,3,12,25,06,054,,28,42,098,,31,32,133,26,32,31,060,15,0*6C
$GLGSV,3,1,11,65,21,248,,70,00,063,,71,44,055,22,72,77,276,20,0*75
$GLGSV,3,2,11,73,20,081,18,74,00,119,,79,00,338,,80,22,023,12,0*78
$GLGSV,3,3,11,86,16,175,,87,54,206,18,88,43,315,15,0*44
$GAGSV,1,1,00,0*74
$GNGLL,5552.32409,N,03800.08608,E,134532.00,A,A*73

$GNRMC,134533.00,A,5552.32395,N,03800.08524,E,0.848,,120625,,,A,V*18
$GNVTG,,T,,M,0.848,N,1.570,K,A*3A
$GNGGA,134533.00,5552.32395,N,03800.08524,E,1,10,1.02,128.0,M,12.9,M,,*4B
$GNGSA,A,3,01,02,17,03,31,,,,,,,,2.22,1.02,1.97,1*0B
$GNGSA,A,3,72,87,71,88,80,,,,,,,,2.22,1.02,1.97,2*08

$GNGSA,A,3,,,,,,,,,,,,,2.22,1.02,1.97,3*0D
$GPGSV,3,1,12,01,68,222,23,02,45,181,17,03,58,279,21,04,18,223,,0*6A
$GPGSV,3,2,12,10,01,098,16,12,07,023,,17,28,294,13,19,19,322,21,0*65
$GPGSV,3,3,12,25,06,054,,28,42,098,,31,32,133,25,32,31,060,,0*6B
$GLGSV,3,1,11,65,21,249,,70,00,063,,71,44,055,21,72,77,276,20,0*77
$GLGSV,3,2,11,73,20,081,19,74,00,119,,79,00,338,,80,22,023,12,0*79
$GLGSV,3,3,11,86,16,175,,87,54,206,20,88,43,315,15,0*4F
$GAGSV,1,1,00,0*74
$GNGLL,5552.32395,N,03800.08524,E,134533.00,A,A*7D

$GNRMC,134534.00,A,5552.32419,N,03800.08469,E,0.897,,120625,,,A,V*16
$GNVTG,,T,,M,0.897,N,1.662,K,A*38

$GNGGA,134534.00,5552.32419,N,03800.08469,E,1,10,1.02,127.6,M,12.9,M,,*4E
$GNGSA,A,3,01,02,17,03,31,,,,,,,,2.22,1.02,1.97,1*0B
$GNGSA,A,3,72,87,71,88,80,,,,,,,,2.22,1.02,1.97,2*08
$GNGSA,A,3,,,,,,,,,,,,,2.22,1.02,1.97,3*0D
$GPGSV,3,1,12,01,68,222,22,02,45,181,17,03,58,279,19,04,18,223,,0*60
$GPGSV,3,2,12,10,01,098,14,12,07,023,,17,28,294,13,19,19,322,18,0*6D
$GPGSV,3,3,12,25,06,054,,28,42,098,,31,32,133,26,32,31,060,17,0*6E
$GLGSV,3,1,11,65,21,249,,70,00,063,,71,44,055,21,72,77,276,19,0*7D
$GLGSV,3,2,11,73,20,081,21,74,00,119,,79,00,338,,80,22,023,12,0*72
$GLGSV,3,3,11,86,16,175,,87,54,206,21,88,43,315,15,0*4E
$GAGSV,1,1,00,0*74
$GNGLL,5552.32419,N,03800.08469,E,134534.00,A,A*71

$GNRMC,134535.00,A,5552.32466,N,03800.08454,E,0.772,,120625,,,A,V*15
$GNVTG,,T,,M,0.772,N,1.429,K,A*31

$GNGGA,134535.00,5552.32466,N,03800.08454,E,1,09,1.14,127.1,M,12.9,M,,*41
$GNGSA,A,3,01,02,17,03,31,,,,,,,,2.41,1.14,2.13,1*06
$GNGSA,A,3,72,87,71,88,,,,,,,,,2.41,1.14,2.13,2*0D
$GNGSA,A,3,,,,,,,,,,,,,2.41,1.14,2.13,3*00
$GPGSV,3,1,12,01,68,222,22,02,45,181,17,03,58,279,19,04,18,223,,0*60
$GPGSV,3,2,12,10,01,098,13,12,07,023,,17,28,294,11,19,19,322,15,0*65
$GPGSV,3,3,12,25,06,054,,28,42,098,,31,32,133,25,32,31,060,16,0*6C
$GLGSV,3,1,11,65,21,249,,70,00,063,,71,44,055,20,72,77,276,20,0*76
$GLGSV,3,2,11,73,20,081,22,74,00,119,,79,00,338,,80,22,023,,0*72
$GLGSV,3,3,11,86,16,175,,87,54,206,21,88,43,315,16,0*4D
$GAGSV,1,1,00,0*74
$GNGLL,5552.32466,N,03800.08454,E,134535.00,A,A*76

$GNRMC,134536.00,A,5552.32487,N,03800.08461,E,0.465,,120625,,,A,V*1A
$GNVTG,,T,,M,0.465,N,0.862,K,A*36
$GNGGA,134536.00,5552.32487,N,03800.08461,E,1,09,1.14,127.0,M,12.9,M,,*4A
$GNGSA,A,3,01,02,17,03,31,,,,,,,,2.41,1.14,2.13,1*06

$GNGSA,A,3,72,87,71,88,,,,,,,,,2.41,1.14,2.13,2*0D
$GNGSA,A,3,,,,,,,,,,,,,2.41,1.14,2.13,3*00
$GPGSV,3,1,12,01,68,222,22,02,45,181,15,03,58,279,18,04,18,223,,0*63
$GPGSV,3,2,12,10,01,098,09,12,07,023,,17,28,294,11,19,19,322,15,0*6E
$GPGSV,3,3,12,25,06,054,,28,42,098,,31,32,133,24,32,31,060,16,0*6D
$GLGSV,3,1,11,65,21,249,,70,00,063,,71,44,055,23,72,77,276,21,0*74
$GLGSV,3,2,11,73,20,081,23,74,00,119,,79,00,338,,80,22,023,,0*73
$GLGSV,3,3,11,86,16,175,,87,54,206,20,88,43,315,17,0*4D
$GAGSV,1,1,00,0*74
$GNGLL,5552.32487,N,03800.08461,E,134536.00,A,A*7C

$GNRMC,134537.00,A,5552.32513,N,03800.08490,E,0.330,,120625,,,A,V*1E
$GNVTG,,T,,M,0.330,N,0.611,K,A*3B

$GNGGA,134537.00,5552.32513,N,03800.08490,E,1,09,1.14,126.4,M,12.9,M,,*4C
$GNGSA,A,3,01,02,17,03,31,,,,,,,,2.41,1.14,2.13,1*06
$GNGSA,A,3,72,87,71,88,,,,,,,,,2.41,1.14,2.13,2*0D
$GNGSA,A,3,,,,,,,,,,,,,2.41,1.14,2.13,3*00
$GPGSV,3,1,12,01,68,222,20,02,45,181,16,03,58,279,17,04,18,223,,0*6D
$GPGSV,3,2,12,10,01,098,08,12,07,023,,17,28,294,11,19,19,322,13,0*69
$GPGSV,3,3,12,25,06,054,,28,42,098,,31,32,133,22,32,31,060,15,0*68
$GLGSV,3,1,11,65,21,249,,70,00,063,,71,44,055,23,72,77,276,22,0*77
$GLGSV,3,2,11,73,20,081,22,74,00,119,,79,00,338,,80,22,023,,0*72
$GLGSV,3,3,11,86,16,175,,87,54,206,19,88,43,315,17,0*47
$GAGSV,1,1,00,0*74

$GNGLL,5552.32513,N,03800.08490,E,134537.00,A,A*7F

$GNRMC,134538.00,A,5552.32515,N,03800.08472,E,0.198,,120625,,,A,V*1B
$GNVTG,,T,,M,0.198,N,0.367,K,A*3F

$GNGGA,134538.00,5552.32515,N,03800.08472,E,1,10,1.00,125.9,M,12.9,M,,*4A
$GNGSA,A,3,01,02,32,17,03,31,,,,,,,2.31,1.00,2.08,1*0F
$GNGSA,A,3,72,87,71,88,,,,,,,,,2.31,1.00,2.08,2*05
$GNGSA,A,3,,,,,,,,,,,,,2.31,1.00,2.08,3*08
$GPGSV,3,1,12,01,68,222,20,02,45,181,17,03,58,279,18,04,18,223,,0*63
$GPGSV,3,2,12,10,01,098,07,12,07,023,,17,28,294,11,19,19,322,11,0*64
$GPGSV,3,3,12,25,06,054,,28,42,098,,31,32,133,19,32,31,060,15,0*60
$GLGSV,3,1,11,65,21,249,,70,00,063,,71,44,055,22,72,77,276,21,0*75
$GLGSV,3,2,11,73,20,081,20,74,00,119,,79,00,338,,80,22,023,,0*70
$GLGSV,3,3,11,86,16,175,,87,54,206,18,88,43,315,20,0*42
$GAGSV,1,1,00,0*74
$GNGLL,5552.32515,N,03800.08472,E,134538.00,A,A*7A

$GNRMC,134539.00,A,5552.32559,N,03800.08456,E,0.485,,120625,,,A,V*1D
$GNVTG,,T,,M,0.485,N,0.898,K,A*3D

$GNGGA,134539.00,5552.32559,N,03800.08456,E,1,10,1.00,125.6,M,12.9,M,,*4A
$GNGSA,A,3,01,02,32,17,03,31,,,,,,,2.31,1.00,2.08,1*0F
$GNGSA,A,3,72,87,71,88,,,,,,,,,2.31,1.00,2.08,2*05
$GNGSA,A,3,,,,,,,,,,,,,2.31,1.00,2.08,3*08
$GPGSV,3,1,12,01,68,222,20,02,45,181,17,03,58,279,16,04,18,223,,0*6D
$GPGSV,3,2,12,10,01,098,07,12,07,023,,17,28,294,12,19,19,322,10,0*66
$GPGSV,3,3,12,25,06,054,,28,42,098,,31,32,133,16,32,31,060,16,0*6C
$GLGSV,3,1,11,65,21,249,,70,00,063,,71,44,056,22,72,77,276,20,0*77
$GLGSV,3,2,11,73,20,081,19,74,00,119,,79,00,338,,80,22,023,,0*7A
$GLGSV,3,3,11,86,16,175,,87,54,206,19,88,43,315,17,0*47
$GAGSV,1,1,00,0*74
$GNGLL,5552.32559,N,03800.08456,E,134539.00,A,A*75

$GNRMC,134540.00,A,5552.32582,N,03800.08439,E,0.340,,120625,,,A,V*12
$GNVTG,,T,,M,0.340,N,0.629,K,A*37

$GNGGA,134540.00,5552.32582,N,03800.08439,E,1,10,1.00,125.6,M,12.9,M,,*4B
$GNGSA,A,3,01,02,32,17,03,31,,,,,,,2.31,1.00,2.08,1*0F
$GNGSA,A,3,72,87,71,88,,,,,,,,,2.31,1.00,2.08,2*05
$GNGSA,A,3,,,,,,,,,,,,,2.31,1.00,2.08,3*08
$GPGSV,3,1,12,01,68,222,22,02,45,181,17,03,58,279,14,04,18,223,,0*6D
$GPGSV,3,2,12,10,01,098,08,12,07,023,,17,28,294,13,19,19,322,11,0*69
$GPGSV,3,3,12,25,06,054,,28,42,098,,31,32,133,18,32,31,060,15,0*61
$GLGSV,3,1,11,65,21,249,,70,00,063,,71,44,056,21,72,78,278,19,0*7F
$GLGSV,3,2,11,73,20,081,16,74,00,119,,79,00,338,,80,22,023,,0*75
$GLGSV,3,3,11,86,16,175,,87,54,206,19,88,43,315,18,0*48
$GAGSV,1,1,00,0*74
$GNGLL,5552.32582,N,03800.08439,E,134540.00,A,A*74

$GNRMC,134541.00,A,5552.32615,N,03800.08430,E,0.505,,120625,,,A,V*10
$GNVTG,,T,,M,0.505,N,0.935,K,A*32

$GNGGA,134541.00,5552.32615,N,03800.08430,E,1,10,1.00,125.2,M,12.9,M,,*4A
$GNGSA,A,3,01,02,32,17,03,31,,,,,,,2.31,1.00,2.08,1*0F
$GNGSA,A,3,72,87,71,88,,,,,,,,,2.31,1.00,2.08,2*05
$GNGSA,A,3,,,,,,,,,,,,,2.31,1.00,2.08,3*08
$GPGSV,3,1,12,01,68,222,21,02,45,181,18,03,58,279,09,04,18,223,,0*6D
$GPGSV,3,2,12,10,01,098,08,12,07,023,,17,28,294,13,19,19,322,09,0*60
$GPGSV,3,3,12,25,06,054,,28,42,098,,31,32,133,19,32,31,060,15,0*60
$GLGSV,3,1,11,65,21,249,,70,00,063,,71,44,056,21,72,78,278,18,0*7E
$GLGSV,3,2,11,73,21,080,14,74,00,119,,79,00,338,,80,22,023,,0*77
$GLGSV,3,3,11,86,16,175,,87,54,206,19,88,43,315,19,0*49
$GAGSV,1,1,00,0*74
$GNGLL,5552.32615,N,03800.08430,E,134541.00,A,A*71

$GNRMC,134542.00,A,5552.32605,N,03800.08379,E,0.329,,120625,,,A,V*10
$GNVTG,,T,,M,0.329,N,0.610,K,A*32

$GNGGA,134542.00,5552.32605,N,03800.08379,E,1,10,1.00,124.9,M,12.9,M,,*48
$GNGSA,A,3,01,02,32,17,03,31,,,,,,,2.31,1.00,2.08,1*0F
$GNGSA,A,3,72,87,71,88,,,,,,,,,2.31,1.00,2.08,2*05
$GNGSA,A,3,,,,,,,,,,,,,2.31,1.00,2.08,3*08
$GPGSV,3,1,12,01,68,222,20,02,45,181,18,03,58,279,11,04,18,223,,0*65
$GPGSV,3,2,12,10,01,098,08,12,07,023,,17,28,294,14,19,19,322,08,0*66
$GPGSV,3,3,12,25,06,054,,28,42,098,,31,32,133,20,32,31,060,17,0*68
$GLGSV,3,1,11,65,21,249,,70,00,063,,71,44,056,23,72,78,278,16,0*72
$GLGSV,3,2,11,73,21,080,15,74,01,119,,79,00,338,,80,22,023,,0*77
$GLGSV,3,3,11,86,16,175,,87,54,206,20,88,43,315,16,0*4C
$GAGSV,1,1,00,0*74
$GNGLL,5552.32605,N,03800.08379,E,134542.00,A,A*79

$GNRMC,134543.00,A,5552.32592,N,03800.08367,E,0.351,,120625,,,A,V*1C
$GNVTG,,T,,M,0.351,N,0.649,K,A*31

$GNGGA,134543.00,5552.32592,N,03800.08367,E,1,10,1.00,124.9,M,12.9,M,,*4B
$GNGSA,A,3,01,02,32,17,03,31,,,,,,,2.31,1.00,2.08,1*0F
$GNGSA,A,3,72,87,71,88,,,,,,,,,2.31,1.00,2.08,2*05
$GNGSA,A,3,,,,,,,,,,,,,2.31,1.00,2.08,3*08
$GPGSV,3,1,12,01,68,222,19,02,45,181,21,03,58,279,14,04,18,223,,0*60
$GPGSV,3,2,12,10,01,098,08,12,07,023,,17,28,294,13,19,19,322,11,0*69
$GPGSV,3,3,12,25,06,054,,28,42,098,,31,32,133,19,32,31,060,17,0*62
$GLGSV,3,1,11,65,21,249,,70,00,063,,71,44,056,25,72,78,278,18,0*7A
$GLGSV,3,2,11,73,21,080,,74,01,119,,79,00,338,,80,22,023,26,0*77
$GLGSV,3,3,11,86,16,175,,87,54,206,21,88,43,315,16,0*4D
$GAGSV,1,1,00,0*74
$GNGLL,5552.32592,N,03800.08367,E,134543.00,A,A*7A

$GNRMC,134544.00,A,5552.32546,N,03800.08439,E,0.697,,120625,,,A,V*11
$GNVTG,,T,,M,0.697,N,1.290,K,A*3F

$GNGGA,134544.00,5552.32546,N,03800.08439,E,1,10,1.00,124.7,M,12.9,M,,*47
$GNGSA,A,3,01,02,32,17,03,31,,,,,,,2.31,1.00,2.08,1*0F
$GNGSA,A,3,72,87,71,88,,,,,,,,,2.31,1.00,2.08,2*05
$GNGSA,A,3,,,,,,,,,,,,,2.31,1.00,2.08,3*08
$GPGSV,3,1,12,01,68,222,17,02,45,181,22,03,58,279,16,04,18,223,,0*6F
$GPGSV,3,2,12,10,01,098,08,12,07,023,,17,28,294,13,19,19,322,12,0*6A
$GPGSV,3,3,12,25,06,054,,28,42,098,,31,32,133,21,32,31,060,14,0*6A
$GLGSV,3,1,11,65,21,249,,70,00,063,,71,44,056,23,72,78,278,18,0*7C
$GLGSV,3,2,11,73,21,080,,74,01,119,,79,00,338,,80,22,023,22,0*73
$GLGSV,3,3,11,86,16,175,,87,54,206,20,88,43,315,15,0*4F
$GAGSV,1,1,00,0*74
$GNGLL,5552.32546,N,03800.08439,E,134544.00,A,A*78

$GNRMC,134545.00,A,5552.32569,N,03800.08505,E,0.806,,120625,,,A,V*15
$GNVTG,,T,,M,0.806,N,1.494,K,A*3B

$GNGGA,134545.00,5552.32569,N,03800.08505,E,1,10,1.00,124.5,M,12.9,M,,*47
$GNGSA,A,3,01,02,32,17,03,31,,,,,,,2.31,1.00,2.08,1*0F
$GNGSA,A,3,72,87,71,88,,,,,,,,,2.31,1.00,2.08,2*05
$GNGSA,A,3,,,,,,,,,,,,,2.31,1.00,2.08,3*08
$GPGSV,3,1,12,01,68,222,16,02,45,181,21,03,58,279,15,04,18,223,,0*6E
$GPGSV,3,2,12,10,01,098,08,12,07,023,,17,28,294,12,19,19,322,12,0*6B
$GPGSV,3,3,12,25,06,054,,28,42,098,,31,32,133,23,32,31,060,13,0*6F
$GLGSV,3,1,11,65,21,249,,70,00,063,,71,44,056,22,72,78,278,20,0*76
$GLGSV,3,2,11,73,21,080,,74,01,119,,79,00,338,,80,22,023,19,0*7B
$GLGSV,3,3,11,86,16,175,,87,54,206,19,88,43,315,15,0*45
$GAGSV,1,1,00,0*74
$GNGLL,5552.32569,N,03800.08505,E,134545.00,A,A*7A

$GNRMC,134546.00,A,5552.32581,N,03800.08562,E,0.991,,120625,,,A,V*1E
$GNVTG,,T,,M,0.991,N,1.836,K,A*30

$GNGGA,134546.00,5552.32581,N,03800.08562,E,1,11,0.95,124.6,M,12.9,M,,*4C
$GNGSA,A,3,01,02,32,17,03,31,,,,,,,2.18,0.95,1.96,1*0D
$GNGSA,A,3,72,87,71,88,80,,,,,,,,2.18,0.95,1.96,2*0F
$GNGSA,A,3,,,,,,,,,,,,,2.18,0.95,1.96,3*0A
$GPGSV,3,1,12,01,68,222,16,02,45,181,21,03,58,279,18,04,18,223,,0*63
$GPGSV,3,2,12,10,01,098,08,12,07,023,,17,28,294,11,19,19,322,11,0*6B
$GPGSV,3,3,12,25,06,054,,28,42,098,,31,32,133,23,32,31,060,13,0*6F
$GLGSV,3,1,11,65,21,249,,70,00,063,,71,44,056,20,72,78,278,19,0*7E
$GLGSV,3,2,11,73,21,080,,74,01,119,,79,00,338,,80,22,023,19,0*7B
$GLGSV,3,3,11,86,16,175,,87,54,206,20,88,43,315,17,0*4D
$GAGSV,1,1,00,0*74
$GNGLL,5552.32581,N,03800.08562,E,134546.00,A,A*7E

$GNRMC,134547.00,A,5552.32567,N,03800.08532,E,0.554,,120625,,,A,V*17
$GNVTG,,T,,M,0.554,N,1.026,K,A*3C

$GNGGA,134547.00,5552.32567,N,03800.08532,E,1,11,0.95,124.2,M,12.9,M,,*44
$GNGSA,A,3,01,02,32,17,03,31,,,,,,,2.18,0.95,1.96,1*0D
$GNGSA,A,3,72,87,71,88,80,,,,,,,,2.18,0.95,1.96,2*0F
$GNGSA,A,3,,,,,,,,,,,,,2.18,0.95,1.96,3*0A
$GPGSV,3,1,12,01,68,222,16,02,45,181,21,03,58,279,16,04,18,223,,0*6D
$GPGSV,3,2,12,10,01,098,08,12,07,023,,17,28,294,12,19,19,322,09,0*61
$GPGSV,3,3,12,25,06,054,,28,42,098,,31,32,133,23,32,31,060,15,0*69
$GLGSV,3,1,10,65,21,249,,70,00,063,,71,44,056,20,72,78,278,18,0*7E
$GLGSV,3,2,10,73,21,080,,74,01,119,,80,22,023,19,86,16,175,,0*76
$GLGSV,3,3,10,87,54,206,19,88,43,315,19,0*72
$GAGSV,1,1,00,0*74
$GNGLL,5552.32567,N,03800.08532,E,134547.00,A,A*72

$GNRMC,134548.00,A,5552.32540,N,03800.08516,E,0.705,,120625,,,A,V*1D
$GNVTG,,T,,M,0.705,N,1.305,K,A*38

$GNGGA,134548.00,5552.32540,N,03800.08516,E,1,11,0.95,124.0,M,12.9,M,,*4A
$GNGSA,A,3,01,02,32,17,03,31,,,,,,,2.18,0.95,1.96,1*0D
$GNGSA,A,3,72,87,71,88,80,,,,,,,,2.18,0.95,1.96,2*0F
$GNGSA,A,3,,,,,,,,,,,,,2.18,0.95,1.96,3*0A
$GPGSV,3,1,12,01,68,222,17,02,45,181,19,03,58,279,14,04,18,223,,0*65
$GPGSV,3,2,12,10,01,098,,12,07,023,,17,28,294,10,19,19,322,09,0*6B
$GPGSV,3,3,12,25,06,054,,28,42,098,,31,32,133,23,32,31,060,15,0*69
$GLGSV,3,1,10,65,21,249,,70,00,063,,71,44,056,18,72,78,278,18,0*75
$GLGSV,3,2,10,73,21,080,,74,01,119,,80,21,022,18,86,16,175,,0*75
$GLGSV,3,3,10,87,54,206,19,88,43,315,19,0*72
$GAGSV,1,1,00,0*74
$GNGLL,5552.32540,N,03800.08516,E,134548.00,A,A*7E

$GNRMC,134549.00,A,5552.32498,N,03800.08542,E,1.016,,120625,,,A,V*1D
$GNVTG,,T,,M,1.016,N,1.882,K,A*38

$GNGGA,134549.00,5552.32498,N,03800.08542,E,1,10,1.19,123.9,M,12.9,M,,*44
$GNGSA,A,3,01,02,32,03,31,,,,,,,,2.87,1.19,2.61,1*03
$GNGSA,A,3,72,87,71,88,80,,,,,,,,2.87,1.19,2.61,2*07
$GNGSA,A,3,,,,,,,,,,,,,2.87,1.19,2.61,3*02
$GPGSV,3,1,12,01,68,222,16,02,45,181,16,03,58,279,14,04,18,223,,0*6B
$GPGSV,3,2,12,10,01,098,,12,07,023,,17,28,294,08,19,19,322,,0*6B
$GPGSV,3,3,12,25,06,054,,28,42,098,,31,32,133,23,32,31,060,14,0*68
$GLGSV,3,1,10,65,21,249,,70,00,063,,71,44,056,18,72,78,278,18,0*75
$GLGSV,3,2,10,73,21,080,,74,01,119,,80,21,022,16,86,16,175,,0*7B
$GLGSV,3,3,10,87,54,206,19,88,43,315,19,0*72
$GAGSV,1,1,00,0*74
$GNGLL,5552.32498,N,03800.08542,E,134549.00,A,A*7A

$GNRMC,134550.00,A,5552.32519,N,03800.08580,E,0.607,,120625,,,A,V*14
$GNVTG,,T,,M,0.607,N,1.124,K,A*3A

$GNGGA,134550.00,5552.32519,N,03800.08580,E,1,10,1.19,123.9,M,12.9,M,,*4A
$GNGSA,A,3,01,02,32,03,31,,,,,,,,2.87,1.19,2.61,1*03
$GNGSA,A,3,72,87,71,88,80,,,,,,,,2.87,1.19,2.61,2*07
$GNGSA,A,3,,,,,,,,,,,,,2.87,1.19,2.61,3*02
$GPGSV,3,1,12,01,68,222,15,02,45,181,13,03,58,279,16,04,18,223,,0*6F
$GPGSV,3,2,12,10,01,098,,12,07,023,,17,28,294,08,19,19,322,,0*6B
$GPGSV,3,3,12,25,06,054,,28,42,098,,31,32,133,24,32,31,060,15,0*6E
$GLGSV,3,1,10,65,21,249,,70,00,063,,71,44,056,17,72,78,278,18,0*7A
$GLGSV,3,2,10,73,21,080,,74,01,119,,80,21,022,16,86,16,175,,0*7B
$GLGSV,3,3,10,87,54,206,20,88,43,315,22,0*70
$GAGSV,1,1,00,0*74
$GNGLL,5552.32519,N,03800.08580,E,134550.00,A,A*74

$GNRMC,134551.00,A,5552.32494,N,03800.08596,E,0.610,,120625,,,A,V*10
$GNVTG,,T,,M,0.610,N,1.131,K,A*38

$GNGGA,134551.00,5552.32494,N,03800.08596,E,1,10,1.19,124.0,M,12.9,M,,*46
$GNGSA,A,3,01,02,32,03,31,,,,,,,,2.87,1.19,2.61,1*03
$GNGSA,A,3,72,87,71,88,80,,,,,,,,2.87,1.19,2.61,2*07
$GNGSA,A,3,,,,,,,,,,,,,2.87,1.19,2.61,3*02
$GPGSV,3,1,12,01,68,222,16,02,45,181,13,03,58,279,19,04,18,223,,0*63
$GPGSV,3,2,12,10,01,098,,12,07,023,,17,28,294,08,19,19,322,,0*6B
$GPGSV,3,3,12,25,06,054,,28,42,098,18,31,32,133,24,32,31,060,13,0*61
$GLGSV,3,1,10,65,21,249,,70,00,063,,71,44,056,19,72,78,278,18,0*74
$GLGSV,3,2,10,73,21,080,,74,01,119,,80,21,022,15,86,16,175,,0*78
$GLGSV,3,3,10,87,54,206,22,88,43,315,29,0*79
$GAGSV,1,1,00,0*74
$GNGLL,5552.32494,N,03800.08596,E,134551.00,A,A*76

$GNRMC,134552.00,A,5552.32426,N,03800.08590,E,0.940,,120625,,,A,V*16
$GNVTG,,T,,M,0.940,N,1.741,K,A*33

$GNGGA,134552.00,5552.32426,N,03800.08590,E,1,10,1.19,124.0,M,12.9,M,,*4A
$GNGSA,A,3,01,02,32,03,31,,,,,,,,2.87,1.19,2.61,1*03
$GNGSA,A,3,72,87,71,88,80,,,,,,,,2.87,1.19,2.61,2*07
$GNGSA,A,3,,,,,,,,,,,,,2.87,1.19,2.61,3*02
$GPGSV,3,1,12,01,68,222,16,02,45,181,14,03,58,279,17,04,18,223,,0*6A
$GPGSV,3,2,12,10,01,098,,12,07,023,,17,28,294,08,19,19,322,,0*6B
$GPGSV,3,3,12,25,06,054,,28,42,098,19,31,32,133,24,32,31,060,15,0*66
$GLGSV,3,1,10,65,21,249,,70,00,063,,71,44,056,21,72,78,278,20,0*74
$GLGSV,3,2,10,73,21,080,,74,01,119,,80,21,022,16,86,16,175,,0*7B
$GLGSV,3,3,10,87,54,206,22,88,43,315,31,0*70
$GAGSV,1,1,00,0*74
$GNGLL,5552.32426,N,03800.08590,E,134552.00,A,A*7A

$GNRMC,134553.00,A,5552.32396,N,03800.08699,E,1.155,,120625,,,A,V*1C
$GNVTG,,T,,M,1.155,N,2.139,K,A*34
$GNGGA,134553.00,5552.32396,N,03800.08699,E,1,10,1.19,124.7,M,12.9,M,,*4A
$GNGSA,A,3,01,02,32,03,31,,,,,,,,2.87,1.19,2.61,1*03
$GNGSA,A,3,72,87,71,88,80,,,,,,,,2.87,1.19,2.61,2*07

$GNGSA,A,3,,,,,,,,,,,,,2.87,1.19,2.61,3*02
$GPGSV,3,1,12,01,68,222,16,02,45,181,16,03,58,279,14,04,18,223,,0*6B
$GPGSV,3,2,12,10,01,098,,12,07,023,,17,28,294,08,19,19,322,,0*6B
$GPGSV,3,3,12,25,06,054,,28,42,098,17,31,32,133,24,32,31,060,17,0*6A
$GLGSV,3,1,10,65,21,249,,70,00,063,,71,44,056,21,72,78,278,19,0*7E
$GLGSV,3,2,10,73,21,080,,74,01,119,,80,21,022,16,86,16,175,,0*7B
$GLGSV,3,3,10,87,54,206,20,88,43,315,29,0*7B
$GAGSV,1,1,00,0*74
$GNGLL,5552.32396,N,03800.08699,E,134553.00,A,A*7D

$GNRMC,134554.00,A,5552.32391,N,03800.08708,E,0.761,,120625,,,A,V*15
$GNVTG,,T,,M,0.761,N,1.410,K,A*39

$GNGGA,134554.00,5552.32391,N,03800.08708,E,1,09,1.23,124.4,M,12.9,M,,*41
$GNGSA,A,3,01,02,32,31,,,,,,,,,2.89,1.23,2.61,1*07
$GNGSA,A,3,72,87,71,88,80,,,,,,,,2.89,1.23,2.61,2*00
$GNGSA,A,3,,,,,,,,,,,,,2.89,1.23,2.61,3*05
$GPGSV,3,1,12,01,68,222,16,02,45,181,17,03,58,279,10,04,18,223,,0*6E
$GPGSV,3,2,12,10,01,098,,12,07,023,,17,28,294,08,19,19,322,,0*6B
$GPGSV,3,3,12,25,06,054,,28,42,098,15,31,32,133,25,32,31,060,19,0*67
$GLGSV,3,1,10,65,21,249,,70,00,063,,71,44,056,20,72,78,278,17,0*71
$GLGSV,3,2,10,73,21,080,,74,01,119,,80,21,022,14,86,15,175,,0*7A
$GLGSV,3,3,10,87,54,206,17,88,43,315,27,0*71
$GAGSV,1,1,00,0*74
$GNGLL,5552.32391,N,03800.08708,E,134554.00,A,A*74

$GNRMC,134555.00,A,5552.32417,N,03800.08747,E,0.800,,120625,,,A,V*1E
$GNVTG,,T,,M,0.800,N,1.482,K,A*3A

$GNGGA,134555.00,5552.32417,N,03800.08747,E,1,10,1.19,124.4,M,12.9,M,,*43
$GNGSA,A,3,01,02,32,03,31,,,,,,,,2.87,1.19,2.61,1*03
$GNGSA,A,3,72,87,71,88,80,,,,,,,,2.87,1.19,2.61,2*07
$GNGSA,A,3,,,,,,,,,,,,,2.87,1.19,2.61,3*02
$GPGSV,3,1,12,01,68,222,14,02,45,181,17,03,58,279,18,04,18,223,,0*64
$GPGSV,3,2,12,10,01,098,,12,07,023,,17,28,294,08,19,19,322,,0*6B
$GPGSV,3,3,12,25,06,054,,28,42,098,18,31,32,133,25,32,31,060,19,0*6A
$GLGSV,3,1,10,65,21,249,,70,00,063,,71,44,056,19,72,78,278,16,0*7A
$GLGSV,3,2,10,73,21,080,,74,01,119,,80,21,022,19,86,15,175,,0*77
$GLGSV,3,3,10,87,53,206,18,88,43,315,18,0*75
$GAGSV,1,1,00,0*74

$GNGLL,5552.32417,N,03800.08747,E,134555.00,A,A*77

$GNRMC,134556.00,A,5552.32361,N,03800.08704,E,0.678,,120625,,,A,V*1D
$GNVTG,,T,,M,0.678,N,1.256,K,A*34
$GNGGA,134556.00,5552.32361,N,03800.08704,E,1,11,0.95,124.7,M,12.9,M,,*46

$GNGSA,A,3,01,02,32,17,03,31,,,,,,,2.18,0.95,1.96,1*0D
$GNGSA,A,3,72,87,71,88,80,,,,,,,,2.18,0.95,1.96,2*0F
$GNGSA,A,3,,,,,,,,,,,,,2.18,0.95,1.96,3*0A
$GPGSV,3,1,12,01,68,222,11,02,45,181,17,03,58,279,13,04,18,223,,0*6A
$GPGSV,3,2,12,10,01,098,,12,07,023,,17,28,294,10,19,19,322,,0*62
$GPGSV,3,3,12,25,06,054,,28,42,098,17,31,32,133,24,32,31,060,20,0*6E
$GLGSV,3,1,10,65,21,249,,70,00,063,,71,44,056,22,72,78,278,16,0*72
$GLGSV,3,2,10,73,21,080,,74,01,119,,80,21,022,19,86,15,175,,0*77
$GLGSV,3,3,10,87,53,206,17,88,43,314,23,0*73
$GAGSV,1,1,00,0*74
$GNGLL,5552.32361,N,03800.08704,E,134556.00,A,A*75

$GNRMC,134557.00,A,5552.32348,N,03800.08745,E,0.550,,120625,,,A,V*1B
$GNVTG,,T,,M,0.550,N,1.019,K,A*34
$GNGGA,134557.00,5552.32348,N,03800.08745,E,1,11,0.95,125.2,M,12.9,M,,*4D
$GNGSA,A,3,01,02,32,17,03,31,,,,,,,2.18,0.95,1.96,1*0D
$GNGSA,A,3,72,87,71,88,80,,,,,,,,2.18,0.95,1.96,2*0F
$GNGSA,A,3,,,,,,,,,,,,,2.18,0.95,1.96,3*0A
$GPGSV,3,1,12,01,67,220,13,02,45,181,19,03,58,279,15,04,18,223,,0*6D
$GPGSV,3,2,12,10,01,098,,12,07,023,,17,28,294,10,19,19,322,,0*62

$GPGSV,3,3,12,25,06,054,,28,42,098,18,31,32,133,24,32,31,060,18,0*6A
$GLGSV,3,1,10,65,21,249,,70,00,063,,71,44,056,21,72,78,278,15,0*72
$GLGSV,3,2,10,73,21,080,,74,01,119,,80,21,022,17,86,15,175,,0*79
$GLGSV,3,3,10,87,53,206,16,88,43,314,28,0*79
$GAGSV,1,1,00,0*74
$GNGLL,5552.32348,N,03800.08745,E,134557.00,A,A*7A

$GNRMC,134558.00,A,5552.32317,N,03800.08699,E,0.590,,120625,,,A,V*12
$GNVTG,,T,,M,0.590,N,1.093,K,A*3A
$GNGGA,134558.00,5552.32317,N,03800.08699,E,1,11,0.95,124.6,M,12.9,M,,*4D
$GNGSA,A,3,01,02,32,17,03,31,,,,,,,2.18,0.95,1.96,1*0D
$GNGSA,A,3,72,87,71,88,80,,,,,,,,2.18,0.95,1.96,2*0F
$GNGSA,A,3,,,,,,,,,,,,,2.18,0.95,1.96,3*0A

$GPGSV,3,1,12,01,67,220,15,02,45,181,22,03,58,279,18,04,18,223,,0*6E
$GPGSV,3,2,12,10,01,098,,12,07,023,,17,28,294,10,19,19,322,,0*62
$GPGSV,3,3,12,25,06,054,,28,42,098,17,31,32,133,23,32,31,060,17,0*6D
$GLGSV,3,1,10,65,21,249,,70,00,063,,71,44,056,21,72,78,278,15,0*72
$GLGSV,3,2,10,73,21,080,,74,01,119,,80,21,022,16,86,15,175,,0*78
$GLGSV,3,3,10,87,53,206,18,88,43,314,29,0*76
$GAGSV,1,1,00,0*74
$GNGLL,5552.32317,N,03800.08699,E,134558.00,A,A*7F

$GNRMC,134559.00,A,5552.32281,N,03800.08671,E,0.815,,120625,,,A,V*1B
$GNVTG,,T,,M,0.815,N,1.509,K,A*3C

$GNGGA,134559.00,5552.32281,N,03800.08671,E,1,11,0.95,124.5,M,12.9,M,,*47
$GNGSA,A,3,01,02,32,17,03,31,,,,,,,2.18,0.95,1.96,1*0D
$GNGSA,A,3,72,87,71,88,80,,,,,,,,2.18,0.95,1.96,2*0F
$GNGSA,A,3,,,,,,,,,,,,,2.18,0.95,1.96,3*0A
$GPGSV,3,1,12,01,67,220,15,02,45,181,21,03,59,280,18,04,18,223,,0*6A
$GPGSV,3,2,12,10,01,098,,12,07,023,,17,28,294,10,19,19,322,,0*62
$GPGSV,3,3,12,25,06,054,,28,42,098,16,31,32,133,22,32,31,060,16,0*6C
$GLGSV,3,1,10,65,21,249,,70,00,063,,71,44,056,20,72,78,278,14,0*72
$GLGSV,3,2,10,73,21,080,,74,01,119,,80,21,022,17,86,15,175,,0*79
$GLGSV,3,3,10,87,53,206,22,88,43,314,29,0*7F
$GAGSV,1,1,00,0*74
$GNGLL,5552.32281,N,03800.08671,E,134559.00,A,A*76

$GNRMC,134600.00,A,5552.32277,N,03800.08721,E,0.632,,120625,,,A,V*12
$GNVTG,,T,,M,0.632,N,1.170,K,A*3D

$GNGGA,134600.00,5552.32277,N,03800.08721,E,1,11,0.95,124.9,M,12.9,M,,*49
$GNGSA,A,3,01,02,32,17,03,31,,,,,,,2.18,0.95,1.96,1*0D
$GNGSA,A,3,72,87,71,88,80,,,,,,,,2.18,0.95,1.96,2*0F
$GNGSA,A,3,,,,,,,,,,,,,2.18,0.95,1.96,3*0A
$GPGSV,3,1,12,01,67,220,15,02,45,181,21,03,59,280,19,04,19,223,,0*6A
$GPGSV,3,2,12,10,01,098,,12,07,023,,17,28,294,10,19,19,322,,0*62
$GPGSV,3,3,12,25,06,054,,28,42,098,16,31,32,133,21,32,31,060,16,0*6F
$GLGSV,3,1,10,65,21,249,,70,00,063,,71,44,056,19,72,78,278,13,0*7F
$GLGSV,3,2,10,73,21,080,,74,01,119,,80,21,022,17,86,15,175,,0*79
$GLGSV,3,3,10,87,53,206,22,88,43,314,29,0*7F
$GAGSV,1,1,00,0*74
$GNGLL,5552.32277,N,03800.08721,E,134600.00,A,A*74

$GNRMC,134601.00,A,5552.32270,N,03800.08738,E,0.687,,120625,,,A,V*12
$GNVTG,,T,,M,0.687,N,1.272,K,A*32
$GNGGA,134601.00,5552.32270,N,03800.08738,E,1,11,0.95,124.8,M,12.9,M,,*46

$GNGSA,A,3,01,02,32,17,03,31,,,,,,,2.18,0.95,1.96,1*0D
$GNGSA,A,3,72,87,71,88,80,,,,,,,,2.18,0.95,1.96,2*0F
$GNGSA,A,3,,,,,,,,,,,,,2.18,0.95,1.96,3*0A
$GPGSV,3,1,12,01,67,220,11,02,45,181,21,03,59,280,19,04,19,223,,0*6E
$GPGSV,3,2,12,10,01,098,,12,07,023,,17,28,294,10,19,19,322,,0*62
$GPGSV,3,3,12,25,06,054,,28,42,098,17,31,32,133,21,32,31,060,14,0*6C
$GLGSV,3,1,10,65,21,249,,70,00,063,,71,44,056,19,72,78,278,17,0*7B
$GLGSV,3,2,10,73,21,080,,74,01,119,,80,21,022,19,86,15,175,,0*77
$GLGSV,3,3,10,87,53,206,25,88,43,314,29,0*78
$GAGSV,1,1,00,0*74
$GNGLL,5552.32270,N,03800.08738,E,134601.00,A,A*7A

$GNRMC,134602.00,A,5552.32259,N,03800.08749,E,0.607,,120625,,,A,V*14
$GNVTG,,T,,M,0.607,N,1.124,K,A*3A

$GNGGA,134602.00,5552.32259,N,03800.08749,E,1,10,0.95,124.6,M,12.9,M,,*47
$GNGSA,A,3,02,32,17,03,31,,,,,,,,2.29,0.95,2.08,1*0A
$GNGSA,A,3,72,87,71,88,80,,,,,,,,2.29,0.95,2.08,2*09
$GNGSA,A,3,,,,,,,,,,,,,2.29,0.95,2.08,3*0C
$GPGSV,3,1,12,01,67,220,08,02,45,181,19,03,59,280,19,04,19,223,,0*6D
$GPGSV,3,2,12,10,01,098,,12,07,023,,17,28,294,09,19,19,322,,0*6A
$GPGSV,3,3,12,25,06,054,,28,42,098,17,31,32,133,20,32,31,060,14,0*6D
$GLGSV,3,1,10,65,21,249,,70,00,063,,71,44,056,19,72,78,278,21,0*7E
$GLGSV,3,2,10,73,21,080,,74,01,119,,80,21,022,18,86,15,175,,0*76
$GLGSV,3,3,10,87,53,206,23,88,43,314,30,0*76
$GAGSV,1,1,00,0*74
$GNGLL,5552.32259,N,03800.08749,E,134602.00,A,A*74

$GNRMC,134603.00,A,5552.32251,N,03800.08764,E,0.636,,120625,,,A,V*10
$GNVTG,,T,,M,0.636,N,1.177,K,A*3E

$GNGGA,134603.00,5552.32251,N,03800.08764,E,1,11,0.95,124.4,M,12.9,M,,*42
$GNGSA,A,3,01,02,32,17,03,31,,,,,,,2.18,0.95,1.96,1*0D
$GNGSA,A,3,72,87,71,88,80,,,,,,,,2.18,0.95,1.96,2*0F
$GNGSA,A,3,,,,,,,,,,,,,2.18,0.95,1.96,3*0A
$GPGSV,3,1,12,01,67,220,09,02,45,181,17,03,59,280,18,04,19,223,,0*63
$GPGSV,3,2,12,10,01,098,,12,07,023,,17,28,294,09,19,19,322,,0*6A
$GPGSV,3,3,12,25,06,054,,28,42,098,19,31,32,133,21,32,31,060,14,0*62
$GLGSV,3,1,10,65,21,249,,70,00,063,,71,44,056,20,72,78,278,22,0*77
$GLGSV,3,2,10,73,21,080,,74,01,119,,80,21,022,18,86,15,175,,0*76
$GLGSV,3,3,10,87,53,206,24,88,43,314,29,0*79
$GAGSV,1,1,00,0*74
$GNGLL,5552.32251,N,03800.08764,E,134603.00,A,A*72

$GNRMC,134604.00,A,5552.32271,N,03800.08756,E,0.721,,120625,,,A,V*13
$GNVTG,,T,,M,0.721,N,1.335,K,A*3D

$GNGGA,134604.00,5552.32271,N,03800.08756,E,1,11,0.95,124.4,M,12.9,M,,*46
$GNGSA,A,3,01,02,32,17,03,31,,,,,,,2.18,0.95,1.96,1*0D
$GNGSA,A,3,72,87,71,88,80,,,,,,,,2.18,0.95,1.96,2*0F
$GNGSA,A,3,,,,,,,,,,,,,2.18,0.95,1.96,3*0A
$GPGSV,3,1,12,01,67,220,11,02,45,181,16,03,59,280,19,04,19,223,,0*6A
$GPGSV,3,2,12,10,01,098,,12,07,023,,17,28,294,09,19,19,322,,0*6A
$GPGSV,3,3,12,25,06,054,,28,42,098,19,31,32,133,21,32,31,060,20,0*65
$GLGSV,3,1,10,65,21,249,,70,00,063,,71,44,056,21,72,78,278,21,0*75
$GLGSV,3,2,10,73,21,080,,74,01,119,,80,21,022,18,86,15,175,,0*76
$GLGSV,3,3,10,87,53,206,25,88,43,314,25,0*74
$GAGSV,1,1,00,0*74
$GNGLL,5552.32271,N,03800.08756,E,134604.00,A,A*76

$GNRMC,134605.00,A,5552.32267,N,03800.08738,E,0.406,,120625,,,A,V*1B
$GNVTG,,T,,M,0.406,N,0.752,K,A*3F

$GNGGA,134605.00,5552.32267,N,03800.08738,E,1,11,0.95,124.6,M,12.9,M,,*4A
$GNGSA,A,3,01,02,32,17,03,31,,,,,,,2.18,0.95,1.96,1*0D
$GNGSA,A,3,72,87,71,88,80,,,,,,,,2.18,0.95,1.96,2*0F
$GNGSA,A,3,,,,,,,,,,,,,2.18,0.95,1.96,3*0A
$GPGSV,3,1,12,01,67,220,11,02,45,181,15,03,59,280,17,04,19,223,,0*67
$GPGSV,3,2,12,10,01,098,,12,07,023,,17,28,294,09,19,19,322,,0*6A
$GPGSV,3,3,12,25,06,054,,28,42,098,17,31,32,133,22,32,31,060,21,0*69
$GLGSV,3,1,10,65,21,249,,70,00,063,,71,44,056,19,72,78,278,19,0*75
$GLGSV,3,2,10,73,21,080,,74,01,119,,80,21,022,22,86,15,175,,0*7F
$GLGSV,3,3,10,87,53,206,25,88,43,314,24,0*75
$GAGSV,1,1,00,0*74
$GNGLL,5552.32267,N,03800.08738,E,134605.00,A,A*78

$GNRMC,134606.00,A,5552.32257,N,03800.08675,E,0.308,,120625,,,A,V*1A
$GNVTG,,T,,M,0.308,N,0.570,K,A*34

$GNGGA,134606.00,5552.32257,N,03800.08675,E,1,09,1.19,124.4,M,12.9,M,,*4C
$GNGSA,A,3,02,32,03,31,,,,,,,,,2.99,1.19,2.74,1*09
$GNGSA,A,3,72,87,71,88,80,,,,,,,,2.99,1.19,2.74,2*0C
$GNGSA,A,3,,,,,,,,,,,,,2.99,1.19,2.74,3*09
$GPGSV,3,1,12,01,67,220,12,02,45,181,15,03,59,280,17,04,19,223,,0*64
$GPGSV,3,2,12,10,01,099,,12,07,023,,17,28,294,,19,19,322,,0*62
$GPGSV,3,3,12,25,06,054,,28,42,098,14,31,32,133,24,32,31,060,23,0*6E
$GLGSV,3,1,10,65,21,249,,70,00,063,,71,44,056,17,72,78,278,19,0*7B
$GLGSV,3,2,10,73,21,080,,74,01,119,,80,21,022,22,86,15,175,,0*7F
$GLGSV,3,3,10,87,53,206,25,88,43,314,23,0*72
$GAGSV,1,1,00,0*74
$GNGLL,5552.32257,N,03800.08675,E,134606.00,A,A*70

$GNRMC,134607.00,A,5552.32263,N,03800.08650,E,0.410,,120625,,,A,V*15
$GNVTG,,T,,M,0.410,N,0.760,K,A*39

$GNGGA,134607.00,5552.32263,N,03800.08650,E,1,10,1.19,124.1,M,12.9,M,,*40
$GNGSA,A,3,01,02,32,03,31,,,,,,,,2.87,1.19,2.61,1*03
$GNGSA,A,3,72,87,71,88,80,,,,,,,,2.87,1.19,2.61,2*07
$GNGSA,A,3,,,,,,,,,,,,,2.87,1.19,2.61,3*02
$GPGSV,3,1,12,01,67,220,12,02,45,181,16,03,59,280,16,04,19,223,,0*66
$GPGSV,3,2,12,10,01,099,,12,07,023,,17,28,294,21,19,19,322,,0*61
$GPGSV,3,3,12,25,06,054,,28,42,098,,31,32,133,24,32,31,060,23,0*6B
$GLGSV,3,1,10,65,21,249,,70,00,063,,71,44,056,18,72,78,278,19,0*74
$GLGSV,3,2,10,73,21,080,,74,01,119,,80,21,022,20,86,15,175,,0*7D
$GLGSV,3,3,10,87,53,206,26,88,43,314,22,0*70
$GAGSV,1,1,00,0*74
$GNGLL,5552.32263,N,03800.08650,E,134607.00,A,A*71

$GNRMC,134608.00,A,5552.32286,N,03800.08685,E,0.885,,120625,,,A,V*19
$GNVTG,,T,,M,0.885,N,1.639,K,A*35
$GNGGA,134608.00,5552.32286,N,03800.08685,E,1,10,1.19,124.0,M,12.9,M,,*4D

$GNGSA,A,3,01,02,32,03,31,,,,,,,,2.87,1.19,2.61,1*03
$GNGSA,A,3,72,87,71,88,80,,,,,,,,2.87,1.19,2.61,2*07
$GNGSA,A,3,,,,,,,,,,,,,2.87,1.19,2.61,3*02
$GPGSV,3,1,12,01,67,220,09,02,45,181,16,03,59,280,14,04,19,223,,0*6E
$GPGSV,3,2,12,10,01,099,,12,07,022,,17,28,294,20,19,19,322,,0*61
$GPGSV,3,3,12,25,06,054,,28,42,098,,31,32,133,25,32,31,060,21,0*68
$GLGSV,3,1,10,65,21,249,,70,00,063,,71,44,056,18,72,78,278,19,0*74
$GLGSV,3,2,10,73,21,080,,74,01,119,,80,21,022,17,86,15,175,,0*79
$GLGSV,3,3,10,87,53,206,26,88,43,314,23,0*71
$GAGSV,1,1,00,0*74
$GNGLL,5552.32286,N,03800.08685,E,134608.00,A,A*7D

$GNRMC,134609.00,A,5552.32301,N,03800.08702,E,0.899,,120625,,,A,V*15
$GNVTG,,T,,M,0.899,N,1.665,K,A*31

$GNGGA,134609.00,5552.32301,N,03800.08702,E,1,10,1.19,124.1,M,12.9,M,,*4D
$GNGSA,A,3,01,02,32,03,31,,,,,,,,2.87,1.19,2.61,1*03
$GNGSA,A,3,72,87,71,88,80,,,,,,,,2.87,1.19,2.61,2*07
$GNGSA,A,3,,,,,,,,,,,,,2.87,1.19,2.61,3*02
$GPGSV,3,1,12,01,67,220,09,02,45,181,17,03,59,280,14,04,19,223,,0*6F
$GPGSV,3,2,12,10,01,099,,12,07,022,,17,28,294,18,19,19,322,,0*6A
$GPGSV,3,3,12,25,06,054,,28,42,098,,31,32,133,24,32,31,060,21,0*69
$GLGSV,3,1,10,65,21,249,,70,00,063,,71,44,056,18,72,78,278,20,0*7E
$GLGSV,3,2,10,73,21,080,,74,01,119,,80,21,022,19,86,15,175,,0*77
$GLGSV,3,3,10,87,53,206,25,88,43,314,22,0*73
$GAGSV,1,1,00,0*74
$GNGLL,5552.32301,N,03800.08702,E,134609.00,A,A*7C

$GNRMC,134610.00,A,5552.32302,N,03800.08751,E,0.751,,120625,,,A,V*13
$GNVTG,,T,,M,0.751,N,1.392,K,A*37

$GNGGA,134610.00,5552.32302,N,03800.08751,E,1,11,0.95,124.9,M,12.9,M,,*4C
$GNGSA,A,3,01,02,32,17,03,31,,,,,,,2.18,0.95,1.96,1*0D
$GNGSA,A,3,72,87,71,88,80,,,,,,,,2.18,0.95,1.96,2*0F
$GNGSA,A,3,,,,,,,,,,,,,2.18,0.95,1.96,3*0A
$GPGSV,3,1,12,01,67,220,09,02,45,181,16,03,59,280,14,04,19,223,,0*6E
$GPGSV,3,2,12,10,01,099,,12,07,022,,17,28,294,17,19,19,322,,0*65
$GPGSV,3,3,12,25,06,054,,28,42,098,,31,32,133,25,32,31,060,22,0*6B
$GLGSV,3,1,10,65,21,249,,70,00,063,,71,44,056,20,72,78,278,21,0*74
$GLGSV,3,2,10,73,21,080,,74,01,119,,80,21,022,18,86,15,175,,0*76
$GLGSV,3,3,10,87,53,206,25,88,43,314,21,0*70
$GAGSV,1,1,00,0*74
$GNGLL,5552.32302,N,03800.08751,E,134610.00,A,A*71

$GNRMC,134611.00,A,5552.32302,N,03800.08785,E,0.614,,120625,,,A,V*1B
$GNVTG,,T,,M,0.614,N,1.136,K,A*3B

$GNGGA,134611.00,5552.32302,N,03800.08785,E,1,11,0.95,125.6,M,12.9,M,,*4A
$GNGSA,A,3,01,02,32,17,03,31,,,,,,,2.18,0.95,1.96,1*0D
$GNGSA,A,3,72,87,71,88,80,,,,,,,,2.18,0.95,1.96,2*0F
$GNGSA,A,3,,,,,,,,,,,,,2.18,0.95,1.96,3*0A
$GPGSV,3,1,12,01,67,220,09,02,45,181,17,03,59,280,15,04,19,223,,0*6E
$GPGSV,3,2,12,10,01,099,,12,07,022,,17,28,294,15,19,19,322,,0*67
$GPGSV,3,3,12,25,06,054,,28,42,098,,31,32,133,25,32,31,060,22,0*6B
$GLGSV,3,1,10,65,21,249,,70,00,063,,71,44,056,19,72,78,278,20,0*7F
$GLGSV,3,2,10,73,21,080,,74,01,119,,80,21,022,18,86,15,175,,0*76
$GLGSV,3,3,10,87,53,206,25,88,43,314,20,0*71
$GAGSV,1,1,00,0*74
$GNGLL,5552.32302,N,03800.08785,E,134611.00,A,A*79

$GNRMC,134612.00,A,5552.32330,N,03800.08838,E,0.945,,120625,,,A,V*1B
$GNVTG,,T,,M,0.945,N,1.749,K,A*3E

$GNGGA,134612.00,5552.32330,N,03800.08838,E,1,11,0.95,126.1,M,12.9,M,,*45
$GNGSA,A,3,01,02,32,17,03,31,,,,,,,2.18,0.95,1.96,1*0D
$GNGSA,A,3,72,87,71,88,80,,,,,,,,2.18,0.95,1.96,2*0F
$GNGSA,A,3,,,,,,,,,,,,,2.18,0.95,1.96,3*0A
$GPGSV,3,1,12,01,67,220,09,02,45,181,19,03,59,280,17,04,19,223,,0*62
$GPGSV,3,2,12,10,01,099,,12,07,022,,17,28,294,16,19,19,322,,0*64
$GPGSV,3,3,12,25,06,054,,28,42,098,,31,32,133,26,32,31,060,20,0*6A
$GLGSV,3,1,10,65,21,249,,70,00,063,,71,44,056,20,72,78,278,19,0*7F
$GLGSV,3,2,10,73,21,080,,74,01,119,,80,21,022,17,86,15,175,,0*79
$GLGSV,3,3,10,87,53,206,25,88,43,314,19,0*7B
$GAGSV,1,1,00,0*74

$GNGLL,5552.32330,N,03800.08838,E,134612.00,A,A*72

$GNRMC,134613.00,A,5552.32315,N,03800.08901,E,0.489,,120625,,,A,V*1B
$GNVTG,,T,,M,0.489,N,0.906,K,A*37

$GNGGA,134613.00,5552.32315,N,03800.08901,E,1,11,0.95,126.7,M,12.9,M,,*4E
$GNGSA,A,3,01,02,32,17,03,31,,,,,,,2.18,0.95,1.96,1*0D
$GNGSA,A,3,72,87,71,88,80,,,,,,,,2.18,0.95,1.96,2*0F
$GNGSA,A,3,,,,,,,,,,,,,2.18,0.95,1.96,3*0A
$GPGSV,3,1,12,01,67,220,09,02,45,181,20,03,59,280,16,04,19,223,,0*69
$GPGSV,3,2,12,10,01,099,,12,07,022,,17,28,294,15,19,19,322,,0*67
$GPGSV,3,3,12,25,06,054,,28,42,098,,31,32,133,23,32,31,060,19,0*65
$GLGSV,3,1,10,65,21,249,,70,00,063,,71,44,056,21,72,78,278,19,0*7E
$GLGSV,3,2,10,73,21,080,,74,01,119,,80,21,022,16,86,15,175,,0*78
$GLGSV,3,3,10,87,53,206,24,88,43,314,19,0*7A
$GAGSV,1,1,00,0*74
$GNGLL,5552.32315,N,03800.08901,E,134613.00,A,A*7F

$GNRMC,134614.00,A,5552.32328,N,03800.08927,E,0.731,,120625,,,A,V*16
$GNVTG,,T,,M,0.731,N,1.354,K,A*3B

$GNGGA,134614.00,5552.32328,N,03800.08927,E,1,11,0.95,126.9,M,12.9,M,,*4D
$GNGSA,A,3,01,02,32,17,03,31,,,,,,,2.18,0.95,1.96,1*0D
$GNGSA,A,3,72,87,71,88,80,,,,,,,,2.18,0.95,1.96,2*0F
$GNGSA,A,3,,,,,,,,,,,,,2.18,0.95,1.96,3*0A
$GPGSV,3,1,12,01,67,220,14,02,45,181,22,03,59,280,17,04,19,223,,0*66
$GPGSV,3,2,12,10,01,099,,12,07,022,,17,28,294,15,19,19,322,,0*67
$GPGSV,3,3,12,25,06,054,,28,42,098,,31,32,133,23,32,31,060,17,0*6B
$GLGSV,3,1,10,65,21,249,,70,00,063,,71,44,056,21,72,78,278,21,0*75
$GLGSV,3,2,10,73,21,080,,74,01,119,,80,21,022,15,86,15,175,,0*7B
$GLGSV,3,3,10,87,53,206,23,88,43,314,19,0*7D
$GAGSV,1,1,00,0*74
$GNGLL,5552.32328,N,03800.08927,E,134614.00,A,A*72

$GNRMC,134615.00,A,5552.32347,N,03800.09002,E,1.060,,120625,,,A,V*13
$GNVTG,,T,,M,1.060,N,1.963,K,A*37

$GNGGA,134615.00,5552.32347,N,03800.09002,E,1,11,0.95,127.2,M,12.9,M,,*40
$GNGSA,A,3,01,02,32,17,03,31,,,,,,,2.18,0.95,1.96,1*0D
$GNGSA,A,3,72,87,71,88,80,,,,,,,,2.18,0.95,1.96,2*0F
$GNGSA,A,3,,,,,,,,,,,,,2.18,0.95,1.96,3*0A
$GPGSV,3,1,12,01,67,220,14,02,45,181,21,03,59,280,17,04,19,223,,0*65
$GPGSV,3,2,12,10,01,099,,12,07,022,,17,28,294,14,19,19,322,,0*66
$GPGSV,3,3,12,25,06,054,,28,42,098,,31,32,133,23,32,31,060,20,0*6F
$GLGSV,3,1,10,65,21,249,,70,00,063,,71,44,056,21,72,78,278,21,0*75
$GLGSV,3,2,10,73,21,080,,74,01,119,,80,21,022,16,86,15,175,,0*78
$GLGSV,3,3,10,87,53,206,23,88,43,314,18,0*7C
$GAGSV,1,1,00,0*74
$GNGLL,5552.32347,N,03800.09002,E,134615.00,A,A*75

$GNRMC,134616.00,A,5552.32379,N,03800.09020,E,1.030,,120625,,,A,V*18
$GNVTG,,T,,M,1.030,N,1.908,K,A*3F

$GNGGA,134616.00,5552.32379,N,03800.09020,E,1,11,0.95,127.8,M,12.9,M,,*44
$GNGSA,A,3,01,02,32,17,03,31,,,,,,,2.18,0.95,1.96,1*0D
$GNGSA,A,3,72,87,71,88,80,,,,,,,,2.18,0.95,1.96,2*0F
$GNGSA,A,3,,,,,,,,,,,,,2.18,0.95,1.96,3*0A
$GPGSV,3,1,12,01,67,220,14,02,45,181,19,03,59,280,16,04,19,223,,0*6F
$GPGSV,3,2,12,10,01,099,,12,07,022,,17,28,294,14,19,19,322,,0*66
$GPGSV,3,3,12,25,06,054,,28,42,098,20,31,32,133,24,32,31,060,25,0*6F
$GLGSV,3,1,10,65,21,249,,70,00,063,,71,44,056,19,72,78,278,21,0*7E
$GLGSV,3,2,10,73,21,080,,74,01,119,,80,21,022,17,86,15,175,,0*79
$GLGSV,3,3,10,87,53,206,25,88,43,314,18,0*7A
$GAGSV,1,1,00,0*74
$GNGLL,5552.32379,N,03800.09020,E,134616.00,A,A*7B

$GNRMC,134617.00,A,5552.32406,N,03800.09082,E,1.202,,120625,,,A,V*1D
$GNVTG,,T,,M,1.202,N,2.226,K,A*38

$GNGGA,134617.00,5552.32406,N,03800.09082,E,1,11,0.95,128.3,M,12.9,M,,*46
$GNGSA,A,3,01,02,32,17,03,31,,,,,,,2.18,0.95,1.96,1*0D
$GNGSA,A,3,72,87,71,88,80,,,,,,,,2.18,0.95,1.96,2*0F
$GNGSA,A,3,,,,,,,,,,,,,2.18,0.95,1.96,3*0A
$GPGSV,3,1,12,01,67,220,14,02,45,181,18,03,59,280,17,04,19,223,,0*6F
$GPGSV,3,2,12,10,01,099,,12,07,022,,17,28,294,13,19,19,322,,0*61
$GPGSV,3,3,12,25,06,054,,28,42,098,17,31,32,133,25,32,31,060,25,0*6A
$GLGSV,3,1,10,65,21,249,,70,00,063,,71,44,056,20,72,78,278,20,0*75
$GLGSV,3,2,10,73,21,080,,74,01,119,,80,21,022,18,86,15,175,,0*76
$GLGSV,3,3,10,87,53,206,24,88,43,314,19,0*7A
$GAGSV,1,1,00,0*74
$GNGLL,5552.32406,N,03800.09082,E,134617.00,A,A*7D

$GNRMC,134618.00,A,5552.32413,N,03800.09106,E,0.802,,120625,,,A,V*10
$GNVTG,,T,,M,0.802,N,1.485,K,A*3F
$GNGGA,134618.00,5552.32413,N,03800.09106,E,1,11,0.95,128.7,M,12.9,M,,*44
$GNGSA,A,3,01,02,32,17,03,31,,,,,,,2.18,0.95,1.96,1*0D
$GNGSA,A,3,72,87,71,88,80,,,,,,,,2.18,0.95,1.96,2*0F
$GNGSA,A,3,,,,,,,,,,,,,2.18,0.95,1.96,3*0A

$GPGSV,3,1,12,01,67,220,14,02,45,181,19,03,59,280,16,04,19,223,,0*6F
$GPGSV,3,2,12,10,01,099,,12,07,022,,17,28,294,11,19,19,322,,0*63
$GPGSV,3,3,12,25,06,054,,28,42,098,15,31,32,133,25,32,31,060,24,0*69
$GLGSV,3,1,10,65,21,249,,70,00,063,,71,44,056,28,72,78,278,19,0*77
$GLGSV,3,2,10,73,21,080,21,74,01,119,,80,21,022,17,86,15,175,,0*7A
$GLGSV,3,3,10,87,53,206,23,88,43,314,18,0*7C
$GAGSV,1,1,00,0*74
$GNGLL,5552.32413,N,03800.09106,E,134618.00,A,A*7B

$GNRMC,134619.00,A,5552.32436,N,03800.09136,E,1.009,,120625,,,A,V*17
$GNVTG,,T,,M,1.009,N,1.868,K,A*32
$GNGGA,134619.00,5552.32436,N,03800.09136,E,1,11,0.95,128.9,M,12.9,M,,*4F

$GNGSA,A,3,01,02,32,17,03,31,,,,,,,2.18,0.95,1.96,1*0D
$GNGSA,A,3,72,87,71,88,80,,,,,,,,2.18,0.95,1.96,2*0F
$GNGSA,A,3,,,,,,,,,,,,,2.18,0.95,1.96,3*0A
$GPGSV,3,1,12,01,67,220,14,02,45,181,20,03,59,280,20,04,19,223,,0*60
$GPGSV,3,2,12,10,01,099,,12,07,022,,17,28,294,12,19,19,322,,0*60
$GPGSV,3,3,12,25,06,054,,28,42,098,11,31,32,133,23,32,31,060,22,0*6D
$GLGSV,3,1,10,65,21,249,,70,00,063,,71,44,056,18,72,78,278,19,0*74
$GLGSV,3,2,10,73,21,080,,74,01,119,,80,21,022,16,86,15,175,,0*78
$GLGSV,3,3,10,87,53,206,23,88,43,314,19,0*7D
$GAGSV,1,1,00,0*74
$GNGLL,5552.32436,N,03800.09136,E,134619.00,A,A*7E

$GNRMC,134620.00,A,5552.32442,N,03800.09160,E,0.834,,120625,,,A,V*1A
$GNVTG,,T,,M,0.834,N,1.545,K,A*37
$GNGGA,134620.00,5552.32442,N,03800.09160,E,1,11,1.19,128.7,M,12.9,M,,*4E
$GNGSA,A,3,01,02,32,17,03,31,,,,,,,2.87,1.19,2.61,1*05

$GNGSA,A,3,72,87,71,88,80,,,,,,,,2.87,1.19,2.61,2*07
$GNGSA,A,3,,,,,,,,,,,,,2.87,1.19,2.61,3*02
$GPGSV,3,1,12,01,67,220,12,02,45,181,21,03,59,280,17,04,19,223,,0*63
$GPGSV,3,2,12,10,01,099,,12,07,022,,17,28,294,14,19,19,322,,0*66
$GPGSV,3,3,12,25,06,054,,28,42,098,08,31,32,133,20,32,31,060,21,0*65
$GLGSV,3,1,10,65,21,249,,70,00,063,,71,44,056,20,72,78,278,19,0*7F
$GLGSV,3,2,10,73,21,080,20,74,01,119,,80,21,022,17,86,15,175,,0*7B
$GLGSV,3,3,10,87,53,206,23,88,43,314,23,0*74
$GAGSV,1,1,00,0*74
$GNGLL,5552.32442,N,03800.09160,E,134620.00,A,A*74

$GNRMC,134621.00,A,5552.32473,N,03800.09161,E,1.050,,120625,,,A,V*13
$GNVTG,,T,,M,1.050,N,1.944,K,A*31

$GNGGA,134621.00,5552.32473,N,03800.09161,E,1,10,1.20,128.4,M,12.9,M,,*44
$GNGSA,A,3,02,32,17,03,31,,,,,,,,2.99,1.20,2.74,1*05
$GNGSA,A,3,72,87,71,88,80,,,,,,,,2.99,1.20,2.74,2*06
$GNGSA,A,3,,,,,,,,,,,,,2.99,1.20,2.74,3*03
$GPGSV,3,1,12,01,67,220,,02,45,181,20,03,59,280,19,04,19,223,,0*6F
$GPGSV,3,2,12,10,01,099,,12,07,022,,17,28,294,14,19,19,322,,0*66
$GPGSV,3,3,12,25,06,053,,28,42,098,08,31,32,133,19,32,31,060,19,0*63
$GLGSV,3,1,10,65,21,249,,70,00,063,,71,44,056,21,72,78,278,20,0*74
$GLGSV,3,2,10,73,21,080,,74,01,119,,80,21,022,16,86,15,175,,0*78
$GLGSV,3,3,10,87,53,206,22,88,43,314,21,0*77
$GAGSV,1,1,00,0*74
$GNGLL,5552.32473,N,03800.09161,E,134621.00,A,A*76

$GNRMC,134622.00,A,5552.32465,N,03800.09180,E,0.538,,120625,,,A,V*12
$GNVTG,,T,,M,0.538,N,0.996,K,A*35

$GNGGA,134622.00,5552.32465,N,03800.09180,E,1,10,0.95,128.5,M,12.9,M,,*41
$GNGSA,A,3,02,32,17,03,31,,,,,,,,2.28,0.95,2.07,1*04
$GNGSA,A,3,72,87,71,88,80,,,,,,,,2.28,0.95,2.07,2*07
$GNGSA,A,3,,,,,,,,,,,,,2.28,0.95,2.07,3*02
$GPGSV,3,1,12,01,67,220,17,02,45,181,19,03,59,280,22,04,19,223,,0*6B
$GPGSV,3,2,12,10,01,099,,12,07,022,,17,28,294,14,19,19,322,,0*66
$GPGSV,3,3,12,25,06,053,,28,42,098,07,31,32,133,21,32,31,060,21,0*6C
$GLGSV,3,1,10,65,21,249,,70,00,063,,71,44,056,22,72,78,278,20,0*77
$GLGSV,3,2,10,73,21,080,,74,01,119,,80,21,022,17,86,15,175,,0*79
$GLGSV,3,3,10,87,53,206,20,88,43,314,20,0*74
$GAGSV,1,1,00,0*74
$GNGLL,5552.32465,N,03800.09180,E,134622.00,A,A*7D

$GNRMC,134623.00,A,5552.32480,N,03800.09141,E,0.696,,120625,,,A,V*12
$GNVTG,,T,,M,0.696,N,1.288,K,A*37
$GNGGA,134623.00,5552.32480,N,03800.09141,E,1,10,0.95,129.1,M,12.9,M,,*43
$GNGSA,A,3,02,32,17,03,31,,,,,,,,2.28,0.95,2.07,1*04
$GNGSA,A,3,72,87,71,88,80,,,,,,,,2.28,0.95,2.07,2*07
$GNGSA,A,3,,,,,,,,,,,,,2.28,0.95,2.07,3*02

$GPGSV,3,1,12,01,67,220,16,02,45,181,19,03,59,280,23,04,19,223,,0*6B
$GPGSV,3,2,12,10,01,099,,12,07,022,,17,28,294,12,19,19,322,,0*60
$GPGSV,3,3,12,25,06,053,,28,42,098,06,31,32,133,22,32,31,060,19,0*65
$GLGSV,3,1,10,65,21,249,,70,00,063,,71,44,056,20,72,78,278,19,0*7F
$GLGSV,3,2,10,73,21,080,,74,01,119,,80,21,022,20,86,15,175,,0*7D
$GLGSV,3,3,10,87,53,206,20,88,43,314,19,0*7E
$GAGSV,1,1,00,0*74
$GNGLL,5552.32480,N,03800.09141,E,134623.00,A,A*7A

$GNRMC,134624.00,A,5552.32465,N,03800.09099,E,0.714,,120625,,,A,V*11
$GNVTG,,T,,M,0.714,N,1.321,K,A*3E

$GNGGA,134624.00,5552.32465,N,03800.09099,E,1,09,1.20,129.0,M,12.9,M,,*4D
$GNGSA,A,3,02,32,03,31,,,,,,,,,2.99,1.20,2.74,1*03
$GNGSA,A,3,72,87,71,88,80,,,,,,,,2.99,1.20,2.74,2*06
$GNGSA,A,3,,,,,,,,,,,,,2.99,1.20,2.74,3*03
$GPGSV,3,1,12,01,67,220,17,02,45,181,20,03,59,280,22,04,19,223,,0*61
$GPGSV,3,2,12,10,01,099,,12,07,022,,17,28,294,08,19,19,322,,0*6B
$GPGSV,3,3,12,25,06,053,,28,42,097,08,31,32,133,21,32,31,060,17,0*69
$GLGSV,3,1,10,65,21,249,,70,00,063,,71,44,056,18,72,78,278,19,0*74
$GLGSV,3,2,10,73,21,080,20,74,01,119,,80,21,022,25,86,15,175,,0*7A
$GLGSV,3,3,10,87,53,206,23,88,43,314,22,0*75
$GAGSV,1,1,00,0*74
$GNGLL,5552.32465,N,03800.09099,E,134624.00,A,A*72

$GNRMC,134625.00,A,5552.32436,N,03800.09113,E,0.568,,120625,,,A,V*1C
$GNVTG,,T,,M,0.568,N,1.053,K,A*31

$GNGGA,134625.00,5552.32436,N,03800.09113,E,1,09,1.20,128.7,M,12.9,M,,*4F
$GNGSA,A,3,02,32,03,31,,,,,,,,,2.99,1.20,2.74,1*03
$GNGSA,A,3,72,87,71,88,80,,,,,,,,2.99,1.20,2.74,2*06
$GNGSA,A,3,,,,,,,,,,,,,2.99,1.20,2.74,3*03
$GPGSV,3,1,12,01,67,220,15,02,45,181,20,03,59,280,22,04,19,223,,0*63
$GPGSV,3,2,12,10,01,099,,12,07,022,16,17,28,294,07,19,19,322,,0*63
$GPGSV,3,3,12,25,06,053,,28,42,097,08,31,32,133,20,32,31,060,14,0*6B
$GLGSV,3,1,10,65,21,249,,70,00,063,,71,44,056,17,72,78,278,19,0*7B
$GLGSV,3,2,10,73,21,080,19,74,01,119,,80,21,022,26,86,15,175,,0*73
$GLGSV,3,3,10,87,53,206,22,88,43,314,23,0*75
$GAGSV,1,1,00,0*74
$GNGLL,5552.32436,N,03800.09113,E,134625.00,A,A*76

$GNRMC,134626.00,A,5552.32428,N,03800.09123,E,0.415,,120625,,,A,V*18
$GNVTG,,T,,M,0.415,N,0.768,K,A*34

$GNGGA,134626.00,5552.32428,N,03800.09123,E,1,10,1.02,128.7,M,12.9,M,,*48
$GNGSA,A,3,01,02,17,03,31,,,,,,,,2.21,1.02,1.96,1*09
$GNGSA,A,3,72,87,71,88,80,,,,,,,,2.21,1.02,1.96,2*0A
$GNGSA,A,3,,,,,,,,,,,,,2.21,1.02,1.96,3*0F
$GPGSV,3,1,12,01,67,220,15,02,45,181,19,03,59,280,21,04,19,223,,0*6A
$GPGSV,3,2,12,10,01,099,,12,07,022,14,17,28,294,16,19,19,322,,0*61
$GPGSV,3,3,12,25,06,053,,28,42,097,14,31,32,133,21,32,31,060,12,0*61
$GLGSV,3,1,10,65,21,249,,70,00,063,,71,44,056,22,72,78,278,21,0*76
$GLGSV,3,2,10,73,21,080,20,74,01,119,,80,21,022,23,86,15,175,,0*7C
$GLGSV,3,3,10,87,53,206,19,88,43,314,22,0*7C
$GAGSV,1,1,00,0*74
$GNGLL,5552.32428,N,03800.09123,E,134626.00,A,A*79

$GNRMC,134627.00,A,5552.32392,N,03800.09147,E,1.022,,120625,,,A,V*1C
$GNVTG,,T,,M,1.022,N,1.893,K,A*3F

$GNGGA,134627.00,5552.32392,N,03800.09147,E,1,10,1.02,128.4,M,12.9,M,,*4E
$GNGSA,A,3,01,02,17,03,31,,,,,,,,2.21,1.02,1.96,1*09
$GNGSA,A,3,72,87,71,88,80,,,,,,,,2.21,1.02,1.96,2*0A
$GNGSA,A,3,,,,,,,,,,,,,2.21,1.02,1.96,3*0F
$GPGSV,3,1,12,01,67,220,17,02,45,181,18,03,59,280,20,04,19,223,,0*68
$GPGSV,3,2,12,10,01,099,,12,07,022,13,17,28,294,16,19,19,322,,0*66
$GPGSV,3,3,12,25,06,053,,28,42,097,17,31,33,133,23,32,31,060,09,0*6B
$GLGSV,3,1,10,65,21,249,,70,00,063,,71,44,056,24,72,78,278,19,0*7B
$GLGSV,3,2,10,73,21,080,19,74,01,119,,80,21,022,23,86,15,175,,0*76
$GLGSV,3,3,10,87,53,206,15,88,43,314,20,0*72
$GAGSV,1,1,00,0*74
$GNGLL,5552.32392,N,03800.09147,E,134627.00,A,A*7C

$GNRMC,134628.00,A,5552.32405,N,03800.09225,E,0.544,,120625,,,A,V*19
$GNVTG,,T,,M,0.544,N,1.008,K,A*31
$GNGGA,134628.00,5552.32405,N,03800.09225,E,1,11,0.95,128.5,M,12.9,M,,*40
$GNGSA,A,3,01,02,32,17,03,31,,,,,,,2.18,0.95,1.96,1*0D
$GNGSA,A,3,72,87,71,88,80,,,,,,,,2.18,0.95,1.96,2*0F
$GNGSA,A,3,,,,,,,,,,,,,2.18,0.95,1.96,3*0A

$GPGSV,3,1,12,01,67,220,16,02,45,181,18,03,59,280,22,04,19,223,,0*6B
$GPGSV,3,2,12,10,01,099,,12,07,022,14,17,28,294,16,19,19,322,,0*61
$GPGSV,3,3,12,25,06,053,,28,42,097,19,31,33,133,24,32,31,060,11,0*6B
$GLGSV,3,1,10,65,21,249,,70,00,063,,71,44,056,24,72,78,278,20,0*71
$GLGSV,3,2,10,73,21,080,18,74,01,119,,80,21,022,22,86,15,175,,0*76
$GLGSV,3,3,10,87,53,206,14,88,43,314,19,0*79
$GAGSV,1,1,00,0*74
$GNGLL,5552.32405,N,03800.09225,E,134628.00,A,A*7D

$GNRMC,134629.00,A,5552.32406,N,03800.09296,E,0.576,,120625,,,A,V*12
$GNVTG,,T,,M,0.576,N,1.068,K,A*36

$GNGGA,134629.00,5552.32406,N,03800.09296,E,1,11,0.95,128.5,M,12.9,M,,*4A
$GNGSA,A,3,01,02,32,17,03,31,,,,,,,2.18,0.95,1.96,1*0D
$GNGSA,A,3,72,87,71,88,80,,,,,,,,2.18,0.95,1.96,2*0F
$GNGSA,A,3,,,,,,,,,,,,,2.18,0.95,1.96,3*0A
$GPGSV,3,1,12,01,67,220,16,02,45,181,16,03,59,280,21,04,19,223,,0*66
$GPGSV,3,2,12,10,01,099,,12,07,022,14,17,28,294,16,19,19,322,,0*61
$GPGSV,3,3,12,25,06,053,,28,42,097,19,31,33,133,23,32,31,060,11,0*6C
$GLGSV,3,1,10,65,21,249,,70,00,063,,71,44,056,23,72,78,278,20,0*76
$GLGSV,3,2,10,73,21,080,16,74,01,119,,80,21,022,20,86,15,175,,0*7A
$GLGSV,3,3,10,87,53,206,15,88,43,314,19,0*78
$GAGSV,1,1,00,0*74
$GNGLL,5552.32406,N,03800.09296,E,134629.00,A,A*77

$GNRMC,134630.00,A,5552.32417,N,03800.09318,E,0.289,,120625,,,A,V*1A
$GNVTG,,T,,M,0.289,N,0.534,K,A*3C

$GNGGA,134630.00,5552.32417,N,03800.09318,E,1,11,0.95,128.4,M,12.9,M,,*44
$GNGSA,A,3,01,02,32,17,03,31,,,,,,,2.18,0.95,1.96,1*0D
$GNGSA,A,3,72,87,71,88,80,,,,,,,,2.18,0.95,1.96,2*0F
$GNGSA,A,3,,,,,,,,,,,,,2.18,0.95,1.96,3*0A
$GPGSV,3,1,12,01,67,220,16,02,45,181,16,03,59,280,22,04,19,223,,0*65
$GPGSV,3,2,12,10,01,099,,12,07,022,13,17,28,294,16,19,19,322,21,0*65
$GPGSV,3,3,12,25,06,053,,28,42,097,19,31,33,133,24,32,31,060,11,0*6B
$GLGSV,3,1,10,65,21,249,,70,00,063,,71,44,056,22,72,78,278,19,0*7D
$GLGSV,3,2,10,73,21,080,16,74,01,119,,80,21,022,19,86,15,175,,0*70
$GLGSV,3,3,10,87,53,206,14,88,43,314,18,0*78
$GAGSV,1,1,00,0*74
$GNGLL,5552.32417,N,03800.09318,E,134630.00,A,A*78

$GNRMC,134631.00,A,5552.32425,N,03800.09293,E,0.333,,120625,,,A,V*18
$GNVTG,,T,,M,0.333,N,0.616,K,A*3F

$GNGGA,134631.00,5552.32425,N,03800.09293,E,1,11,0.95,128.6,M,12.9,M,,*44
$GNGSA,A,3,01,02,32,17,03,31,,,,,,,2.18,0.95,1.96,1*0D
$GNGSA,A,3,72,87,71,88,80,,,,,,,,2.18,0.95,1.96,2*0F
$GNGSA,A,3,,,,,,,,,,,,,2.18,0.95,1.96,3*0A
$GPGSV,3,1,12,01,67,220,16,02,45,181,16,03,59,280,23,04,19,223,,0*64
$GPGSV,3,2,12,10,01,099,,12,07,022,12,17,28,294,16,19,19,322,20,0*65
