$GNTXT,01,01,02,u-blox AG - www.u-blox.com*4E

$GNTXT,01,01,02,HW UBX-M8030 00080000*60
$GNTXT,01,01,02,ROM CORE 3.01 (107888)*2B
$GNTXT,01,01,02,FWVER=SPG 3.01*46
$GNTXT,01,01,02,PROTVER=18.00*11

$GNTXT,01,01,02,GPS;GLO;GAL;BDS*77
$GNTXT,01,01,02,SBAS;IMES;QZSS*49
$GNTXT,01,01,02,GNSS OTP=GPS;GLO*37
$GNTXT,01,01,02,LLC=FFFFFFFF-FFFFFFFF-FFFFFFFF-FFFFFFFF-FFFFFFFD*2F

$GNTXT,01,01,02,ANTSUPERV=AC SD PDoS SR*3E
$GNTXT,01,01,02,ANTSTATUS=OK*25
$GNTXT,01,01,02,PF=3FF*4B

$GNRMC,124756.00,A,5552.33530,N,03800.10038,E,0.130,,120625,,,A,V*17
$GNVTG,,T,,M,0.130,N,0.241,K,A*38

$GNGGA,124756.00,5552.33530,N,03800.10038,E,1,10,1.13,149.8,M,12.9,M,,*4D
$GNGSA,A,3,01,02,10,32,,,,,,,,,1.95,1.13,1.59,1*01
$GNGSA,A,3,88,86,71,87,72,80,,,,,,,1.95,1.13,1.59,2*0B
$GNGSA,A,3,,,,,,,,,,,,,1.95,1.13,1.59,3*00
$GPGSV,3,1,11,01,60,283,28,02,70,204,19,03,33,267,20,08,14,210,,0*64
$GPGSV,3,2,11,10,24,086,12,17,22,319,21,19,04,339,,22,06,312,,0*63
$GPGSV,3,3,11,28,25,124,16,31,09,147,16,32,54,071,29,0*5B
$GLGSV,2,1,08,70,25,051,,71,75,046,25,72,49,232,21,79,15,359,,0*7A
$GLGSV,2,2,08,80,16,052,16,86,47,172,26,87,72,276,27,88,17,326,24,0*78
$GAGSV,1,1,00,0*74
$GNGLL,5552.33530,N,03800.10038,E,124756.00,A,A*74

$GNRMC,124757.00,A,5552.33511,N,03800.10022,E,0.263,,120625,,,A,V*1B
$GNVTG,,T,,M,0.263,N,0.487,K,A*31

$GNGGA,124757.00,5552.33511,N,03800.10022,E,1,10,1.13,149.7,M,12.9,M,,*4B
$GNGSA,A,3,01,02,10,32,,,,,,,,,1.95,1.13,1.59,1*01
$GNGSA,A,3,88,86,71,87,72,80,,,,,,,1.95,1.13,1.59,2*0B
$GNGSA,A,3,,,,,,,,,,,,,1.95,1.13,1.59,3*00
$GPGSV,3,1,11,01,60,283,28,02,70,204,18,03,33,267,19,08,14,210,,0*6F
$GPGSV,3,2,11,10,24,086,09,17,22,319,20,19,04,339,,22,06,312,,0*68
$GPGSV,3,3,11,28,25,124,15,31,09,147,13,32,54,071,28,0*5C
$GLGSV,2,1,08,70,25,051,,71,75,046,24,72,49,232,19,79,15,359,,0*70
$GLGSV,2,2,08,80,16,052,16,86,47,172,26,87,72,276,27,88,17,326,24,0*78
$GAGSV,1,1,00,0*74
$GNGLL,5552.33511,N,03800.10022,E,124757.00,A,A*7D

$GNRMC,124758.00,A,5552.33503,N,03800.10008,E,0.152,,120625,,,A,V*1E

$GNVTG,,T,,M,0.152,N,0.282,K,A*33
$GNGGA,124758.00,5552.33503,N,03800.10008,E,1,10,1.13,149.5,M,12.9,M,,*4D
$GNGSA,A,3,01,02,10,32,,,,,,,,,1.95,1.13,1.59,1*01
$GNGSA,A,3,88,86,71,87,72,80,,,,,,,1.95,1.13,1.59,2*0B
$GNGSA,A,3,,,,,,,,,,,,,1.95,1.13,1.59,3*00
$GPGSV,3,1,11,01,60,283,28,02,70,204,19,03,33,267,18,08,14,210,,0*6F
$GPGSV,3,2,11,10,24,086,12,17,22,319,20,19,04,339,,22,06,312,,0*62
$GPGSV,3,3,11,28,25,124,14,31,09,147,11,32,54,071,27,0*50
$GLGSV,2,1,08,70,25,051,,71,75,046,24,72,49,232,18,79,15,359,,0*71

$GLGSV,2,2,08,80,16,052,16,86,47,172,25,87,72,276,26,88,17,326,25,0*7B
$GAGSV,1,1,00,0*74
$GNGLL,5552.33503,N,03800.10008,E,124758.00,A,A*79

$GNRMC,124759.00,A,5552.33493,N,03800.10009,E,0.093,,120625,,,A,V*1A

$GNVTG,,T,,M,0.093,N,0.173,K,A*32
$GNGGA,124759.00,5552.33493,N,03800.10009,E,1,10,1.13,149.1,M,12.9,M,,*41
$GNGSA,A,3,01,02,10,32,,,,,,,,,1.95,1.13,1.59,1*01
$GNGSA,A,3,88,86,71,87,72,80,,,,,,,1.95,1.13,1.59,2*0B
$GNGSA,A,3,,,,,,,,,,,,,1.95,1.13,1.59,3*00
$GPGSV,3,1,11,01,60,283,28,02,70,204,20,03,33,267,18,08,14,210,,0*65
$GPGSV,3,2,11,10,24,086,11,17,22,319,19,19,04,339,,22,06,312,,0*6B
$GPGSV,3,3,11,28,26,123,14,31,09,147,09,32,54,071,27,0*5D
$GLGSV,2,1,08,70,25,051,,71,75,046,23,72,49,232,17,79,15,359,,0*79
$GLGSV,2,2,08,80,16,052,17,86,47,172,24,87,72,276,26,88,17,326,25,0*7B

$GAGSV,1,1,00,0*74
$GNGLL,5552.33493,N,03800.10009,E,124759.00,A,A*71

$GNRMC,124800.00,A,5552.33478,N,03800.09992,E,0.246,,120625,,,A,V*15
$GNVTG,,T,,M,0.246,N,0.455,K,A*39

$GNGGA,124800.00,5552.33478,N,03800.09992,E,1,10,1.13,148.8,M,12.9,M,,*4C
$GNGSA,A,3,01,02,10,32,,,,,,,,,1.95,1.13,1.59,1*01
$GNGSA,A,3,88,86,71,87,72,80,,,,,,,1.95,1.13,1.59,2*0B
$GNGSA,A,3,,,,,,,,,,,,,1.95,1.13,1.59,3*00
$GPGSV,3,1,11,01,60,283,27,02,70,204,21,03,33,267,17,08,14,210,,0*64
$GPGSV,3,2,11,10,24,086,13,17,22,319,19,19,04,339,,22,06,312,,0*69
$GPGSV,3,3,11,28,26,123,14,31,09,147,10,32,54,071,28,0*5A

$GLGSV,2,1,08,70,25,051,,71,75,046,23,72,49,232,16,79,15,359,,0*78
$GLGSV,2,2,08,80,16,052,17,86,47,172,25,87,72,276,26,88,17,326,25,0*7A
$GAGSV,1,1,00,0*74
$GNGLL,5552.33478,N,03800.09992,E,124800.00,A,A*74

$GNRMC,124801.00,A,5552.33476,N,03800.09979,E,0.117,,120625,,,A,V*18
$GNVTG,,T,,M,0.117,N,0.216,K,A*3F

$GNGGA,124801.00,5552.33476,N,03800.09979,E,1,10,1.13,148.7,M,12.9,M,,*49
$GNGSA,A,3,01,02,10,32,,,,,,,,,1.95,1.13,1.59,1*01
$GNGSA,A,3,88,86,71,87,72,80,,,,,,,1.95,1.13,1.59,2*0B
$GNGSA,A,3,,,,,,,,,,,,,1.95,1.13,1.59,3*00
$GPGSV,3,1,11,01,60,283,28,02,70,204,21,03,33,267,16,08,14,210,,0*6A
$GPGSV,3,2,11,10,24,086,08,17,22,319,20,19,04,339,,22,06,312,,0*69
$GPGSV,3,3,11,28,26,123,15,31,09,147,11,32,54,071,29,0*5B
$GLGSV,2,1,08,70,25,051,,71,75,046,25,72,49,232,15,79,15,359,,0*7D
$GLGSV,2,2,08,80,16,052,15,86,47,172,25,87,72,276,26,88,17,326,25,0*78
$GAGSV,1,1,00,0*74
$GNGLL,5552.33476,N,03800.09979,E,124801.00,A,A*7E

$GNRMC,124802.00,A,5552.33490,N,03800.09964,E,0.084,,120625,,,A,V*14
$GNVTG,,T,,M,0.084,N,0.156,K,A*33
$GNGGA,124802.00,5552.33490,N,03800.09964,E,1,10,1.13,149.0,M,12.9,M,,*48
$GNGSA,A,3,01,02,10,32,,,,,,,,,1.95,1.13,1.59,1*01
$GNGSA,A,3,88,86,71,87,72,80,,,,,,,1.95,1.13,1.59,2*0B
$GNGSA,A,3,,,,,,,,,,,,,1.95,1.13,1.59,3*00

$GPGSV,3,1,11,01,60,283,27,02,70,204,21,03,33,267,16,08,14,210,,0*65
$GPGSV,3,2,11,10,24,086,09,17,22,319,19,19,04,339,,22,06,312,,0*62
$GPGSV,3,3,11,28,26,123,15,31,09,147,12,32,54,071,29,0*58
$GLGSV,2,1,08,70,25,051,,71,75,046,24,72,49,232,14,79,15,359,,0*7D
$GLGSV,2,2,08,80,16,052,14,86,47,172,25,87,72,276,27,88,17,326,25,0*78
$GAGSV,1,1,00,0*74
$GNGLL,5552.33490,N,03800.09964,E,124802.00,A,A*79

$GNRMC,124803.00,A,5552.33501,N,03800.09965,E,0.208,,120625,,,A,V*1B
$GNVTG,,T,,M,0.208,N,0.385,K,A*39
$GNGGA,124803.00,5552.33501,N,03800.09965,E,1,10,1.13,149.0,M,12.9,M,,*41
$GNGSA,A,3,01,02,10,32,,,,,,,,,1.95,1.13,1.59,1*01
$GNGSA,A,3,88,86,71,87,72,80,,,,,,,1.95,1.13,1.59,2*0B
$GNGSA,A,3,,,,,,,,,,,,,1.95,1.13,1.59,3*00

$GPGSV,3,1,11,01,60,283,28,02,70,204,20,03,33,267,16,08,14,210,,0*6B
$GPGSV,3,2,11,10,24,086,11,17,22,319,19,19,04,339,,22,06,312,,0*6B
$GPGSV,3,3,11,28,26,123,14,31,09,147,12,32,54,071,28,0*58
$GLGSV,2,1,08,70,25,051,,71,75,046,23,72,49,232,12,79,15,359,,0*7C
$GLGSV,2,2,08,80,16,052,14,86,47,172,25,87,72,276,27,88,17,326,24,0*79
$GAGSV,1,1,00,0*74
$GNGLL,5552.33501,N,03800.09965,E,124803.00,A,A*70

$GNRMC,124804.00,A,5552.33512,N,03800.09964,E,0.228,,120625,,,A,V*1D

$GNVTG,,T,,M,0.228,N,0.422,K,A*31
$GNGGA,124804.00,5552.33512,N,03800.09964,E,1,10,1.13,149.1,M,12.9,M,,*44
$GNGSA,A,3,01,02,10,32,,,,,,,,,1.95,1.13,1.59,1*01
$GNGSA,A,3,88,86,71,87,72,80,,,,,,,1.95,1.13,1.59,2*0B
$GNGSA,A,3,,,,,,,,,,,,,1.95,1.13,1.59,3*00
$GPGSV,3,1,11,01,60,283,27,02,70,204,20,03,33,267,18,08,14,210,,0*6A
$GPGSV,3,2,11,10,24,086,09,17,22,319,20,19,04,339,,22,06,312,,0*68
$GPGSV,3,3,11,28,26,123,13,31,09,147,10,32,54,071,29,0*5C
$GLGSV,2,1,08,70,25,051,,71,75,046,23,72,49,232,08,79,15,359,,0*77
$GLGSV,2,2,08,80,16,052,12,86,47,172,24,87,72,276,27,88,17,326,24,0*7E
$GAGSV,1,1,00,0*74
$GNGLL,5552.33512,N,03800.09964,E,124804.00,A,A*74

$GNRMC,124805.00,A,5552.33527,N,03800.09956,E,0.261,,120625,,,A,V*16
$GNVTG,,T,,M,0.261,N,0.483,K,A*37

$GNGGA,124805.00,5552.33527,N,03800.09956,E,1,10,1.13,149.3,M,12.9,M,,*40
$GNGSA,A,3,01,02,10,32,,,,,,,,,1.95,1.13,1.59,1*01
$GNGSA,A,3,88,86,71,87,72,80,,,,,,,1.95,1.13,1.59,2*0B
$GNGSA,A,3,,,,,,,,,,,,,1.95,1.13,1.59,3*00
$GPGSV,3,1,11,01,60,283,26,02,70,204,21,03,33,267,19,08,14,210,,0*6B
$GPGSV,3,2,11,10,24,086,11,17,22,319,20,19,04,339,,22,06,312,,0*61
$GPGSV,3,3,11,28,26,123,14,31,09,147,09,32,54,071,28,0*52
$GLGSV,2,1,08,70,25,051,,71,75,046,24,72,49,232,08,79,15,359,,0*70
$GLGSV,2,2,08,80,16,052,14,86,47,172,23,87,72,276,26,88,17,326,24,0*7E
$GAGSV,1,1,00,0*74
$GNGLL,5552.33527,N,03800.09956,E,124805.00,A,A*72

$GNRMC,124806.00,A,5552.33526,N,03800.09975,E,0.530,,120625,,,A,V*16
$GNVTG,,T,,M,0.530,N,0.981,K,A*3B
$GNGGA,124806.00,5552.33526,N,03800.09975,E,1,09,1.26,149.0,M,12.9,M,,*4E
$GNGSA,A,3,01,02,10,32,,,,,,,,,2.10,1.26,1.68,1*0B
$GNGSA,A,3,88,86,71,87,80,,,,,,,,2.10,1.26,1.68,2*04
$GNGSA,A,3,,,,,,,,,,,,,2.10,1.26,1.68,3*0A

$GPGSV,3,1,11,01,60,283,25,02,70,204,20,03,33,267,19,08,14,210,,0*69
$GPGSV,3,2,11,10,24,086,08,17,22,319,20,19,04,339,,22,06,312,,0*69
$GPGSV,3,3,11,28,26,123,14,31,09,147,09,32,54,071,29,0*53
$GLGSV,2,1,08,70,25,051,,71,75,046,24,72,49,232,06,79,15,359,,0*7E
$GLGSV,2,2,08,80,16,052,14,86,47,172,25,87,72,276,25,88,17,326,23,0*7C
$GAGSV,1,1,00,0*74
$GNGLL,5552.33526,N,03800.09975,E,124806.00,A,A*71

$GNRMC,124807.00,A,5552.33574,N,03800.09925,E,1.311,,120625,,,A,V*11
$GNVTG,,T,,M,1.311,N,2.428,K,A*33

$GNGGA,124807.00,5552.33574,N,03800.09925,E,1,10,1.13,148.3,M,12.9,M,,*41
$GNGSA,A,3,01,02,10,32,,,,,,,,,1.95,1.13,1.59,1*01
$GNGSA,A,3,88,86,71,87,72,80,,,,,,,1.95,1.13,1.59,2*0B
$GNGSA,A,3,,,,,,,,,,,,,1.95,1.13,1.59,3*00
$GPGSV,3,1,11,01,60,283,25,02,70,204,18,03,33,267,18,08,14,210,,0*63
$GPGSV,3,2,11,10,24,086,20,17,22,319,17,19,04,339,,22,06,312,,0*67
$GPGSV,3,3,11,28,26,123,15,31,09,147,07,32,54,071,28,0*5D
$GLGSV,2,1,08,70,25,051,,71,75,046,23,72,49,232,14,79,15,359,,0*7A
$GLGSV,2,2,08,80,16,052,14,86,47,172,25,87,72,276,23,88,17,326,21,0*78
$GAGSV,1,1,00,0*74
$GNGLL,5552.33574,N,03800.09925,E,124807.00,A,A*72

$GNRMC,124808.00,A,5552.33574,N,03800.09896,E,1.012,,120625,,,A,V*17
$GNVTG,,T,,M,1.012,N,1.874,K,A*35

$GNGGA,124808.00,5552.33574,N,03800.09896,E,1,10,1.13,147.9,M,12.9,M,,*42
$GNGSA,A,3,01,02,10,32,,,,,,,,,1.95,1.13,1.59,1*01
$GNGSA,A,3,88,86,71,87,72,80,,,,,,,1.95,1.13,1.59,2*0B
$GNGSA,A,3,,,,,,,,,,,,,1.95,1.13,1.59,3*00
$GPGSV,3,1,11,01,60,283,24,02,70,204,16,03,33,267,18,08,14,210,,0*6C
$GPGSV,3,2,11,10,24,086,21,17,22,319,16,19,04,339,,22,06,312,,0*67
$GPGSV,3,3,11,28,26,123,14,31,09,147,10,32,54,071,26,0*54
$GLGSV,2,1,08,70,25,051,,71,75,046,23,72,49,232,11,79,15,359,,0*7F
$GLGSV,2,2,08,80,16,052,16,86,47,172,23,87,72,276,22,88,17,326,20,0*7C
$GAGSV,1,1,00,0*74
$GNGLL,5552.33574,N,03800.09896,E,124808.00,A,A*74

$GNRMC,124809.00,A,5552.33599,N,03800.09873,E,0.957,,120625,,,A,V*17
$GNVTG,,T,,M,0.957,N,1.773,K,A*34
$GNGGA,124809.00,5552.33599,N,03800.09873,E,1,10,1.13,147.9,M,12.9,M,,*4B

$GNGSA,A,3,01,02,10,32,,,,,,,,,1.95,1.13,1.59,1*01
$GNGSA,A,3,88,86,71,87,72,80,,,,,,,1.95,1.13,1.59,2*0B
$GNGSA,A,3,,,,,,,,,,,,,1.95,1.13,1.59,3*00
$GPGSV,3,1,11,01,60,283,22,02,70,204,18,03,33,267,17,08,14,210,,0*6B
$GPGSV,3,2,11,10,24,086,22,17,22,319,19,19,04,339,,22,06,312,,0*6B
$GPGSV,3,3,11,28,26,123,,31,09,147,11,32,54,071,24,0*52
$GLGSV,2,1,08,70,25,051,,71,75,046,23,72,49,232,11,79,15,359,,0*7F
$GLGSV,2,2,08,80,16,052,18,86,47,172,20,87,72,276,20,88,17,326,19,0*79
$GAGSV,1,1,00,0*74
$GNGLL,5552.33599,N,03800.09873,E,124809.00,A,A*7D

$GNRMC,124810.00,A,5552.33607,N,03800.09812,E,1.100,,120625,,,A,V*17
$GNVTG,,T,,M,1.100,N,2.038,K,A*34

$GNGGA,124810.00,5552.33607,N,03800.09812,E,1,10,1.13,147.6,M,12.9,M,,*4F
$GNGSA,A,3,01,02,10,32,,,,,,,,,1.95,1.13,1.59,1*01
$GNGSA,A,3,88,86,71,87,72,80,,,,,,,1.95,1.13,1.59,2*0B
$GNGSA,A,3,,,,,,,,,,,,,1.95,1.13,1.59,3*00
$GPGSV,3,1,11,01,60,283,21,02,70,204,21,03,33,267,,08,14,210,,0*64
$GPGSV,3,2,11,10,24,086,21,17,22,319,22,19,04,339,,22,06,312,,0*60
$GPGSV,3,3,11,28,26,123,,31,09,147,12,32,54,071,24,0*51
$GLGSV,2,1,08,70,25,051,,71,75,046,22,72,49,232,16,79,15,359,,0*79
$GLGSV,2,2,08,80,16,052,20,86,47,172,16,87,72,276,18,88,17,326,20,0*76
$GAGSV,1,1,00,0*74
$GNGLL,5552.33607,N,03800.09812,E,124810.00,A,A*76

$GNRMC,124811.00,A,5552.33587,N,03800.09778,E,0.751,,120625,,,A,V*1D
$GNVTG,,T,,M,0.751,N,1.391,K,A*34

$GNGGA,124811.00,5552.33587,N,03800.09778,E,1,10,1.13,147.6,M,12.9,M,,*46
$GNGSA,A,3,01,02,10,32,,,,,,,,,1.95,1.13,1.59,1*01
$GNGSA,A,3,88,86,71,87,72,80,,,,,,,1.95,1.13,1.59,2*0B
$GNGSA,A,3,,,,,,,,,,,,,1.95,1.13,1.59,3*00
$GPGSV,3,1,11,01,60,283,19,02,70,204,19,03,33,267,,08,14,210,,0*64
$GPGSV,3,2,11,10,24,086,19,17,22,319,22,19,04,339,,22,06,312,,0*6B
$GPGSV,3,3,11,28,26,123,,31,09,147,11,32,54,071,23,0*55
$GLGSV,2,1,08,70,25,051,,71,75,046,20,72,49,232,20,79,15,359,,0*7E
$GLGSV,2,2,08,80,16,052,20,86,47,172,14,87,72,276,18,88,17,326,21,0*75
$GAGSV,1,1,00,0*74
$GNGLL,5552.33587,N,03800.09778,E,124811.00,A,A*7F

$GNRMC,124812.00,A,5552.33549,N,03800.09702,E,1.189,,120625,,,A,V*13
$GNVTG,,T,,M,1.189,N,2.203,K,A*3F

$GNGGA,124812.00,5552.33549,N,03800.09702,E,1,10,1.13,147.7,M,12.9,M,,*4B
$GNGSA,A,3,01,02,10,32,,,,,,,,,1.95,1.13,1.59,1*01
$GNGSA,A,3,88,86,71,87,72,80,,,,,,,1.95,1.13,1.59,2*0B
$GNGSA,A,3,,,,,,,,,,,,,1.95,1.13,1.59,3*00
$GPGSV,3,1,11,01,60,283,17,02,70,204,15,03,33,267,,08,14,210,,0*66
$GPGSV,3,2,11,10,24,086,16,17,22,319,22,19,04,339,,22,06,312,,0*64
$GPGSV,3,3,11,28,26,123,,31,09,147,11,32,54,071,21,0*57
$GLGSV,2,1,08,70,25,051,,71,75,046,19,72,49,232,08,79,15,359,,0*7E
$GLGSV,2,2,08,80,16,052,21,86,47,172,15,87,72,276,17,88,17,326,22,0*79
$GAGSV,1,1,00,0*74
$GNGLL,5552.33549,N,03800.09702,E,124812.00,A,A*73

$GNRMC,124813.00,A,5552.33529,N,03800.09663,E,1.052,,120625,,,A,V*15
$GNVTG,,T,,M,1.052,N,1.948,K,A*3F
$GNGGA,124813.00,5552.33529,N,03800.09663,E,1,10,1.13,147.8,M,12.9,M,,*45

$GNGSA,A,3,01,02,10,32,,,,,,,,,1.95,1.13,1.59,1*01
$GNGSA,A,3,88,86,71,87,72,80,,,,,,,1.95,1.13,1.59,2*0B
$GNGSA,A,3,,,,,,,,,,,,,1.95,1.13,1.59,3*00
$GPGSV,3,1,11,01,60,283,16,02,70,204,17,03,33,267,,08,14,210,,0*65
$GPGSV,3,2,11,10,24,086,15,17,22,319,20,19,04,339,,22,06,312,,0*65
$GPGSV,3,3,11,28,26,123,,31,09,147,09,32,54,071,20,0*5F
$GLGSV,2,1,08,70,25,051,,71,75,046,17,72,49,232,13,79,15,359,,0*7A
$GLGSV,2,2,08,80,16,052,20,86,47,172,16,87,72,276,15,88,17,326,23,0*78
$GAGSV,1,1,00,0*74
$GNGLL,5552.33529,N,03800.09663,E,124813.00,A,A*72

$GNRMC,124814.00,A,5552.33506,N,03800.09689,E,0.559,,120625,,,A,V*14
$GNVTG,,T,,M,0.559,N,1.035,K,A*33

$GNGGA,124814.00,5552.33506,N,03800.09689,E,1,10,1.13,147.5,M,12.9,M,,*46
$GNGSA,A,3,01,02,10,32,,,,,,,,,1.95,1.13,1.59,1*01
$GNGSA,A,3,88,86,71,87,72,80,,,,,,,1.95,1.13,1.59,2*0B
$GNGSA,A,3,,,,,,,,,,,,,1.95,1.13,1.59,3*00
$GPGSV,3,1,11,01,60,283,13,02,70,204,18,03,33,267,,08,14,210,,0*6F
$GPGSV,3,2,11,10,24,086,14,17,22,319,19,19,04,339,,22,06,312,,0*6E
$GPGSV,3,3,11,28,26,123,,31,09,147,08,32,54,071,17,0*5A
$GLGSV,2,1,08,70,25,051,,71,75,046,17,72,49,232,13,79,15,359,,0*7A
$GLGSV,2,2,08,80,16,052,18,86,47,172,16,87,72,276,14,88,17,326,24,0*75
$GAGSV,1,1,00,0*74
$GNGLL,5552.33506,N,03800.09689,E,124814.00,A,A*7C

$GNRMC,124815.00,A,5552.33524,N,03800.09770,E,0.546,,120625,,,A,V*1C
$GNVTG,,T,,M,0.546,N,1.011,K,A*3B
$GNGGA,124815.00,5552.33524,N,03800.09770,E,1,10,1.13,147.3,M,12.9,M,,*46

$GNGSA,A,3,01,02,10,32,,,,,,,,,1.95,1.13,1.59,1*01
$GNGSA,A,3,88,86,71,87,72,80,,,,,,,1.95,1.13,1.59,2*0B
$GNGSA,A,3,,,,,,,,,,,,,1.95,1.13,1.59,3*00
$GPGSV,3,1,11,01,60,283,13,02,70,204,19,03,33,267,,08,14,210,,0*6E
$GPGSV,3,2,11,10,24,086,12,17,22,319,21,19,04,339,,22,06,312,,0*63
$GPGSV,3,3,11,28,26,123,,31,09,147,08,32,54,071,15,0*58
$GLGSV,2,1,08,70,25,051,,71,75,046,20,72,49,232,17,79,15,359,,0*7A
$GLGSV,2,2,08,80,16,052,16,86,47,172,17,87,72,276,14,88,17,326,25,0*7B
$GAGSV,1,1,00,0*74
$GNGLL,5552.33524,N,03800.09770,E,124815.00,A,A*7A

$GNRMC,124816.00,A,5552.33484,N,03800.09748,E,0.534,,120625,,,A,V*1A
$GNVTG,,T,,M,0.534,N,0.990,K,A*3F

$GNGGA,124816.00,5552.33484,N,03800.09748,E,1,10,1.13,147.1,M,12.9,M,,*47
$GNGSA,A,3,01,02,10,32,,,,,,,,,1.95,1.13,1.59,1*01
$GNGSA,A,3,88,86,71,87,72,80,,,,,,,1.95,1.13,1.59,2*0B
$GNGSA,A,3,,,,,,,,,,,,,1.95,1.13,1.59,3*00
$GPGSV,3,1,11,01,60,283,15,02,70,204,21,03,33,267,,08,14,210,,0*63
$GPGSV,3,2,11,10,24,086,11,17,22,319,21,19,04,339,,22,06,312,,0*60
$GPGSV,3,3,11,28,26,123,,31,09,147,11,32,54,071,14,0*51
$GLGSV,2,1,08,70,25,051,,71,75,046,20,72,49,232,11,79,15,359,,0*7C
$GLGSV,2,2,08,80,16,052,17,86,47,172,17,87,72,276,13,88,17,326,24,0*7C
$GAGSV,1,1,00,0*74
$GNGLL,5552.33484,N,03800.09748,E,124816.00,A,A*79

$GNRMC,124817.00,A,5552.33411,N,03800.09624,E,1.622,,120625,,,A,V*19
$GNVTG,,T,,M,1.622,N,3.003,K,A*3A

$GNGGA,124817.00,5552.33411,N,03800.09624,E,1,10,1.13,147.1,M,12.9,M,,*41
$GNGSA,A,3,01,02,10,32,,,,,,,,,1.95,1.13,1.59,1*01
$GNGSA,A,3,88,86,71,87,72,80,,,,,,,1.95,1.13,1.59,2*0B
$GNGSA,A,3,,,,,,,,,,,,,1.95,1.13,1.59,3*00
$GPGSV,3,1,11,01,60,283,14,02,70,204,21,03,33,267,,08,14,210,,0*62
$GPGSV,3,2,11,10,24,086,10,17,22,319,19,19,04,339,,22,06,312,,0*6A
$GPGSV,3,3,11,28,26,123,,31,09,147,11,32,54,071,16,0*53
$GLGSV,2,1,08,70,25,051,,71,75,046,20,72,49,232,15,79,15,359,,0*78
$GLGSV,2,2,08,80,16,052,16,86,47,172,18,87,72,276,14,88,17,326,22,0*73
$GAGSV,1,1,00,0*74
$GNGLL,5552.33411,N,03800.09624,E,124817.00,A,A*7F

$GNRMC,124818.00,A,5552.33408,N,03800.09569,E,1.382,,120625,,,A,V*1B
$GNVTG,,T,,M,1.382,N,2.559,K,A*3E

$GNGGA,124818.00,5552.33408,N,03800.09569,E,1,09,1.22,147.0,M,12.9,M,,*47
$GNGSA,A,3,01,02,32,,,,,,,,,,2.10,1.22,1.70,1*07
$GNGSA,A,3,88,86,71,87,72,80,,,,,,,2.10,1.22,1.70,2*0C
$GNGSA,A,3,,,,,,,,,,,,,2.10,1.22,1.70,3*07
$GPGSV,3,1,11,01,60,283,15,02,70,204,21,03,33,267,,08,14,210,,0*63
$GPGSV,3,2,11,10,24,086,09,17,22,319,17,19,04,339,,22,06,312,,0*6C
$GPGSV,3,3,11,28,26,123,,31,09,147,11,32,54,071,19,0*5C
$GLGSV,2,1,08,70,25,051,,71,75,046,20,72,49,232,13,79,15,359,,0*7E
$GLGSV,2,2,08,80,16,052,19,86,47,172,20,87,72,276,14,88,17,326,20,0*75
$GAGSV,1,1,00,0*74
$GNGLL,5552.33408,N,03800.09569,E,124818.00,A,A*72

$GNRMC,124819.00,A,5552.33348,N,03800.09662,E,1.321,,120625,,,A,V*18
$GNVTG,,T,,M,1.321,N,2.446,K,A*38

$GNGGA,124819.00,5552.33348,N,03800.09662,E,1,10,1.13,146.9,M,12.9,M,,*4F
$GNGSA,A,3,01,02,10,32,,,,,,,,,1.95,1.13,1.59,1*01
$GNGSA,A,3,88,86,71,87,72,80,,,,,,,1.95,1.13,1.59,2*0B
$GNGSA,A,3,,,,,,,,,,,,,1.95,1.13,1.59,3*00
$GPGSV,3,1,11,01,60,283,13,02,70,204,20,03,33,267,,08,14,210,,0*64
$GPGSV,3,2,11,10,24,086,12,17,22,319,13,19,04,339,,22,06,312,,0*62
$GPGSV,3,3,11,28,26,123,,31,09,147,09,32,54,071,20,0*5F
$GLGSV,2,1,08,70,25,051,,71,75,046,18,72,49,232,15,79,15,359,,0*73
$GLGSV,2,2,08,80,16,052,20,86,47,172,22,87,72,276,15,88,17,326,20,0*7C
$GAGSV,1,1,00,0*74
$GNGLL,5552.33348,N,03800.09662,E,124819.00,A,A*78

$GNRMC,124820.00,A,5552.33327,N,03800.09603,E,1.208,,120625,,,A,V*16
$GNVTG,,T,,M,1.208,N,2.237,K,A*32

$GNGGA,124820.00,5552.33327,N,03800.09603,E,1,09,1.22,146.6,M,12.9,M,,*4E
$GNGSA,A,3,01,02,32,,,,,,,,,,2.10,1.22,1.70,1*07
$GNGSA,A,3,88,86,71,87,72,80,,,,,,,2.10,1.22,1.70,2*0C
$GNGSA,A,3,,,,,,,,,,,,,2.10,1.22,1.70,3*07
$GPGSV,3,1,11,01,60,283,12,02,70,204,19,03,33,267,,08,14,210,,0*6F
$GPGSV,3,2,11,10,24,086,10,17,22,319,12,19,04,339,,22,06,312,,0*61
$GPGSV,3,3,11,28,26,123,,31,09,147,08,32,54,071,19,0*54
$GLGSV,2,1,08,70,25,051,,71,75,046,17,72,49,232,15,79,15,359,,0*7C
$GLGSV,2,2,08,80,16,052,20,86,47,172,22,87,72,276,14,88,17,326,21,0*7C
$GAGSV,1,1,00,0*74
$GNGLL,5552.33327,N,03800.09603,E,124820.00,A,A*7C

$GNRMC,124821.00,A,5552.33283,N,03800.09749,E,1.435,,120625,,,A,V*1F
$GNVTG,,T,,M,1.435,N,2.658,K,A*37

$GNGGA,124821.00,5552.33283,N,03800.09749,E,1,09,1.22,146.8,M,12.9,M,,*41
$GNGSA,A,3,01,02,32,,,,,,,,,,2.10,1.22,1.70,1*07
$GNGSA,A,3,88,86,71,87,72,80,,,,,,,2.10,1.22,1.70,2*0C
$GNGSA,A,3,,,,,,,,,,,,,2.10,1.22,1.70,3*07
$GPGSV,3,1,11,01,60,283,11,02,70,204,17,03,33,267,,08,14,210,,0*62
$GPGSV,3,2,11,10,24,086,09,17,22,319,12,19,04,339,,22,06,312,,0*69
$GPGSV,3,3,11,28,26,123,,31,09,147,08,32,54,071,18,0*55
$GLGSV,2,1,08,70,25,051,,71,75,046,17,72,49,232,14,79,15,359,,0*7D
$GLGSV,2,2,08,80,16,052,18,86,47,172,22,87,72,276,18,88,17,326,22,0*78
$GAGSV,1,1,00,0*74
$GNGLL,5552.33283,N,03800.09749,E,124821.00,A,A*7D

$GNRMC,124822.00,A,5552.33235,N,03800.09763,E,1.625,,120625,,,A,V*1A

$GNVTG,,T,,M,1.625,N,3.010,K,A*3F
$GNGGA,124822.00,5552.33235,N,03800.09763,E,1,09,1.22,146.7,M,12.9,M,,*48
$GNGSA,A,3,01,02,32,,,,,,,,,,2.10,1.22,1.70,1*07
$GNGSA,A,3,88,86,71,87,72,80,,,,,,,2.10,1.22,1.70,2*0C
$GNGSA,A,3,,,,,,,,,,,,,2.10,1.22,1.70,3*07
$GPGSV,3,1,11,01,60,283,14,02,70,204,14,03,33,267,,08,14,210,,0*64
$GPGSV,3,2,11,10,24,086,08,17,22,319,14,19,04,339,,22,06,312,,0*6E
$GPGSV,3,3,11,28,26,123,,31,09,147,,32,54,071,17,0*52
$GLGSV,2,1,08,70,25,051,,71,75,046,17,72,49,232,17,79,15,359,,0*7E
$GLGSV,2,2,08,80,16,052,16,86,47,172,21,87,72,276,17,88,17,326,24,0*7C
$GAGSV,1,1,00,0*74
$GNGLL,5552.33235,N,03800.09763,E,124822.00,A,A*7B

$GNRMC,124823.00,A,5552.33226,N,03800.09730,E,1.005,,120625,,,A,V*1B
$GNVTG,,T,,M,1.005,N,1.862,K,A*34
$GNGGA,124823.00,5552.33226,N,03800.09730,E,1,09,1.22,146.5,M,12.9,M,,*4F

$GNGSA,A,3,01,02,32,,,,,,,,,,2.10,1.22,1.71,1*06
$GNGSA,A,3,88,86,71,87,72,80,,,,,,,2.10,1.22,1.71,2*0D
$GNGSA,A,3,,,,,,,,,,,,,2.10,1.22,1.71,3*06
$GPGSV,3,1,11,01,60,283,15,02,70,204,11,03,33,267,,08,14,210,,0*60
$GPGSV,3,2,11,10,24,086,08,17,22,319,15,19,04,339,,22,06,312,,0*6F
$GPGSV,3,3,11,28,26,123,,31,09,147,,32,54,071,16,0*53
$GLGSV,2,1,08,70,25,051,,71,75,046,16,72,49,232,18,79,15,359,,0*70
$GLGSV,2,2,08,80,16,052,17,86,47,172,20,87,72,276,16,88,17,326,25,0*7C
$GAGSV,1,1,00,0*74
$GNGLL,5552.33226,N,03800.09730,E,124823.00,A,A*7E

$GNRMC,124824.00,A,5552.33192,N,03800.09723,E,1.103,,120625,,,A,V*15
$GNVTG,,T,,M,1.103,N,2.044,K,A*3C

$GNGGA,124824.00,5552.33192,N,03800.09723,E,1,08,1.23,146.5,M,12.9,M,,*46
$GNGSA,A,3,01,32,,,,,,,,,,,2.12,1.23,1.72,1*04
$GNGSA,A,3,88,86,71,87,72,80,,,,,,,2.12,1.23,1.72,2*0D
$GNGSA,A,3,,,,,,,,,,,,,2.12,1.23,1.72,3*06
$GPGSV,3,1,11,01,60,283,15,02,70,204,10,03,33,267,,08,14,210,,0*61
$GPGSV,3,2,11,10,24,086,09,17,22,319,17,19,04,339,,22,06,312,,0*6C
$GPGSV,3,3,11,28,26,123,,31,09,147,,32,54,071,16,0*53
$GLGSV,2,1,08,70,25,051,,71,75,046,14,72,49,232,18,79,15,359,,0*72
$GLGSV,2,2,08,80,16,052,18,86,47,172,19,87,72,276,16,88,17,326,25,0*79
$GAGSV,1,1,00,0*74
$GNGLL,5552.33192,N,03800.09723,E,124824.00,A,A*77

$GNRMC,124825.00,A,5552.33126,N,03800.09689,E,1.619,,120625,,,A,V*16
$GNVTG,,T,,M,1.619,N,2.998,K,A*38

$GNGGA,124825.00,5552.33126,N,03800.09689,E,1,10,1.13,146.2,M,12.9,M,,*44
$GNGSA,A,3,01,02,10,32,,,,,,,,,1.95,1.13,1.59,1*01
$GNGSA,A,3,88,86,71,87,72,80,,,,,,,1.95,1.13,1.59,2*0B
$GNGSA,A,3,,,,,,,,,,,,,1.95,1.13,1.59,3*00
$GPGSV,3,1,11,01,60,283,15,02,70,204,12,03,33,267,,08,14,210,,0*63
$GPGSV,3,2,11,10,24,086,11,17,22,319,15,19,04,339,,22,06,312,,0*67
$GPGSV,3,3,11,28,26,123,,31,09,147,,32,54,071,16,0*53
$GLGSV,2,1,08,70,25,051,,71,75,046,14,72,49,232,19,79,15,359,,0*73
$GLGSV,2,2,08,80,16,052,19,86,47,172,18,87,72,276,15,88,17,326,24,0*7B
$GAGSV,1,1,00,0*74
$GNGLL,5552.33126,N,03800.09689,E,124825.00,A,A*78

$GNRMC,124826.00,A,5552.33076,N,03800.09712,E,1.627,,120625,,,A,V*1F
$GNVTG,,T,,M,1.627,N,3.012,K,A*3F

$GNGGA,124826.00,5552.33076,N,03800.09712,E,1,10,1.13,146.1,M,12.9,M,,*43
$GNGSA,A,3,01,02,10,32,,,,,,,,,1.95,1.13,1.59,1*01
$GNGSA,A,3,88,86,71,87,72,80,,,,,,,1.95,1.13,1.59,2*0B
$GNGSA,A,3,,,,,,,,,,,,,1.95,1.13,1.59,3*00
$GPGSV,3,1,11,01,60,283,16,02,70,204,14,03,33,267,,08,14,210,,0*66
$GPGSV,3,2,11,10,24,086,12,17,22,319,14,19,04,339,,22,06,312,,0*65
$GPGSV,3,3,11,28,26,123,,31,09,147,,32,54,071,16,0*53
$GLGSV,2,1,08,70,25,051,,71,74,046,14,72,49,232,20,79,15,359,,0*78
$GLGSV,2,2,08,80,16,052,18,86,47,172,16,87,72,276,14,88,17,326,23,0*72
$GAGSV,1,1,00,0*74
$GNGLL,5552.33076,N,03800.09712,E,124826.00,A,A*7C

$GNRMC,124827.00,A,5552.33106,N,03800.09642,E,0.762,,120625,,,A,V*1D
$GNVTG,,T,,M,0.762,N,1.410,K,A*3A
$GNGGA,124827.00,5552.33106,N,03800.09642,E,1,09,1.22,146.1,M,12.9,M,,*4A
$GNGSA,A,3,01,02,32,,,,,,,,,,2.10,1.22,1.71,1*06
$GNGSA,A,3,88,86,71,87,72,80,,,,,,,2.10,1.22,1.71,2*0D
$GNGSA,A,3,,,,,,,,,,,,,2.10,1.22,1.71,3*06

$GPGSV,3,1,11,01,60,283,17,02,70,204,14,03,33,267,,08,14,210,,0*67
$GPGSV,3,2,11,10,24,086,10,17,22,319,11,19,04,339,,22,06,312,,0*62
$GPGSV,3,3,11,28,26,123,,31,09,147,,32,54,071,14,0*51
$GLGSV,2,1,08,70,25,051,,71,74,046,12,72,50,232,22,79,15,359,,0*74
$GLGSV,2,2,08,80,16,052,17,86,47,172,17,87,72,276,15,88,17,326,22,0*7C
$GAGSV,1,1,00,0*74
$GNGLL,5552.33106,N,03800.09642,E,124827.00,A,A*7F

$GNRMC,124828.00,A,5552.33108,N,03800.09573,E,0.962,,120625,,,A,V*13
$GNVTG,,T,,M,0.962,N,1.781,K,A*3F

$GNGGA,124828.00,5552.33108,N,03800.09573,E,1,09,1.22,146.2,M,12.9,M,,*49
$GNGSA,A,3,01,02,32,,,,,,,,,,2.10,1.22,1.71,1*06
$GNGSA,A,3,88,86,71,87,72,80,,,,,,,2.10,1.22,1.71,2*0D
$GNGSA,A,3,,,,,,,,,,,,,2.10,1.22,1.71,3*06
$GPGSV,3,1,11,01,60,283,17,02,70,204,19,03,33,267,,08,14,210,,0*6A
$GPGSV,3,2,11,10,24,086,08,17,22,319,,19,04,339,,22,06,312,,0*6B
$GPGSV,3,3,11,28,26,123,,31,09,147,,32,54,071,14,0*51
$GLGSV,2,1,08,70,25,051,,71,74,046,15,72,50,232,24,79,15,359,,0*75
$GLGSV,2,2,08,80,16,052,18,86,47,172,18,87,72,276,21,88,17,326,19,0*73
$GAGSV,1,1,00,0*74
$GNGLL,5552.33108,N,03800.09573,E,124828.00,A,A*7F

$GNRMC,124829.00,A,5552.33111,N,03800.09683,E,0.128,,120625,,,A,V*10
$GNVTG,,T,,M,0.128,N,0.237,K,A*30

$GNGGA,124829.00,5552.33111,N,03800.09683,E,1,09,1.22,146.2,M,12.9,M,,*4C
$GNGSA,A,3,01,02,32,,,,,,,,,,2.10,1.22,1.71,1*06
$GNGSA,A,3,88,86,71,87,72,80,,,,,,,2.10,1.22,1.71,2*0D
$GNGSA,A,3,,,,,,,,,,,,,2.10,1.22,1.71,3*06
$GPGSV,3,1,11,01,60,283,19,02,70,204,19,03,33,267,,08,14,210,,0*64
$GPGSV,3,2,11,10,24,086,08,17,22,319,,19,04,339,,22,06,312,,0*6B
$GPGSV,3,3,11,28,26,123,17,31,09,147,,32,54,071,12,0*51
$GLGSV,2,1,08,70,25,051,,71,74,046,16,72,50,232,25,79,15,359,,0*77
$GLGSV,2,2,08,80,16,052,18,86,47,172,16,87,72,276,23,88,17,326,19,0*7F
$GAGSV,1,1,00,0*74
$GNGLL,5552.33111,N,03800.09683,E,124829.00,A,A*7A

$GNRMC,124830.00,A,5552.33152,N,03800.09659,E,0.422,,120625,,,A,V*17
$GNVTG,,T,,M,0.422,N,0.782,K,A*34

$GNGGA,124830.00,5552.33152,N,03800.09659,E,1,10,1.13,146.4,M,12.9,M,,*48
$GNGSA,A,3,01,02,10,32,,,,,,,,,1.95,1.13,1.59,1*01
$GNGSA,A,3,88,86,71,87,72,80,,,,,,,1.95,1.13,1.59,2*0B
$GNGSA,A,3,,,,,,,,,,,,,1.95,1.13,1.59,3*00
$GPGSV,3,1,11,01,60,283,18,02,70,204,18,03,33,267,,08,14,210,,0*64
$GPGSV,3,2,11,10,24,086,12,17,22,319,,19,04,339,,22,06,312,,0*60
$GPGSV,3,3,11,28,26,123,15,31,09,147,,32,54,071,12,0*53
$GLGSV,2,1,08,70,25,051,,71,74,046,18,72,50,232,22,79,15,359,,0*7E
$GLGSV,2,2,08,80,16,052,19,86,47,172,19,87,72,276,21,88,17,326,20,0*79
$GAGSV,1,1,00,0*74
$GNGLL,5552.33152,N,03800.09659,E,124830.00,A,A*72

$GNRMC,124831.00,A,5552.33176,N,03800.09573,E,0.896,,120625,,,A,V*18
$GNVTG,,T,,M,0.896,N,1.659,K,A*31
$GNGGA,124831.00,5552.33176,N,03800.09573,E,1,10,1.13,146.2,M,12.9,M,,*42

$GNGSA,A,3,01,02,10,32,,,,,,,,,1.95,1.13,1.59,1*01
$GNGSA,A,3,88,86,71,87,72,80,,,,,,,1.95,1.13,1.59,2*0B
$GNGSA,A,3,,,,,,,,,,,,,1.95,1.13,1.59,3*00
$GPGSV,3,1,11,01,60,283,18,02,70,204,17,03,33,267,,08,14,210,,0*6B
$GPGSV,3,2,11,10,24,086,09,17,22,319,,19,04,339,,22,06,312,,0*6A
$GPGSV,3,3,11,28,26,123,16,31,09,147,,32,54,071,09,0*5A
$GLGSV,2,1,08,70,25,051,,71,74,046,18,72,50,232,19,79,15,359,,0*76
$GLGSV,2,2,08,80,16,052,18,86,47,172,21,87,72,276,23,88,17,326,19,0*7B
$GAGSV,1,1,00,0*74
$GNGLL,5552.33176,N,03800.09573,E,124831.00,A,A*7E

$GNRMC,124832.00,A,5552.33180,N,03800.09636,E,0.442,,120625,,,A,V*15
$GNVTG,,T,,M,0.442,N,0.818,K,A*3E

$GNGGA,124832.00,5552.33180,N,03800.09636,E,1,09,1.22,146.2,M,12.9,M,,*40
$GNGSA,A,3,01,02,32,,,,,,,,,,2.10,1.22,1.71,1*06
$GNGSA,A,3,88,86,71,87,72,80,,,,,,,2.10,1.22,1.71,2*0D
$GNGSA,A,3,,,,,,,,,,,,,2.10,1.22,1.71,3*06
$GPGSV,3,1,11,01,60,283,15,02,70,204,17,03,33,267,,08,14,210,,0*66
$GPGSV,3,2,11,10,24,086,07,17,22,319,,19,04,339,,22,06,312,,0*64
$GPGSV,3,3,11,28,26,123,16,31,09,147,,32,54,071,08,0*5B
$GLGSV,2,1,08,70,25,051,,71,74,046,19,72,50,232,21,79,15,359,,0*7C
$GLGSV,2,2,08,80,16,052,18,86,47,172,21,87,72,276,21,88,17,326,21,0*72
$GAGSV,1,1,00,0*74
$GNGLL,5552.33180,N,03800.09636,E,124832.00,A,A*76

$GNRMC,124833.00,A,5552.33201,N,03800.09655,E,0.567,,120625,,,A,V*1D
$GNVTG,,T,,M,0.567,N,1.051,K,A*3C

$GNGGA,124833.00,5552.33201,N,03800.09655,E,1,09,1.22,146.2,M,12.9,M,,*4E
$GNGSA,A,3,01,02,32,,,,,,,,,,2.10,1.22,1.71,1*06
$GNGSA,A,3,88,86,71,87,72,80,,,,,,,2.10,1.22,1.71,2*0D
$GNGSA,A,3,,,,,,,,,,,,,2.10,1.22,1.71,3*06
$GPGSV,3,1,11,01,60,283,12,02,70,204,17,03,33,267,,08,14,210,,0*61
$GPGSV,3,2,11,10,24,086,06,17,22,319,,19,04,339,,22,06,312,,0*65
$GPGSV,3,3,11,28,26,123,15,31,09,147,,32,54,071,18,0*59
$GLGSV,2,1,08,70,25,051,,71,74,046,16,72,50,232,21,79,15,359,,0*73
$GLGSV,2,2,08,80,16,052,18,86,47,172,20,87,72,276,18,88,17,326,21,0*79
$GAGSV,1,1,00,0*74
$GNGLL,5552.33201,N,03800.09655,E,124833.00,A,A*78

$GNRMC,124834.00,A,5552.33213,N,03800.09688,E,0.543,,120625,,,A,V*1F
$GNVTG,,T,,M,0.543,N,1.006,K,A*38
$GNGGA,124834.00,5552.33213,N,03800.09688,E,1,10,1.13,146.2,M,12.9,M,,*40

$GNGSA,A,3,01,02,10,32,,,,,,,,,1.95,1.13,1.59,1*01
$GNGSA,A,3,88,86,71,87,72,80,,,,,,,1.95,1.13,1.59,2*0B
$GNGSA,A,3,,,,,,,,,,,,,1.95,1.13,1.59,3*00
$GPGSV,3,1,11,01,60,283,12,02,70,204,16,03,33,267,,08,14,210,,0*60
$GPGSV,3,2,11,10,24,086,12,17,22,319,,19,04,339,,22,06,312,,0*60
$GPGSV,3,3,11,28,26,123,13,31,09,147,,32,54,071,11,0*56
$GLGSV,2,1,08,70,25,051,,71,74,046,20,72,50,232,22,79,15,358,,0*74
$GLGSV,2,2,08,80,16,052,19,86,47,172,18,87,72,276,13,88,17,326,20,0*79
$GAGSV,1,1,00,0*74
$GNGLL,5552.33213,N,03800.09688,E,124834.00,A,A*7C

$GNRMC,124835.00,A,5552.33225,N,03800.09651,E,0.358,,120625,,,A,V*13
$GNVTG,,T,,M,0.358,N,0.662,K,A*31

$GNGGA,124835.00,5552.33225,N,03800.09651,E,1,10,1.13,146.5,M,12.9,M,,*47
$GNGSA,A,3,01,02,10,32,,,,,,,,,1.95,1.13,1.59,1*01
$GNGSA,A,3,88,86,71,87,72,80,,,,,,,1.95,1.13,1.59,2*0B
$GNGSA,A,3,,,,,,,,,,,,,1.95,1.13,1.59,3*00
$GPGSV,3,1,11,01,60,283,11,02,70,204,15,03,33,267,,08,14,210,,0*60
$GPGSV,3,2,11,10,24,086,12,17,22,319,,19,04,339,,22,06,312,,0*60
$GPGSV,3,3,11,28,26,123,13,31,09,147,,32,54,071,20,0*54
$GLGSV,2,1,08,70,25,051,,71,74,046,22,72,50,232,23,79,15,358,,0*77
$GLGSV,2,2,08,80,17,051,21,86,47,172,18,87,72,276,15,88,17,326,20,0*76
$GAGSV,1,1,00,0*74
$GNGLL,5552.33225,N,03800.09651,E,124835.00,A,A*7C

$GNRMC,124836.00,A,5552.33233,N,03800.09654,E,0.235,,120625,,,A,V*18
$GNVTG,,T,,M,0.235,N,0.435,K,A*3B
$GNGGA,124836.00,5552.33233,N,03800.09654,E,1,10,1.13,146.8,M,12.9,M,,*4B
$GNGSA,A,3,01,02,10,32,,,,,,,,,1.95,1.13,1.59,1*01
$GNGSA,A,3,88,86,71,87,72,80,,,,,,,1.95,1.13,1.59,2*0B
$GNGSA,A,3,,,,,,,,,,,,,1.95,1.13,1.59,3*00

$GPGSV,3,1,11,01,60,283,17,02,70,204,16,03,33,267,,08,14,210,,0*65
$GPGSV,3,2,11,10,24,086,13,17,22,319,,19,04,339,,22,06,312,,0*61
$GPGSV,3,3,11,28,26,123,13,31,09,147,,32,54,071,21,0*55
$GLGSV,2,1,08,70,25,051,,71,74,046,20,72,50,232,23,79,15,358,,0*75
$GLGSV,2,2,08,80,17,051,20,86,47,172,17,87,72,276,15,88,17,326,19,0*72
$GAGSV,1,1,00,0*74
$GNGLL,5552.33233,N,03800.09654,E,124836.00,A,A*7D

$GNRMC,124837.00,A,5552.33248,N,03800.09615,E,0.385,,120625,,,A,V*1A
$GNVTG,,T,,M,0.385,N,0.713,K,A*36

$GNGGA,124837.00,5552.33248,N,03800.09615,E,1,10,1.13,147.2,M,12.9,M,,*48
$GNGSA,A,3,01,02,10,32,,,,,,,,,1.95,1.13,1.59,1*01
$GNGSA,A,3,88,86,71,87,72,80,,,,,,,1.95,1.13,1.59,2*0B
$GNGSA,A,3,,,,,,,,,,,,,1.95,1.13,1.59,3*00
$GPGSV,3,1,11,01,60,283,16,02,70,204,16,03,33,267,,08,14,210,,0*64
$GPGSV,3,2,11,10,24,086,13,17,22,319,,19,04,339,,22,06,312,,0*61
$GPGSV,3,3,11,28,26,123,14,31,09,147,,32,54,071,22,0*51
$GLGSV,2,1,08,70,25,051,,71,74,046,18,72,50,232,22,79,15,358,,0*7F
$GLGSV,2,2,08,80,17,051,18,86,47,172,18,87,72,276,13,88,17,326,20,0*7A
$GAGSV,1,1,00,0*74
$GNGLL,5552.33248,N,03800.09615,E,124837.00,A,A*75

$GNRMC,124838.00,A,5552.33295,N,03800.09510,E,1.032,,120625,,,A,V*1D
$GNVTG,,T,,M,1.032,N,1.911,K,A*35

$GNGGA,124838.00,5552.33295,N,03800.09510,E,1,10,1.13,147.1,M,12.9,M,,*42
$GNGSA,A,3,01,02,10,32,,,,,,,,,1.95,1.13,1.59,1*01
$GNGSA,A,3,88,86,71,87,72,80,,,,,,,1.95,1.13,1.59,2*0B
$GNGSA,A,3,,,,,,,,,,,,,1.95,1.13,1.59,3*00
$GPGSV,3,1,11,01,60,283,09,02,70,204,17,03,33,267,,08,14,210,,0*6B
$GPGSV,3,2,11,10,24,086,08,17,22,319,,19,04,339,,22,06,312,,0*6B
$GPGSV,3,3,11,28,26,123,14,31,09,147,,32,54,071,20,0*53
$GLGSV,2,1,08,70,25,051,,71,74,046,22,72,50,232,22,79,15,358,,0*76
$GLGSV,2,2,08,80,17,051,15,86,47,172,19,87,72,276,11,88,17,326,19,0*7E
$GAGSV,1,1,00,0*74
$GNGLL,5552.33295,N,03800.09510,E,124838.00,A,A*7C

$GNRMC,124839.00,A,5552.33318,N,03800.09552,E,0.749,,120625,,,A,V*14
$GNVTG,,T,,M,0.749,N,1.387,K,A*3A

$GNGGA,124839.00,5552.33318,N,03800.09552,E,1,10,1.13,147.3,M,12.9,M,,*43
$GNGSA,A,3,01,02,10,32,,,,,,,,,1.95,1.13,1.59,1*01
$GNGSA,A,3,88,86,71,87,72,80,,,,,,,1.95,1.13,1.59,2*0B
$GNGSA,A,3,,,,,,,,,,,,,1.95,1.13,1.59,3*00
$GPGSV,3,1,11,01,60,283,09,02,70,204,17,03,33,267,,08,14,210,,0*6B
$GPGSV,3,2,11,10,24,086,14,17,22,319,,19,04,339,,22,06,312,,0*66
$GPGSV,3,3,11,28,26,123,13,31,09,147,,32,54,071,20,0*54
$GLGSV,2,1,08,70,25,051,,71,74,046,25,72,50,232,20,79,15,358,,0*73
$GLGSV,2,2,08,80,17,051,19,86,47,172,20,87,72,276,11,88,17,326,18,0*79
$GAGSV,1,1,00,0*74
$GNGLL,5552.33318,N,03800.09552,E,124839.00,A,A*7F

$GNRMC,124840.00,A,5552.33305,N,03800.09544,E,0.351,,120625,,,A,V*1C
$GNVTG,,T,,M,0.351,N,0.651,K,A*38

$GNGGA,124840.00,5552.33305,N,03800.09544,E,1,10,1.13,147.6,M,12.9,M,,*43
$GNGSA,A,3,01,02,10,32,,,,,,,,,1.95,1.13,1.59,1*01
$GNGSA,A,3,88,86,71,87,72,80,,,,,,,1.95,1.13,1.59,2*0B
$GNGSA,A,3,,,,,,,,,,,,,1.95,1.13,1.59,3*00
$GPGSV,3,1,11,01,60,283,10,02,70,204,19,03,33,267,,08,14,210,,0*6D
$GPGSV,3,2,11,10,24,086,15,17,22,319,,19,04,339,,22,06,312,,0*67
$GPGSV,3,3,11,28,26,123,12,31,09,147,,32,54,071,23,0*56
$GLGSV,2,1,08,70,25,051,,71,74,046,24,72,50,232,20,79,15,358,,0*72
$GLGSV,2,2,08,80,17,051,19,86,47,172,21,87,72,276,11,88,17,326,17,0*77
$GAGSV,1,1,00,0*74
$GNGLL,5552.33305,N,03800.09544,E,124840.00,A,A*7A

$GNRMC,124841.00,A,5552.33329,N,03800.09527,E,0.369,,120625,,,A,V*1D
$GNVTG,,T,,M,0.369,N,0.683,K,A*3C
$GNGGA,124841.00,5552.33329,N,03800.09527,E,1,10,1.13,148.0,M,12.9,M,,*40
$GNGSA,A,3,01,02,10,32,,,,,,,,,1.95,1.13,1.59,1*01
$GNGSA,A,3,88,86,71,87,72,80,,,,,,,1.95,1.13,1.59,2*0B
$GNGSA,A,3,,,,,,,,,,,,,1.95,1.13,1.59,3*00

$GPGSV,3,1,11,01,60,283,08,02,70,204,18,03,33,267,,08,14,210,,0*65
$GPGSV,3,2,11,10,24,086,09,17,22,319,,19,04,339,,22,06,312,,0*6A
$GPGSV,3,3,11,28,26,123,10,31,09,147,,32,54,071,24,0*53
$GLGSV,2,1,08,70,25,051,,71,74,046,25,72,50,232,19,79,15,358,,0*79
$GLGSV,2,2,08,80,17,051,18,86,46,172,20,87,72,276,12,88,17,326,16,0*74
$GAGSV,1,1,00,0*74
$GNGLL,5552.33329,N,03800.09527,E,124841.00,A,A*70

$GNRMC,124842.00,A,5552.33323,N,03800.09551,E,0.178,,120625,,,A,V*17
$GNVTG,,T,,M,0.178,N,0.329,K,A*3B

$GNGGA,124842.00,5552.33323,N,03800.09551,E,1,10,1.13,148.3,M,12.9,M,,*4B
$GNGSA,A,3,01,02,10,32,,,,,,,,,1.95,1.13,1.59,1*01
$GNGSA,A,3,88,86,71,87,72,80,,,,,,,1.95,1.13,1.59,2*0B
$GNGSA,A,3,,,,,,,,,,,,,1.95,1.13,1.59,3*00
$GPGSV,3,1,11,01,60,283,09,02,70,204,19,03,33,267,,08,14,210,,0*65
$GPGSV,3,2,11,10,24,086,11,17,22,319,,19,04,339,,22,06,312,,0*63
$GPGSV,3,3,11,28,26,123,08,31,09,147,,32,54,071,26,0*58
$GLGSV,2,1,08,70,25,051,,71,74,046,24,72,50,232,19,79,15,358,,0*78
$GLGSV,2,2,08,80,17,051,17,86,46,172,20,87,72,274,11,88,17,326,18,0*74
$GAGSV,1,1,00,0*74
$GNGLL,5552.33323,N,03800.09551,E,124842.00,A,A*78

$GNRMC,124843.00,A,5552.33353,N,03800.09500,E,0.451,,120625,,,A,V*1B
$GNVTG,,T,,M,0.451,N,0.835,K,A*33

$GNGGA,124843.00,5552.33353,N,03800.09500,E,1,10,1.13,148.6,M,12.9,M,,*4C
$GNGSA,A,3,01,02,10,32,,,,,,,,,1.95,1.13,1.59,1*01
$GNGSA,A,3,88,86,71,87,72,80,,,,,,,1.95,1.13,1.59,2*0B
$GNGSA,A,3,,,,,,,,,,,,,1.95,1.13,1.59,3*00
$GPGSV,3,1,11,01,60,283,14,02,70,204,18,03,33,267,,08,14,210,,0*68
$GPGSV,3,2,11,10,24,086,17,17,22,319,,19,04,339,,22,06,312,,0*65
$GPGSV,3,3,11,28,26,123,08,31,09,147,,32,54,071,27,0*59
$GLGSV,2,1,08,70,25,051,,71,74,046,23,72,50,232,18,79,15,358,,0*7E
$GLGSV,2,2,08,80,17,051,19,86,46,172,20,87,72,274,11,88,17,326,20,0*71
$GAGSV,1,1,00,0*74
$GNGLL,5552.33353,N,03800.09500,E,124843.00,A,A*7A

$GNRMC,124844.00,A,5552.33425,N,03800.09462,E,1.203,,120625,,,A,V*1F
$GNVTG,,T,,M,1.203,N,2.229,K,A*36
$GNGGA,124844.00,5552.33425,N,03800.09462,E,1,10,1.13,148.9,M,12.9,M,,*47
$GNGSA,A,3,01,02,10,32,,,,,,,,,1.95,1.13,1.59,1*01
$GNGSA,A,3,88,86,71,87,72,80,,,,,,,1.95,1.13,1.59,2*0B

$GNGSA,A,3,,,,,,,,,,,,,1.95,1.13,1.59,3*00
$GPGSV,3,1,11,01,61,283,12,02,70,204,19,03,33,267,,08,14,210,,0*6E
$GPGSV,3,2,11,10,24,086,19,17,22,319,,19,04,339,,22,06,312,,0*6B
$GPGSV,3,3,11,28,26,123,07,31,09,147,,32,54,071,27,0*56
$GLGSV,2,1,08,70,25,051,,71,74,046,24,72,50,232,18,79,15,358,,0*79
$GLGSV,2,2,08,80,17,051,19,86,46,172,21,87,72,274,11,88,17,326,21,0*71
$GAGSV,1,1,00,0*74
$GNGLL,5552.33425,N,03800.09462,E,124844.00,A,A*7E

$GNRMC,124845.00,A,5552.33488,N,03800.09435,E,1.762,,120625,,,A,V*19
$GNVTG,,T,,M,1.762,N,3.263,K,A*3B

$GNGGA,124845.00,5552.33488,N,03800.09435,E,1,09,1.15,148.8,M,12.9,M,,*4C
$GNGSA,A,3,01,02,10,32,,,,,,,,,2.04,1.15,1.68,1*0E
$GNGSA,A,3,88,86,71,72,80,,,,,,,,2.04,1.15,1.68,2*0B
$GNGSA,A,3,,,,,,,,,,,,,2.04,1.15,1.68,3*0F
$GPGSV,3,1,11,01,61,283,12,02,69,203,19,03,33,267,,08,14,210,,0*61
$GPGSV,3,2,11,10,24,086,16,17,22,319,,19,04,339,,22,06,312,,0*64
$GPGSV,3,3,11,28,26,123,,31,09,147,,32,54,071,27,0*51
$GLGSV,2,1,08,70,25,051,,71,74,046,25,72,50,232,17,79,15,358,,0*77
$GLGSV,2,2,08,80,17,051,18,86,46,172,21,87,72,274,09,88,17,326,20,0*78
$GAGSV,1,1,00,0*74
$GNGLL,5552.33488,N,03800.09435,E,124845.00,A,A*7A

$GNRMC,124846.00,A,5552.33509,N,03800.09491,E,1.444,,120625,,,A,V*1B
$GNVTG,,T,,M,1.444,N,2.675,K,A*3E

$GNGGA,124846.00,5552.33509,N,03800.09491,E,1,10,1.13,148.7,M,12.9,M,,*48
$GNGSA,A,3,01,02,10,32,,,,,,,,,1.95,1.13,1.59,1*01
$GNGSA,A,3,88,86,71,87,72,80,,,,,,,1.95,1.13,1.59,2*0B
$GNGSA,A,3,,,,,,,,,,,,,1.95,1.13,1.59,3*00
$GPGSV,3,1,11,01,61,283,10,02,69,203,17,03,34,268,,08,14,210,,0*65
$GPGSV,3,2,11,10,24,086,19,17,22,319,,19,04,339,,22,06,312,,0*6B
$GPGSV,3,3,11,28,26,123,,31,09,147,,32,54,071,27,0*51
$GLGSV,2,1,08,70,25,051,,71,74,046,24,72,50,232,16,79,15,358,,0*77
$GLGSV,2,2,08,80,17,051,18,86,46,172,22,87,72,274,12,88,17,326,19,0*7B
$GAGSV,1,1,00,0*74
$GNGLL,5552.33509,N,03800.09491,E,124846.00,A,A*7F

$GNRMC,124847.00,A,5552.33544,N,03800.09537,E,1.558,,120625,,,A,V*12
$GNVTG,,T,,M,1.558,N,2.885,K,A*33

$GNGGA,124847.00,5552.33544,N,03800.09537,E,1,10,1.13,148.2,M,12.9,M,,*48
$GNGSA,A,3,01,02,10,32,,,,,,,,,1.95,1.13,1.59,1*01
$GNGSA,A,3,88,86,71,87,72,80,,,,,,,1.95,1.13,1.59,2*0B
$GNGSA,A,3,,,,,,,,,,,,,1.95,1.13,1.59,3*00
$GPGSV,3,1,11,01,61,283,16,02,69,203,16,03,34,268,,08,14,210,,0*62
$GPGSV,3,2,11,10,24,086,19,17,22,319,,19,04,339,,22,06,312,,0*6B
$GPGSV,3,3,11,28,26,123,,31,09,147,,32,54,071,26,0*50
$GLGSV,2,1,08,70,25,051,,71,74,046,23,72,50,232,17,79,15,358,,0*71
$GLGSV,2,2,08,80,17,051,18,86,46,172,20,87,72,274,08,88,17,326,19,0*72
$GAGSV,1,1,00,0*74
$GNGLL,5552.33544,N,03800.09537,E,124847.00,A,A*7A

$GNRMC,124848.00,A,5552.33512,N,03800.09514,E,0.812,,120625,,,A,V*1D
$GNVTG,,T,,M,0.812,N,1.504,K,A*36

$GNGGA,124848.00,5552.33512,N,03800.09514,E,1,10,1.13,148.0,M,12.9,M,,*47
$GNGSA,A,3,01,02,10,32,,,,,,,,,1.95,1.13,1.59,1*01
$GNGSA,A,3,88,86,71,87,72,80,,,,,,,1.95,1.13,1.59,2*0B
$GNGSA,A,3,,,,,,,,,,,,,1.95,1.13,1.59,3*00
$GPGSV,3,1,11,01,61,283,12,02,69,203,16,03,34,268,,08,14,210,,0*66
$GPGSV,3,2,11,10,24,086,20,17,22,319,,19,04,339,,22,06,312,,0*61
$GPGSV,3,3,11,28,26,123,,31,09,147,,32,54,071,23,0*55
$GLGSV,2,1,08,70,25,051,,71,74,046,22,72,50,232,17,79,15,358,,0*70
$GLGSV,2,2,08,80,17,051,19,86,46,172,22,87,72,274,14,88,17,326,20,0*76
$GAGSV,1,1,00,0*74
$GNGLL,5552.33512,N,03800.09514,E,124848.00,A,A*77

$GNRMC,124849.00,A,5552.33515,N,03800.09543,E,0.684,,120625,,,A,V*18
$GNVTG,,T,,M,0.684,N,1.266,K,A*34

$GNGGA,124849.00,5552.33515,N,03800.09543,E,1,10,1.13,147.8,M,12.9,M,,*44
$GNGSA,A,3,01,02,10,32,,,,,,,,,1.95,1.13,1.59,1*01
$GNGSA,A,3,88,86,71,87,72,80,,,,,,,1.95,1.13,1.59,2*0B
$GNGSA,A,3,,,,,,,,,,,,,1.95,1.13,1.59,3*00
$GPGSV,3,1,11,01,61,283,15,02,69,203,17,03,34,268,,08,14,210,,0*60
$GPGSV,3,2,11,10,24,086,19,17,22,319,,19,04,339,,22,06,312,,0*6B
$GPGSV,3,3,11,28,26,123,,31,09,147,,32,54,071,24,0*52
$GLGSV,2,1,08,70,25,051,,71,74,046,20,72,50,232,18,79,15,358,,0*7D
$GLGSV,2,2,08,80,17,051,19,86,46,172,20,87,72,274,12,88,17,326,22,0*70
$GAGSV,1,1,00,0*74
$GNGLL,5552.33515,N,03800.09543,E,124849.00,A,A*73

$GNRMC,124850.00,A,5552.33529,N,03800.09515,E,0.787,,120625,,,A,V*1E
$GNVTG,,T,,M,0.787,N,1.458,K,A*3D

$GNGGA,124850.00,5552.33529,N,03800.09515,E,1,10,1.13,147.5,M,12.9,M,,*4D
$GNGSA,A,3,01,02,10,32,,,,,,,,,1.95,1.13,1.59,1*01
$GNGSA,A,3,88,86,71,87,72,80,,,,,,,1.95,1.13,1.59,2*0B
$GNGSA,A,3,,,,,,,,,,,,,1.95,1.13,1.59,3*00
$GPGSV,3,1,11,01,61,283,14,02,69,203,18,03,34,268,,08,14,210,,0*6E
$GPGSV,3,2,11,10,24,086,18,17,22,319,,19,04,339,,22,06,312,,0*6A
$GPGSV,3,3,11,28,26,123,,31,09,147,,32,54,071,25,0*53
$GLGSV,2,1,08,70,25,051,,71,74,046,22,72,50,232,20,79,15,358,,0*74
$GLGSV,2,2,08,80,17,051,18,86,46,172,23,87,72,274,17,88,17,326,20,0*75
$GAGSV,1,1,00,0*74
$GNGLL,5552.33529,N,03800.09515,E,124850.00,A,A*77

$GNRMC,124851.00,A,5552.33563,N,03800.09499,E,1.144,,120625,,,A,V*1C
$GNVTG,,T,,M,1.144,N,2.118,K,A*37

$GNGGA,124851.00,5552.33563,N,03800.09499,E,1,10,1.13,147.1,M,12.9,M,,*43
$GNGSA,A,3,01,02,10,32,,,,,,,,,1.95,1.13,1.59,1*01
$GNGSA,A,3,88,86,71,87,72,80,,,,,,,1.95,1.13,1.59,2*0B
$GNGSA,A,3,,,,,,,,,,,,,1.95,1.13,1.59,3*00
$GPGSV,3,1,11,01,61,283,12,02,69,203,18,03,34,268,,08,13,210,,0*6F
$GPGSV,3,2,11,10,24,086,16,17,22,319,,19,04,339,,22,06,312,,0*64
$GPGSV,3,3,11,28,26,123,,31,09,147,,32,54,071,26,0*50
$GLGSV,2,1,08,70,25,051,,71,74,046,22,72,50,232,20,79,15,358,,0*74
$GLGSV,2,2,08,80,17,051,20,86,46,172,24,87,72,274,12,88,17,326,19,0*76
$GAGSV,1,1,00,0*74
$GNGLL,5552.33563,N,03800.09499,E,124851.00,A,A*7D

$GNRMC,124852.00,A,5552.33603,N,03800.09467,E,1.424,,120625,,,A,V*18
$GNVTG,,T,,M,1.424,N,2.638,K,A*31

$GNGGA,124852.00,5552.33603,N,03800.09467,E,1,10,1.13,146.8,M,12.9,M,,*4C
$GNGSA,A,3,01,02,10,32,,,,,,,,,1.95,1.13,1.59,1*01
$GNGSA,A,3,88,86,71,87,72,80,,,,,,,1.95,1.13,1.59,2*0B
$GNGSA,A,3,,,,,,,,,,,,,1.95,1.13,1.59,3*00
$GPGSV,3,1,11,01,61,283,15,02,69,203,19,03,34,268,,08,13,210,,0*69
$GPGSV,3,2,11,10,24,086,15,17,22,319,,19,04,339,,22,06,312,,0*67
$GPGSV,3,3,11,28,26,123,,31,09,147,,32,54,071,26,0*50
$GLGSV,2,1,08,70,25,051,,71,74,046,21,72,50,232,20,79,15,358,,0*77
$GLGSV,2,2,08,80,17,051,19,86,46,172,23,87,72,274,13,88,17,326,18,0*7B
$GAGSV,1,1,00,0*74
$GNGLL,5552.33603,N,03800.09467,E,124852.00,A,A*7A

$GNRMC,124853.00,A,5552.33644,N,03800.09478,E,1.431,,120625,,,A,V*10

$GNVTG,,T,,M,1.431,N,2.649,K,A*33
$GNGGA,124853.00,5552.33644,N,03800.09478,E,1,10,1.13,146.7,M,12.9,M,,*4F
$GNGSA,A,3,01,02,10,32,,,,,,,,,1.95,1.13,1.59,1*01
$GNGSA,A,3,88,86,71,87,72,80,,,,,,,1.95,1.13,1.59,2*0B
$GNGSA,A,3,,,,,,,,,,,,,1.95,1.13,1.59,3*00
$GPGSV,3,1,11,01,61,283,13,02,69,203,20,03,34,268,,08,13,210,,0*65
$GPGSV,3,2,11,10,23,086,13,17,22,319,,19,04,339,,22,06,312,,0*66
$GPGSV,3,3,11,28,26,123,,31,09,147,,32,54,071,22,0*54
$GLGSV,2,1,08,70,25,051,,71,74,046,21,72,50,232,19,79,15,358,,0*7D
$GLGSV,2,2,08,80,17,051,17,86,46,172,24,87,72,274,17,88,17,326,20,0*7D
$GAGSV,1,1,00,0*74
$GNGLL,5552.33644,N,03800.09478,E,124853.00,A,A*76

$GNRMC,124854.00,A,5552.33658,N,03800.09511,E,1.186,,120625,,,A,V*1D
$GNVTG,,T,,M,1.186,N,2.197,K,A*3E

$GNGGA,124854.00,5552.33658,N,03800.09511,E,1,10,1.13,146.4,M,12.9,M,,*48
$GNGSA,A,3,01,02,10,32,,,,,,,,,1.95,1.13,1.59,1*01
$GNGSA,A,3,88,86,71,87,72,80,,,,,,,1.95,1.13,1.59,2*0B
$GNGSA,A,3,,,,,,,,,,,,,1.95,1.13,1.59,3*00
$GPGSV,3,1,11,01,61,283,14,02,69,203,22,03,34,268,,08,13,210,,0*60
$GPGSV,3,2,11,10,23,086,12,17,22,319,,19,04,339,,22,06,312,,0*67
$GPGSV,3,3,11,28,26,123,,31,09,147,,32,54,071,19,0*5C
$GLGSV,2,1,08,70,25,051,,71,74,046,20,72,50,232,18,79,15,358,,0*7D
$GLGSV,2,2,08,80,17,051,14,86,46,172,25,87,72,274,13,88,17,326,25,0*7E
$GAGSV,1,1,00,0*74
$GNGLL,5552.33658,N,03800.09511,E,124854.00,A,A*72

$GNRMC,124855.00,A,5552.33662,N,03800.09514,E,0.679,,120625,,,A,V*16
$GNVTG,,T,,M,0.679,N,1.258,K,A*3B
$GNGGA,124855.00,5552.33662,N,03800.09514,E,1,10,1.13,146.4,M,12.9,M,,*45

$GNGSA,A,3,01,02,10,32,,,,,,,,,1.95,1.13,1.59,1*01
$GNGSA,A,3,88,86,71,87,72,80,,,,,,,1.95,1.13,1.59,2*0B
$GNGSA,A,3,,,,,,,,,,,,,1.95,1.13,1.59,3*00
$GPGSV,3,1,11,01,61,283,16,02,69,203,23,03,34,268,,08,13,210,,0*63
$GPGSV,3,2,11,10,23,086,11,17,22,319,,19,04,339,,22,06,312,,0*64
$GPGSV,3,3,11,28,26,123,,31,09,147,,32,54,071,15,0*50
$GLGSV,2,1,08,70,25,051,,71,74,046,22,72,50,232,18,79,15,358,,0*7F
$GLGSV,2,2,08,80,17,051,14,86,46,172,26,87,72,274,17,88,17,326,22,0*7E
$GAGSV,1,1,00,0*74
$GNGLL,5552.33662,N,03800.09514,E,124855.00,A,A*7F

$GNRMC,124856.00,A,5552.33669,N,03800.09552,E,0.524,,120625,,,A,V*17
$GNVTG,,T,,M,0.524,N,0.970,K,A*30

$GNGGA,124856.00,5552.33669,N,03800.09552,E,1,10,1.13,146.2,M,12.9,M,,*49
$GNGSA,A,3,01,02,10,32,,,,,,,,,1.95,1.13,1.59,1*01
$GNGSA,A,3,88,86,71,87,72,80,,,,,,,1.95,1.13,1.59,2*0B
$GNGSA,A,3,,,,,,,,,,,,,1.95,1.13,1.59,3*00
$GPGSV,3,1,11,01,61,283,19,02,69,203,23,03,34,268,,08,13,210,,0*6C
$GPGSV,3,2,11,10,23,086,18,17,22,319,,19,04,339,,22,06,312,,0*6D
$GPGSV,3,3,11,28,26,123,,31,09,147,,32,54,071,14,0*51
$GLGSV,2,1,08,70,25,051,,71,74,046,20,72,50,232,19,79,15,358,,0*7C
$GLGSV,2,2,08,80,17,051,14,86,46,172,26,87,72,274,15,88,17,326,20,0*7E
$GAGSV,1,1,00,0*74
$GNGLL,5552.33669,N,03800.09552,E,124856.00,A,A*75

$GNRMC,124857.00,A,5552.33676,N,03800.09529,E,0.297,,120625,,,A,V*1B
$GNVTG,,T,,M,0.297,N,0.549,K,A*39

$GNGGA,124857.00,5552.33676,N,03800.09529,E,1,10,1.13,146.3,M,12.9,M,,*4B
$GNGSA,A,3,01,02,10,32,,,,,,,,,1.95,1.13,1.59,1*01
$GNGSA,A,3,88,86,71,87,72,80,,,,,,,1.95,1.13,1.59,2*0B
$GNGSA,A,3,,,,,,,,,,,,,1.95,1.13,1.59,3*00
$GPGSV,3,1,11,01,61,283,22,02,69,203,21,03,34,268,,08,13,210,,0*66
$GPGSV,3,2,11,10,23,086,15,17,22,319,,19,04,339,,22,06,312,,0*60
$GPGSV,3,3,11,28,26,123,,31,09,147,,32,54,071,14,0*51
$GLGSV,2,1,08,70,25,051,,71,74,046,22,72,50,232,19,79,15,358,,0*7E
$GLGSV,2,2,08,80,17,051,15,86,46,172,23,87,72,274,16,88,17,326,20,0*79
$GAGSV,1,1,00,0*74
$GNGLL,5552.33676,N,03800.09529,E,124857.00,A,A*76

$GNRMC,124858.00,A,5552.33686,N,03800.09517,E,0.351,,120625,,,A,V*1D
$GNVTG,,T,,M,0.351,N,0.650,K,A*39

$GNGGA,124858.00,5552.33686,N,03800.09517,E,1,10,1.13,146.3,M,12.9,M,,*46
$GNGSA,A,3,01,02,10,32,,,,,,,,,1.95,1.13,1.59,1*01
$GNGSA,A,3,88,86,71,87,72,80,,,,,,,1.95,1.13,1.59,2*0B
$GNGSA,A,3,,,,,,,,,,,,,1.95,1.13,1.59,3*00
$GPGSV,3,1,11,01,61,283,23,02,69,203,19,03,34,268,18,08,13,210,,0*65
$GPGSV,3,2,11,10,23,086,17,17,22,319,,19,04,339,,22,06,312,,0*62
$GPGSV,3,3,11,28,26,123,,31,09,147,,32,54,071,16,0*53
$GLGSV,2,1,08,70,25,051,,71,74,046,22,72,50,232,20,79,15,358,,0*74
$GLGSV,2,2,08,80,17,051,12,86,46,172,23,87,72,274,14,88,17,326,25,0*79
$GAGSV,1,1,00,0*74
$GNGLL,5552.33686,N,03800.09517,E,124858.00,A,A*7B

$GNRMC,124859.00,A,5552.33676,N,03800.09483,E,0.300,,120625,,,A,V*1B
$GNVTG,,T,,M,0.300,N,0.555,K,A*3B
$GNGGA,124859.00,5552.33676,N,03800.09483,E,1,09,1.22,146.1,M,12.9,M,,*4C
$GNGSA,A,3,01,02,32,,,,,,,,,,2.10,1.22,1.71,1*06
$GNGSA,A,3,88,86,71,87,72,80,,,,,,,2.10,1.22,1.71,2*0D
$GNGSA,A,3,,,,,,,,,,,,,2.10,1.22,1.71,3*06
$GPGSV,3,1,11,01,61,283,21,02,69,203,15,03,34,268,17,08,13,210,,0*64
$GPGSV,3,2,11,10,23,086,06,17,22,319,,19,04,339,,22,06,312,,0*62
$GPGSV,3,3,11,28,26,123,,31,09,147,,32,54,071,18,0*5D

$GLGSV,2,1,08,70,25,051,,71,74,046,24,72,50,232,21,79,15,358,,0*73
$GLGSV,2,2,08,80,17,051,08,86,46,172,20,87,72,274,11,88,17,326,26,0*77
$GAGSV,1,1,00,0*74
$GNGLL,5552.33676,N,03800.09483,E,124859.00,A,A*79

$GNRMC,124900.00,A,5552.33655,N,03800.09506,E,0.205,,120625,,,A,V*1F
$GNVTG,,T,,M,0.205,N,0.379,K,A*37

$GNGGA,124900.00,5552.33655,N,03800.09506,E,1,09,1.22,145.9,M,12.9,M,,*47
$GNGSA,A,3,01,02,32,,,,,,,,,,2.10,1.22,1.71,1*06
$GNGSA,A,3,88,86,71,87,72,80,,,,,,,2.10,1.22,1.71,2*0D
$GNGSA,A,3,,,,,,,,,,,,,2.10,1.22,1.71,3*06
$GPGSV,3,1,11,01,61,283,20,02,69,203,15,03,34,268,17,08,13,210,,0*65
$GPGSV,3,2,11,10,23,086,06,17,23,318,,19,04,339,,22,06,312,,0*62
$GPGSV,3,3,11,28,26,123,,31,09,147,,32,54,071,17,0*52
$GLGSV,2,1,08,70,25,051,,71,74,046,21,72,50,232,19,79,15,358,,0*7D
$GLGSV,2,2,08,80,17,051,12,86,46,172,19,87,72,274,16,88,17,326,24,0*73
$GAGSV,1,1,00,0*74
$GNGLL,5552.33655,N,03800.09506,E,124900.00,A,A*79

$GNRMC,124901.00,A,5552.33662,N,03800.09450,E,0.455,,120625,,,A,V*1B
$GNVTG,,T,,M,0.455,N,0.843,K,A*36
$GNGGA,124901.00,5552.33662,N,03800.09450,E,1,10,1.13,145.7,M,12.9,M,,*44

$GNGSA,A,3,01,02,10,32,,,,,,,,,1.95,1.13,1.59,1*01
$GNGSA,A,3,88,86,71,87,72,80,,,,,,,1.95,1.13,1.59,2*0B
$GNGSA,A,3,,,,,,,,,,,,,1.95,1.13,1.59,3*00
$GPGSV,3,1,11,01,61,283,17,02,69,203,14,03,34,268,14,08,13,210,,0*63
$GPGSV,3,2,11,10,23,086,08,17,23,318,,19,04,339,,22,06,312,,0*6C
$GPGSV,3,3,11,28,26,123,,31,09,147,,32,54,071,16,0*53
$GLGSV,2,1,08,70,25,051,,71,74,046,18,72,50,232,15,79,15,358,,0*7B
$GLGSV,2,2,08,80,17,051,12,86,46,172,19,87,72,274,17,88,17,326,23,0*75
$GAGSV,1,1,00,0*74
$GNGLL,5552.33662,N,03800.09450,E,124901.00,A,A*7E

$GNRMC,124902.00,A,5552.33668,N,03800.09442,E,0.575,,120625,,,A,V*12
$GNVTG,,T,,M,0.575,N,1.065,K,A*38
$GNGGA,124902.00,5552.33668,N,03800.09442,E,1,09,1.14,145.2,M,12.9,M,,*44

$GNGSA,A,3,01,02,10,32,,,,,,,,,2.04,1.14,1.68,1*0F
$GNGSA,A,3,88,86,71,72,80,,,,,,,,2.04,1.14,1.68,2*0A
$GNGSA,A,3,,,,,,,,,,,,,2.04,1.14,1.68,3*0E
$GPGSV,3,1,11,01,61,283,17,02,69,203,15,03,34,268,14,08,13,210,,0*62
$GPGSV,3,2,11,10,23,086,09,17,23,318,,19,04,338,,22,06,312,,0*6C
$GPGSV,3,3,11,28,26,123,,31,09,147,,32,54,071,15,0*50
$GLGSV,2,1,08,70,25,051,,71,74,046,16,72,50,232,14,79,15,358,,0*74
$GLGSV,2,2,08,80,17,051,12,86,46,172,20,87,72,274,05,88,17,326,21,0*7E
$GAGSV,1,1,00,0*74
$GNGLL,5552.33668,N,03800.09442,E,124902.00,A,A*74

$GNRMC,124903.00,A,5552.33693,N,03800.09406,E,0.815,,120625,,,A,V*1C
$GNVTG,,T,,M,0.815,N,1.509,K,A*3C
$GNGGA,124903.00,5552.33693,N,03800.09406,E,1,09,1.14,145.1,M,12.9,M,,*42

$GNGSA,A,3,01,02,10,32,,,,,,,,,2.04,1.14,1.68,1*0F
$GNGSA,A,3,88,86,71,72,80,,,,,,,,2.04,1.14,1.68,2*0A
$GNGSA,A,3,,,,,,,,,,,,,2.04,1.14,1.68,3*0E
$GPGSV,3,1,11,01,61,283,16,02,69,203,14,03,34,268,14,08,13,210,,0*62
$GPGSV,3,2,11,10,23,086,09,17,23,318,,19,04,338,,22,06,312,,0*6C
$GPGSV,3,3,11,28,26,123,,31,09,147,,32,54,071,12,0*57
$GLGSV,2,1,08,70,25,051,,71,74,046,15,72,50,232,14,79,15,358,,0*77
$GLGSV,2,2,08,80,17,051,12,86,46,172,21,87,72,274,08,88,17,326,23,0*70
$GAGSV,1,1,00,0*74
$GNGLL,5552.33693,N,03800.09406,E,124903.00,A,A*71

$GNRMC,124904.00,A,5552.33744,N,03800.09417,E,1.098,,120625,,,A,V*1C
$GNVTG,,T,,M,1.098,N,2.034,K,A*38

$GNGGA,124904.00,5552.33744,N,03800.09417,E,1,10,1.13,145.1,M,12.9,M,,*41
$GNGSA,A,3,01,02,10,32,,,,,,,,,1.95,1.13,1.59,1*01
$GNGSA,A,3,88,86,71,87,72,80,,,,,,,1.95,1.13,1.59,2*0B
$GNGSA,A,3,,,,,,,,,,,,,1.95,1.13,1.59,3*00
$GPGSV,3,1,11,01,61,283,16,02,69,203,16,03,34,268,14,08,13,210,,0*60
$GPGSV,3,2,11,10,23,086,11,17,23,318,,19,04,338,,22,06,312,,0*65
$GPGSV,3,3,11,28,26,123,,31,09,147,,32,54,071,14,0*51
$GLGSV,2,1,08,70,25,051,,71,74,046,14,72,50,232,13,79,15,358,,0*71
$GLGSV,2,2,08,80,17,051,12,86,46,172,19,87,72,274,12,88,17,326,23,0*70
$GAGSV,1,1,00,0*74
$GNGLL,5552.33744,N,03800.09417,E,124904.00,A,A*7D

$GNRMC,124905.00,A,5552.33755,N,03800.09379,E,0.907,,120625,,,A,V*1C
$GNVTG,,T,,M,0.907,N,1.680,K,A*3C

$GNGGA,124905.00,5552.33755,N,03800.09379,E,1,09,1.22,145.0,M,12.9,M,,*44
$GNGSA,A,3,01,02,32,,,,,,,,,,2.10,1.22,1.71,1*06
$GNGSA,A,3,88,86,71,87,72,80,,,,,,,2.10,1.22,1.71,2*0D
$GNGSA,A,3,,,,,,,,,,,,,2.10,1.22,1.71,3*06
$GPGSV,3,1,11,01,61,283,13,02,69,203,15,03,34,268,14,08,13,210,,0*66
$GPGSV,3,2,11,10,23,086,09,17,23,318,,19,04,338,,22,05,311,,0*6C
$GPGSV,3,3,11,28,26,123,,31,09,147,,32,54,071,14,0*51
$GLGSV,2,1,08,70,25,051,,71,74,046,14,72,50,232,11,79,15,358,,0*73
$GLGSV,2,2,08,80,17,051,13,86,46,172,20,87,72,274,17,88,17,326,23,0*7E
$GAGSV,1,1,00,0*74
$GNGLL,5552.33755,N,03800.09379,E,124905.00,A,A*73

$GNRMC,124906.00,A,5552.33805,N,03800.09388,E,1.238,,120625,,,A,V*1D
$GNVTG,,T,,M,1.238,N,2.292,K,A*3E
$GNGGA,124906.00,5552.33805,N,03800.09388,E,1,10,1.13,145.0,M,12.9,M,,*49
$GNGSA,A,3,01,02,10,32,,,,,,,,,1.95,1.13,1.59,1*01
$GNGSA,A,3,88,86,71,87,72,80,,,,,,,1.95,1.13,1.59,2*0B
$GNGSA,A,3,,,,,,,,,,,,,1.95,1.13,1.59,3*00
$GPGSV,3,1,11,01,61,283,13,02,69,203,17,03,34,268,13,08,13,210,,0*63
$GPGSV,3,2,11,10,23,086,12,17,23,318,,19,04,338,,22,05,311,,0*66

$GPGSV,3,3,11,28,26,123,,31,09,147,,32,54,071,15,0*50
$GLGSV,2,1,08,70,25,051,,71,74,046,15,72,50,232,13,79,15,358,,0*70
$GLGSV,2,2,08,80,17,051,13,86,46,172,23,87,72,274,19,88,17,326,22,0*72
$GAGSV,1,1,00,0*74
$GNGLL,5552.33805,N,03800.09388,E,124906.00,A,A*74

$GNRMC,124907.00,A,5552.33835,N,03800.09366,E,1.320,,120625,,,A,V*17
$GNVTG,,T,,M,1.320,N,2.445,K,A*3A
$GNGGA,124907.00,5552.33835,N,03800.09366,E,1,10,1.13,144.8,M,12.9,M,,*42

$GNGSA,A,3,01,02,10,32,,,,,,,,,1.95,1.13,1.59,1*01
$GNGSA,A,3,88,86,71,87,72,80,,,,,,,1.95,1.13,1.59,2*0B
$GNGSA,A,3,,,,,,,,,,,,,1.95,1.13,1.59,3*00
$GPGSV,3,1,11,01,61,283,12,02,69,203,17,03,34,268,13,08,13,210,,0*62
$GPGSV,3,2,11,10,23,086,13,17,23,318,,19,04,338,,22,05,311,,0*67
$GPGSV,3,3,11,28,26,123,,31,09,147,,32,54,071,15,0*50
$GLGSV,2,1,08,70,25,051,,71,74,046,15,72,50,232,14,79,15,358,,0*77
$GLGSV,2,2,08,80,17,051,12,86,46,172,24,87,72,274,20,88,17,326,22,0*7E
$GAGSV,1,1,00,0*74
$GNGLL,5552.33835,N,03800.09366,E,124907.00,A,A*76

$GNRMC,124908.00,A,5552.33849,N,03800.09323,E,1.088,,120625,,,A,V*13
$GNVTG,,T,,M,1.088,N,2.015,K,A*3A
$GNGGA,124908.00,5552.33849,N,03800.09323,E,1,10,1.13,145.2,M,12.9,M,,*4C

$GNGSA,A,3,01,02,10,32,,,,,,,,,1.95,1.13,1.59,1*01
$GNGSA,A,3,88,86,71,87,72,80,,,,,,,1.95,1.13,1.59,2*0B
$GNGSA,A,3,,,,,,,,,,,,,1.95,1.13,1.59,3*00
$GPGSV,3,1,11,01,61,283,14,02,69,203,17,03,34,268,14,08,13,210,,0*63
$GPGSV,3,2,11,10,23,086,14,17,23,318,,19,04,338,,22,05,311,,0*60
$GPGSV,3,3,11,28,26,123,,31,09,147,,32,54,071,18,0*5D
$GLGSV,2,1,08,70,25,051,,71,74,046,16,72,50,232,10,79,15,358,,0*70
$GLGSV,2,2,08,80,17,051,12,86,46,172,23,87,72,274,19,88,17,326,21,0*70
$GAGSV,1,1,00,0*74
$GNGLL,5552.33849,N,03800.09323,E,124908.00,A,A*73

$GNRMC,124909.00,A,5552.33861,N,03800.09149,E,1.687,,120625,,,A,V*1F
$GNVTG,,T,,M,1.687,N,3.124,K,A*31
$GNGGA,124909.00,5552.33861,N,03800.09149,E,1,10,1.13,144.9,M,12.9,M,,*43
$GNGSA,A,3,01,02,10,32,,,,,,,,,1.95,1.13,1.59,1*01

$GNGSA,A,3,88,86,71,87,72,80,,,,,,,1.95,1.13,1.59,2*0B
$GNGSA,A,3,,,,,,,,,,,,,1.95,1.13,1.59,3*00
$GPGSV,3,1,11,01,61,283,16,02,69,203,17,03,34,268,14,08,13,210,14,0*64
$GPGSV,3,2,11,10,23,086,14,17,23,318,26,19,04,338,,22,05,311,,0*64
$GPGSV,3,3,11,28,26,123,,31,09,147,,32,54,071,19,0*5C
$GLGSV,2,1,08,70,25,051,,71,74,046,16,72,50,232,17,79,15,358,,0*77
$GLGSV,2,2,08,80,17,051,16,86,46,172,21,87,72,274,19,88,17,326,21,0*76
$GAGSV,1,1,00,0*74
$GNGLL,5552.33861,N,03800.09149,E,124909.00,A,A*76

$GNRMC,124910.00,A,5552.33893,N,03800.09152,E,1.278,,120625,,,A,V*14
$GNVTG,,T,,M,1.278,N,2.366,K,A*30
$GNGGA,124910.00,5552.33893,N,03800.09152,E,1,09,1.32,145.4,M,12.9,M,,*4B
$GNGSA,A,3,01,02,32,,,,,,,,,,2.23,1.32,1.80,1*09
$GNGSA,A,3,88,86,71,87,72,80,,,,,,,2.23,1.32,1.80,2*02
$GNGSA,A,3,,,,,,,,,,,,,2.23,1.32,1.80,3*09

$GPGSV,3,1,11,01,61,283,17,02,69,203,16,03,34,268,14,08,13,210,,0*61
$GPGSV,3,2,11,10,23,086,12,17,23,318,23,19,04,338,,22,05,311,,0*67
$GPGSV,3,3,11,28,26,123,,31,09,147,16,32,54,071,16,0*54
$GLGSV,2,1,08,70,25,051,,71,74,046,14,72,50,232,13,79,15,358,,0*71
$GLGSV,2,2,08,80,17,051,18,86,46,172,21,87,72,274,20,88,17,326,21,0*72
$GAGSV,1,1,00,0*74
$GNGLL,5552.33893,N,03800.09152,E,124910.00,A,A*79

$GNRMC,124911.00,A,5552.33913,N,03800.09109,E,1.124,,120625,,,A,V*18
$GNVTG,,T,,M,1.124,N,2.082,K,A*33

$GNGGA,124911.00,5552.33913,N,03800.09109,E,1,10,1.21,145.7,M,12.9,M,,*44
$GNGSA,A,3,01,02,10,32,,,,,,,,,2.12,1.21,1.74,1*03
$GNGSA,A,3,88,86,71,87,72,80,,,,,,,2.12,1.21,1.74,2*09
$GNGSA,A,3,,,,,,,,,,,,,2.12,1.21,1.74,3*02
$GPGSV,3,1,11,01,61,283,17,02,69,203,18,03,34,268,19,08,13,210,,0*62
$GPGSV,3,2,11,10,23,086,14,17,23,318,21,19,04,338,,22,05,311,,0*63
$GPGSV,3,3,11,28,26,123,,31,09,147,14,32,54,071,15,0*55
$GLGSV,2,1,08,70,25,051,,71,74,046,15,72,50,232,17,79,15,358,,0*74
$GLGSV,2,2,08,80,17,051,17,86,46,172,21,87,72,274,20,88,17,326,20,0*7C
$GAGSV,1,1,00,0*74
$GNGLL,5552.33913,N,03800.09109,E,124911.00,A,A*7F

$GNRMC,124912.00,A,5552.33927,N,03800.09051,E,1.098,,120625,,,A,V*16
$GNVTG,,T,,M,1.098,N,2.034,K,A*38

$GNGGA,124912.00,5552.33927,N,03800.09051,E,1,10,1.21,145.6,M,12.9,M,,*4D
$GNGSA,A,3,01,02,10,32,,,,,,,,,2.12,1.21,1.74,1*03
$GNGSA,A,3,88,86,71,87,72,80,,,,,,,2.12,1.21,1.74,2*09
$GNGSA,A,3,,,,,,,,,,,,,2.12,1.21,1.74,3*02
$GPGSV,3,1,11,01,61,283,16,02,69,203,17,03,34,268,19,08,13,210,,0*6C
$GPGSV,3,2,11,10,23,086,13,17,23,318,17,19,04,338,,22,05,311,,0*61
$GPGSV,3,3,11,28,26,123,,31,09,147,11,32,54,071,12,0*57
$GLGSV,2,1,08,70,25,051,,71,74,046,19,72,50,232,19,79,15,358,,0*76
$GLGSV,2,2,08,80,17,051,14,86,46,172,20,87,72,274,19,88,17,326,20,0*74
$GAGSV,1,1,00,0*74
$GNGLL,5552.33927,N,03800.09051,E,124912.00,A,A*77

$GNRMC,124913.00,A,5552.33924,N,03800.08954,E,1.143,,120625,,,A,V*1E
$GNVTG,,T,,M,1.143,N,2.116,K,A*3E
$GNGGA,124913.00,5552.33924,N,03800.08954,E,1,09,1.21,145.9,M,12.9,M,,*45

$GNGSA,A,3,01,02,10,,,,,,,,,,2.12,1.21,1.74,1*02
$GNGSA,A,3,88,86,71,87,72,80,,,,,,,2.12,1.21,1.74,2*09
$GNGSA,A,3,,,,,,,,,,,,,2.12,1.21,1.74,3*02
$GPGSV,3,1,11,01,61,283,17,02,69,203,16,03,34,268,18,08,13,210,,0*6D
$GPGSV,3,2,11,10,23,086,14,17,23,318,17,19,04,338,,22,05,311,,0*66
$GPGSV,3,3,11,28,26,123,,31,09,147,12,32,54,071,09,0*5E
$GLGSV,2,1,08,70,25,051,,71,74,046,21,72,50,232,27,79,15,358,,0*70
$GLGSV,2,2,08,80,17,051,18,86,46,172,20,87,72,274,19,88,17,326,23,0*7B
$GAGSV,1,1,00,0*74
$GNGLL,5552.33924,N,03800.08954,E,124913.00,A,A*78

$GNRMC,124914.00,A,5552.33892,N,03800.08937,E,0.528,,120625,,,A,V*18

$GNVTG,,T,,M,0.528,N,0.979,K,A*35
$GNGGA,124914.00,5552.33892,N,03800.08937,E,1,09,1.21,146.2,M,12.9,M,,*43
$GNGSA,A,3,01,02,10,,,,,,,,,,2.12,1.21,1.74,1*02
$GNGSA,A,3,88,86,71,87,72,80,,,,,,,2.12,1.21,1.74,2*09
$GNGSA,A,3,,,,,,,,,,,,,2.12,1.21,1.74,3*02
$GPGSV,3,1,11,01,61,283,16,02,69,203,15,03,34,268,17,08,13,210,,0*60
$GPGSV,3,2,11,10,23,086,11,17,23,318,16,19,04,338,,22,05,311,,0*62
$GPGSV,3,3,11,28,26,123,,31,10,147,11,32,54,071,09,0*55
$GLGSV,2,1,08,70,25,051,,71,74,046,22,72,50,232,24,79,15,358,,0*70
$GLGSV,2,2,08,80,17,051,10,86,46,172,19,87,72,274,17,88,17,326,22,0*76
$GAGSV,1,1,00,0*74
$GNGLL,5552.33892,N,03800.08937,E,124914.00,A,A*76

$GNRMC,124915.00,A,5552.33902,N,03800.08946,E,0.661,,120625,,,A,V*19
$GNVTG,,T,,M,0.661,N,1.225,K,A*38

$GNGGA,124915.00,5552.33902,N,03800.08946,E,1,09,1.14,146.9,M,12.9,M,,*41
$GNGSA,A,3,01,02,10,32,,,,,,,,,2.04,1.14,1.68,1*0F
$GNGSA,A,3,88,86,71,72,80,,,,,,,,2.04,1.14,1.68,2*0A
$GNGSA,A,3,,,,,,,,,,,,,2.04,1.14,1.68,3*0E
$GPGSV,3,1,11,01,61,283,15,02,69,203,13,03,34,268,18,08,13,210,,0*6A
$GPGSV,3,2,11,10,23,086,11,17,23,318,15,19,04,338,,22,05,311,,0*61
$GPGSV,3,3,11,28,26,123,,31,10,147,11,32,53,070,12,0*59
$GLGSV,2,1,08,70,25,051,,71,74,046,22,72,50,232,20,79,15,358,,0*74
$GLGSV,2,2,08,80,17,051,16,86,46,172,18,87,72,274,15,88,17,326,19,0*7B
$GAGSV,1,1,00,0*74
$GNGLL,5552.33902,N,03800.08946,E,124915.00,A,A*79

$GNRMC,124916.00,A,5552.33975,N,03800.09126,E,1.091,,120625,,,A,V*1D
$GNVTG,,T,,M,1.091,N,2.020,K,A*34

$GNGGA,124916.00,5552.33975,N,03800.09126,E,1,06,1.81,147.2,M,12.9,M,,*44
$GNGSA,A,3,01,02,,,,,,,,,,,3.08,1.81,2.49,1*0E
$GNGSA,A,3,86,71,72,80,,,,,,,,,3.08,1.81,2.49,2*0B
$GNGSA,A,3,,,,,,,,,,,,,3.08,1.81,2.49,3*0F
$GPGSV,3,1,11,01,61,283,10,02,69,203,10,03,34,268,15,08,13,210,,0*61
$GPGSV,3,2,11,10,23,086,08,17,23,318,11,19,04,338,,22,05,311,,0*6D
