$GNTXT,01,01,02,u-blox AG - www.u-blox.com*4E
$GNTXT,01,01,02,HW UBX-M8030 00080000*60

$GNTXT,01,01,02,ROM CORE 3.01 (107888)*2B
$GNTXT,01,01,02,FWVER=SPG 3.01*46
$GNTXT,01,01,02,PROTVER=18.00*11
$GNTXT,01,01,02,GPS;GLO;GAL;BDS*77
$GNTXT,01,01,02,SBAS;IMES;QZSS*49
$GNTXT,01,01,02,GNSS OTP=GPS;GLO*37

$GNTXT,01,01,02,LLC=FFFFFFFF-FFFFFFFF-FFFFFFFF-FFFFFFFF-FFFFFFFD*2F
$GNTXT,01,01,02,ANTSUPERV=AC SD PDoS SR*3E
$GNTXT,01,01,02,ANTSTATUS=OK*25
$GNTXT,01,01,02,PF=3FF*4B

$GNRMC,133309.00,A,5552.32676,N,03800.09276,E,0.242,,120625,,,A,V*19
$GNVTG,,T,,M,0.242,N,0.449,K,A*30

$GNGGA,133309.00,5552.32676,N,03800.09276,E,1,10,0.97,151.5,M,12.9,M,,*4C
$GNGSA,A,3,01,02,32,17,03,31,,,,,,,2.31,0.97,2.10,1*09
$GNGSA,A,3,87,71,88,80,,,,,,,,,2.31,0.97,2.10,2*0E
$GNGSA,A,3,,,,,,,,,,,,,2.31,0.97,2.10,3*0E
$GPGSV,3,1,12,01,70,237,19,02,51,183,17,03,53,277,18,04,13,221,,0*6F
$GPGSV,3,2,12,10,06,096,,12,06,027,10,17,28,300,17,19,17,327,28,0*65
$GPGSV,3,3,12,25,03,058,,28,39,105,10,31,27,137,25,32,36,061,10,0*6D
$GLGSV,3,1,10,65,16,244,,70,05,060,,71,50,052,17,72,72,259,,0*74
$GLGSV,3,2,10,73,16,085,19,79,04,341,,80,22,029,13,86,22,174,,0*7E
$GLGSV,3,3,10,87,60,212,11,88,38,319,15,0*74
$GAGSV,1,1,00,0*74
$GNGLL,5552.32676,N,03800.09276,E,133309.00,A,A*7C

$GNRMC,133310.00,A,5552.32685,N,03800.09247,E,0.165,,120625,,,A,V*19
$GNVTG,,T,,M,0.165,N,0.306,K,A*3A

$GNGGA,133310.00,5552.32685,N,03800.09247,E,1,09,1.06,151.6,M,12.9,M,,*48
$GNGSA,A,3,01,02,17,03,31,,,,,,,,2.37,1.06,2.12,1*05
$GNGSA,A,3,87,71,88,80,,,,,,,,,2.37,1.06,2.12,2*03
$GNGSA,A,3,,,,,,,,,,,,,2.37,1.06,2.12,3*03
$GPGSV,3,1,12,01,70,237,19,02,51,183,18,03,53,277,17,04,13,221,,0*6F
$GPGSV,3,2,12,10,06,096,,12,06,027,09,17,28,300,17,19,17,327,27,0*62
$GPGSV,3,3,12,25,03,058,,28,39,105,10,31,27,137,25,32,36,061,08,0*64
$GLGSV,3,1,10,65,16,244,,70,05,060,,71,50,052,17,72,72,259,,0*74
$GLGSV,3,2,10,73,16,085,18,79,04,341,,80,22,029,13,86,22,174,,0*7F

$GLGSV,3,3,10,87,60,212,13,88,38,319,15,0*76
$GAGSV,1,1,00,0*74
$GNGLL,5552.32685,N,03800.09247,E,133310.00,A,A*7A

$GNRMC,133311.00,A,5552.32679,N,03800.09298,E,0.441,,120625,,,A,V*1A
$GNVTG,,T,,M,0.441,N,0.816,K,A*33

$GNGGA,133311.00,5552.32679,N,03800.09298,E,1,09,1.06,151.8,M,12.9,M,,*46
$GNGSA,A,3,01,02,17,03,31,,,,,,,,2.37,1.06,2.12,1*05
$GNGSA,A,3,87,71,88,80,,,,,,,,,2.37,1.06,2.12,2*03
$GNGSA,A,3,,,,,,,,,,,,,2.37,1.06,2.12,3*03
$GPGSV,3,1,12,01,70,237,18,02,51,183,18,03,53,277,16,04,13,221,,0*6F
$GPGSV,3,2,12,10,06,096,,12,06,027,09,17,28,300,17,19,17,327,26,0*63
$GPGSV,3,3,12,25,03,058,,28,39,105,15,31,27,137,24,32,36,061,08,0*60
$GLGSV,3,1,10,65,16,244,,70,05,060,,71,50,052,20,72,72,259,,0*70
$GLGSV,3,2,10,73,16,085,17,79,04,341,,80,22,029,10,86,22,174,,0*73
$GLGSV,3,3,10,87,60,212,17,88,38,319,17,0*70

$GAGSV,1,1,00,0*74
$GNGLL,5552.32679,N,03800.09298,E,133311.00,A,A*7A

$GNRMC,133312.00,A,5552.32680,N,03800.09329,E,0.353,,120625,,,A,V*10
$GNVTG,,T,,M,0.353,N,0.654,K,A*3F

$GNGGA,133312.00,5552.32680,N,03800.09329,E,1,09,1.06,152.2,M,12.9,M,,*41
$GNGSA,A,3,01,02,17,03,31,,,,,,,,2.37,1.06,2.12,1*05
$GNGSA,A,3,87,71,88,80,,,,,,,,,2.37,1.06,2.12,2*03
$GNGSA,A,3,,,,,,,,,,,,,2.37,1.06,2.12,3*03
$GPGSV,3,1,12,01,70,237,17,02,51,183,17,03,53,277,14,04,13,221,,0*6D
$GPGSV,3,2,12,10,06,096,,12,06,027,10,17,28,300,17,19,17,327,26,0*6B
$GPGSV,3,3,12,25,03,058,,28,40,104,16,31,27,137,23,32,36,061,08,0*6B

$GLGSV,3,1,10,65,16,244,,70,05,060,,71,50,052,21,72,72,259,,0*71
$GLGSV,3,2,10,73,16,085,13,79,04,341,,80,22,029,10,86,22,174,,0*77
$GLGSV,3,3,10,87,60,212,17,88,38,319,17,0*70
$GAGSV,1,1,00,0*74
$GNGLL,5552.32680,N,03800.09329,E,133312.00,A,A*74

$GNRMC,133313.00,A,5552.32662,N,03800.09404,E,0.821,,120625,,,A,V*1B

$GNVTG,,T,,M,0.821,N,1.520,K,A*30
$GNGGA,133313.00,5552.32662,N,03800.09404,E,1,10,0.97,152.3,M,12.9,M,,*44
$GNGSA,A,3,01,02,32,17,03,31,,,,,,,2.32,0.97,2.10,1*0A
$GNGSA,A,3,87,71,88,80,,,,,,,,,2.32,0.97,2.10,2*0D
$GNGSA,A,3,,,,,,,,,,,,,2.32,0.97,2.10,3*0D
$GPGSV,3,1,12,01,70,237,16,02,51,183,17,03,53,277,13,04,13,221,,0*6B
$GPGSV,3,2,12,10,06,096,,12,06,027,09,17,28,300,17,19,17,327,25,0*60
$GPGSV,3,3,12,25,03,058,,28,40,104,15,31,27,137,22,32,36,061,12,0*62
$GLGSV,3,1,10,65,16,244,,70,05,060,,71,50,052,23,72,72,259,,0*73
$GLGSV,3,2,10,73,16,085,11,79,04,341,,80,22,029,10,86,22,174,,0*75
$GLGSV,3,3,10,87,60,212,17,88,38,319,17,0*70
$GAGSV,1,1,00,0*74

$GNGLL,5552.32662,N,03800.09404,E,133313.00,A,A*71

$GNRMC,133314.00,A,5552.32642,N,03800.09476,E,1.147,,120625,,,A,V*13
$GNVTG,,T,,M,1.147,N,2.124,K,A*3B

$GNGGA,133314.00,5552.32642,N,03800.09476,E,1,10,0.97,152.5,M,12.9,M,,*42
$GNGSA,A,3,01,02,32,17,03,31,,,,,,,2.32,0.97,2.10,1*0A
$GNGSA,A,3,87,71,88,80,,,,,,,,,2.32,0.97,2.10,2*0D
$GNGSA,A,3,,,,,,,,,,,,,2.32,0.97,2.10,3*0D
$GPGSV,3,1,12,01,70,237,17,02,51,183,17,03,53,277,13,04,13,221,,0*6A
$GPGSV,3,2,12,10,06,096,,12,06,027,08,17,28,300,11,19,17,327,25,0*67
$GPGSV,3,3,12,25,03,058,,28,40,104,13,31,27,137,22,32,36,061,12,0*64
$GLGSV,3,1,10,65,16,244,,70,05,060,,71,50,052,24,72,72,259,,0*74
$GLGSV,3,2,10,73,16,085,11,79,04,341,,80,22,029,10,86,22,174,,0*75
$GLGSV,3,3,10,87,60,212,17,88,38,319,17,0*70
$GAGSV,1,1,00,0*74
$GNGLL,5552.32642,N,03800.09476,E,133314.00,A,A*71

$GNRMC,133315.00,A,5552.32647,N,03800.09672,E,1.603,,120625,,,A,V*16
$GNVTG,,T,,M,1.603,N,2.969,K,A*3D

$GNGGA,133315.00,5552.32647,N,03800.09672,E,1,10,0.97,153.3,M,12.9,M,,*47
$GNGSA,A,3,01,02,32,17,03,31,,,,,,,2.32,0.97,2.10,1*0A
$GNGSA,A,3,87,71,88,80,,,,,,,,,2.32,0.97,2.10,2*0D
$GNGSA,A,3,,,,,,,,,,,,,2.32,0.97,2.10,3*0D
$GPGSV,3,1,12,01,70,237,17,02,51,183,17,03,53,277,13,04,13,221,,0*6A
$GPGSV,3,2,12,10,06,096,,12,06,027,09,17,28,300,11,19,17,327,25,0*66
$GPGSV,3,3,12,25,03,058,,28,40,104,12,31,27,137,23,32,36,061,12,0*64
$GLGSV,3,1,10,65,16,244,,70,05,060,,71,50,052,25,72,72,259,,0*75
$GLGSV,3,2,10,73,16,085,08,79,04,341,,80,22,029,10,86,22,174,,0*7D
$GLGSV,3,3,10,87,60,212,14,88,38,319,12,0*76
$GAGSV,1,1,00,0*74
$GNGLL,5552.32647,N,03800.09672,E,133315.00,A,A*73

$GNRMC,133316.00,A,5552.32634,N,03800.09799,E,1.843,,120625,,,A,V*1F
$GNVTG,,T,,M,1.843,N,3.414,K,A*31

$GNGGA,133316.00,5552.32634,N,03800.09799,E,1,10,0.97,153.6,M,12.9,M,,*41
$GNGSA,A,3,01,02,32,17,03,31,,,,,,,2.32,0.97,2.10,1*0A
$GNGSA,A,3,87,71,88,80,,,,,,,,,2.32,0.97,2.10,2*0D
$GNGSA,A,3,,,,,,,,,,,,,2.32,0.97,2.10,3*0D
$GPGSV,3,1,12,01,70,237,17,02,51,183,17,03,53,277,13,04,13,221,,0*6A
$GPGSV,3,2,12,10,06,096,,12,06,027,,17,28,300,11,19,17,327,25,0*6F
$GPGSV,3,3,12,25,03,058,,28,40,104,10,31,27,137,23,32,36,061,12,0*66
$GLGSV,3,1,10,65,16,244,,70,05,060,,71,50,052,25,72,72,259,,0*75
$GLGSV,3,2,10,73,16,085,08,79,04,341,,80,22,029,10,86,22,174,,0*7D
$GLGSV,3,3,10,87,60,212,14,88,38,319,12,0*76
$GAGSV,1,1,00,0*74
$GNGLL,5552.32634,N,03800.09799,E,133316.00,A,A*70

$GNRMC,133317.00,A,5552.32629,N,03800.09805,E,1.355,,120625,,,A,V*14
$GNVTG,,T,,M,1.355,N,2.509,K,A*31

$GNGGA,133317.00,5552.32629,N,03800.09805,E,1,10,0.97,154.0,M,12.9,M,,*47
$GNGSA,A,3,01,02,32,17,03,31,,,,,,,2.32,0.97,2.10,1*0A
$GNGSA,A,3,87,71,88,80,,,,,,,,,2.32,0.97,2.10,2*0D
$GNGSA,A,3,,,,,,,,,,,,,2.32,0.97,2.10,3*0D
$GPGSV,3,1,12,01,70,237,17,02,51,183,17,03,53,277,13,04,13,221,,0*6A
$GPGSV,3,2,12,10,06,096,,12,06,027,,17,28,300,11,19,17,327,25,0*6F
$GPGSV,3,3,12,25,03,058,,28,40,104,11,31,27,137,23,32,36,061,12,0*67
$GLGSV,3,1,10,65,16,244,,70,05,060,,71,50,052,26,72,72,259,,0*76
$GLGSV,3,2,10,73,16,085,10,79,04,341,,80,22,029,15,86,22,174,,0*71
$GLGSV,3,3,10,87,60,212,16,88,38,319,14,0*72
$GAGSV,1,1,00,0*74
$GNGLL,5552.32629,N,03800.09805,E,133317.00,A,A*77

$GNRMC,133318.00,A,5552.32620,N,03800.09631,E,0.338,,120625,,,A,V*11
$GNVTG,,T,,M,0.338,N,0.626,K,A*37
$GNGGA,133318.00,5552.32620,N,03800.09631,E,1,10,0.97,153.5,M,12.9,M,,*4A

$GNGSA,A,3,01,02,32,17,03,31,,,,,,,2.32,0.97,2.10,1*0A
$GNGSA,A,3,87,71,88,80,,,,,,,,,2.32,0.97,2.10,2*0D
$GNGSA,A,3,,,,,,,,,,,,,2.32,0.97,2.10,3*0D
$GPGSV,3,1,12,01,70,237,17,02,51,183,16,03,53,277,13,04,13,221,,0*6B
$GPGSV,3,2,12,10,06,096,,12,06,027,,17,28,300,11,19,17,327,24,0*6E
$GPGSV,3,3,12,25,03,058,,28,40,104,11,31,27,137,22,32,36,061,12,0*66
$GLGSV,3,1,10,65,16,244,,70,05,060,,71,50,052,25,72,72,259,,0*75
$GLGSV,3,2,10,73,16,085,11,79,04,341,,80,22,029,15,86,22,174,,0*70
$GLGSV,3,3,10,87,60,212,16,88,38,319,14,0*72
$GAGSV,1,1,00,0*74
$GNGLL,5552.32620,N,03800.09631,E,133318.00,A,A*78

$GNRMC,133319.00,A,5552.32668,N,03800.09630,E,0.519,,120625,,,A,V*18
$GNVTG,,T,,M,0.519,N,0.960,K,A*3F
$GNGGA,133319.00,5552.32668,N,03800.09630,E,1,10,0.97,153.8,M,12.9,M,,*4B
$GNGSA,A,3,01,02,32,17,03,31,,,,,,,2.32,0.97,2.10,1*0A

$GNGSA,A,3,87,71,88,80,,,,,,,,,2.32,0.97,2.10,2*0D
$GNGSA,A,3,,,,,,,,,,,,,2.32,0.97,2.10,3*0D
$GPGSV,3,1,12,01,70,237,18,02,51,183,16,03,53,277,13,04,13,221,,0*64
$GPGSV,3,2,12,10,06,096,04,12,06,027,,17,28,300,11,19,17,327,21,0*6F
$GPGSV,3,3,12,25,03,058,,28,40,104,09,31,27,137,20,32,36,061,12,0*6D
$GLGSV,3,1,10,65,16,244,,70,05,060,,71,50,052,24,72,72,259,,0*74
$GLGSV,3,2,10,73,16,085,09,79,04,341,,80,22,029,15,86,22,174,,0*79
$GLGSV,3,3,10,87,60,212,16,88,38,319,14,0*72
$GAGSV,1,1,00,0*74
$GNGLL,5552.32668,N,03800.09630,E,133319.00,A,A*74

$GNRMC,133320.00,A,5552.32685,N,03800.09593,E,0.515,,120625,,,A,V*17
$GNVTG,,T,,M,0.515,N,0.954,K,A*34

$GNGGA,133320.00,5552.32685,N,03800.09593,E,1,10,0.97,154.1,M,12.9,M,,*46
$GNGSA,A,3,01,02,32,17,03,31,,,,,,,2.32,0.97,2.10,1*0A
$GNGSA,A,3,87,71,88,80,,,,,,,,,2.32,0.97,2.10,2*0D
$GNGSA,A,3,,,,,,,,,,,,,2.32,0.97,2.10,3*0D
$GPGSV,3,1,12,01,70,237,20,02,51,183,17,03,53,277,14,04,13,221,,0*69
$GPGSV,3,2,12,10,06,096,07,12,06,027,,17,28,300,10,19,17,327,19,0*66
$GPGSV,3,3,12,25,03,058,,28,40,104,11,31,27,137,19,32,36,061,10,0*6C
$GLGSV,3,1,10,65,16,244,,70,05,060,,71,50,052,23,72,72,259,,0*73
$GLGSV,3,2,10,73,16,085,08,79,04,341,,80,22,029,15,86,22,174,,0*78
$GLGSV,3,3,10,87,60,212,16,88,38,319,14,0*72
$GAGSV,1,1,00,0*74
$GNGLL,5552.32685,N,03800.09593,E,133320.00,A,A*77

$GNRMC,133321.00,A,5552.32653,N,03800.09501,E,0.566,,120625,,,A,V*12
$GNVTG,,T,,M,0.566,N,1.049,K,A*34

$GNGGA,133321.00,5552.32653,N,03800.09501,E,1,09,1.03,154.4,M,12.9,M,,*46
$GNGSA,A,3,01,02,32,17,03,31,,,,,,,2.44,1.03,2.22,1*06
$GNGSA,A,3,87,71,88,,,,,,,,,,2.44,1.03,2.22,2*09
$GNGSA,A,3,,,,,,,,,,,,,2.44,1.03,2.22,3*01
$GPGSV,3,1,12,01,70,237,20,02,51,183,17,03,53,277,15,04,13,221,,0*68
$GPGSV,3,2,12,10,06,096,08,12,06,027,,17,28,300,10,19,17,327,17,0*67
$GPGSV,3,3,12,25,03,058,,28,40,104,12,31,27,137,16,32,36,061,10,0*60
$GLGSV,3,1,10,65,16,244,,70,05,060,,71,50,052,20,72,72,259,,0*70
$GLGSV,3,2,10,73,16,085,08,79,04,341,,80,22,029,,86,22,174,,0*7C
$GLGSV,3,3,10,87,60,212,16,88,38,319,14,0*72
$GAGSV,1,1,00,0*74
$GNGLL,5552.32653,N,03800.09501,E,133321.00,A,A*76

$GNRMC,133322.00,A,5552.32638,N,03800.09459,E,0.681,,120625,,,A,V*1A
$GNVTG,,T,,M,0.681,N,1.262,K,A*35
$GNGGA,133322.00,5552.32638,N,03800.09459,E,1,09,1.03,154.6,M,12.9,M,,*46

$GNGSA,A,3,01,02,32,17,03,31,,,,,,,2.44,1.03,2.22,1*06
$GNGSA,A,3,87,71,88,,,,,,,,,,2.44,1.03,2.22,2*09
$GNGSA,A,3,,,,,,,,,,,,,2.44,1.03,2.22,3*01
$GPGSV,3,1,12,01,70,237,19,02,51,183,18,03,53,277,15,04,13,221,,0*6D
$GPGSV,3,2,12,10,06,096,08,12,06,027,,17,28,300,10,19,17,327,14,0*64
$GPGSV,3,3,12,25,03,058,,28,40,104,14,31,27,137,14,32,36,061,10,0*64
$GLGSV,3,1,10,65,16,244,,70,05,060,,71,50,052,17,72,72,259,,0*74
$GLGSV,3,2,10,73,16,085,,79,04,341,,80,22,029,,86,22,174,,0*74
$GLGSV,3,3,10,87,60,212,16,88,38,319,14,0*72
$GAGSV,1,1,00,0*74
$GNGLL,5552.32638,N,03800.09459,E,133322.00,A,A*74

$GNRMC,133323.00,A,5552.32632,N,03800.09302,E,1.444,,120625,,,A,V*12
$GNVTG,,T,,M,1.444,N,2.674,K,A*3F

$GNGGA,133323.00,5552.32632,N,03800.09302,E,1,08,1.09,155.0,M,12.9,M,,*48
$GNGSA,A,3,01,02,32,17,03,31,,,,,,,2.50,1.09,2.25,1*0E
$GNGSA,A,3,87,71,,,,,,,,,,,2.50,1.09,2.25,2*01
$GNGSA,A,3,,,,,,,,,,,,,2.50,1.09,2.25,3*09
$GPGSV,3,1,12,01,70,237,16,02,51,183,17,03,53,277,16,04,13,221,,0*6E
$GPGSV,3,2,12,10,06,096,08,12,06,027,,17,28,300,10,19,17,327,11,0*61
$GPGSV,3,3,12,25,03,058,,28,40,104,15,31,27,137,11,32,36,061,10,0*60
$GLGSV,3,1,10,65,16,244,,70,05,060,,71,50,052,15,72,72,259,,0*76
$GLGSV,3,2,10,73,16,085,,79,04,341,,80,22,029,,86,22,174,,0*74
$GLGSV,3,3,10,87,60,212,17,88,38,319,05,0*73
$GAGSV,1,1,00,0*74
$GNGLL,5552.32632,N,03800.09302,E,133323.00,A,A*76

$GNRMC,133324.00,A,5552.32618,N,03800.09296,E,1.074,,120625,,,A,V*16
$GNVTG,,T,,M,1.074,N,1.989,K,A*36
$GNGGA,133324.00,5552.32618,N,03800.09296,E,1,06,1.93,155.1,M,12.9,M,,*47

$GNGSA,A,3,01,02,32,03,,,,,,,,,6.22,1.93,5.91,1*00
$GNGSA,A,3,87,71,,,,,,,,,,,6.22,1.93,5.91,2*0B
$GNGSA,A,3,,,,,,,,,,,,,6.22,1.93,5.91,3*03
$GPGSV,3,1,12,01,70,237,15,02,51,183,17,03,53,277,15,04,13,221,,0*6E
$GPGSV,3,2,12,10,06,096,08,12,06,027,,17,28,300,,19,17,327,12,0*63
$GPGSV,3,3,12,25,03,058,,28,40,104,15,31,27,137,10,32,36,061,10,0*61
$GLGSV,3,1,10,65,16,244,,70,05,060,,71,50,052,17,72,72,259,,0*74
$GLGSV,3,2,10,73,16,085,,79,04,341,,80,22,029,,86,22,174,,0*74
$GLGSV,3,3,10,87,60,212,20,88,38,319,,0*72
$GAGSV,1,1,00,0*74
$GNGLL,5552.32618,N,03800.09296,E,133324.00,A,A*75

$GNRMC,133325.00,A,5552.32628,N,03800.09311,E,0.607,,120625,,,A,V*19
$GNVTG,,T,,M,0.607,N,1.124,K,A*3A
$GNGGA,133325.00,5552.32628,N,03800.09311,E,1,07,1.74,155.2,M,12.9,M,,*40
$GNGSA,A,3,01,02,32,03,31,,,,,,,,4.63,1.74,4.29,1*0E
$GNGSA,A,3,87,71,,,,,,,,,,,4.63,1.74,4.29,2*07
$GNGSA,A,3,,,,,,,,,,,,,4.63,1.74,4.29,3*0F

$GPGSV,3,1,12,01,70,237,12,02,51,183,17,03,53,277,11,04,13,221,,0*6D
$GPGSV,3,2,12,10,06,096,08,12,06,027,,17,28,300,,19,17,327,13,0*62
$GPGSV,3,3,12,25,03,058,,28,40,104,15,31,27,137,09,32,36,061,15,0*6C
$GLGSV,3,1,10,65,16,244,,70,05,060,,71,50,052,17,72,72,259,,0*74
$GLGSV,3,2,10,73,16,085,,79,04,341,,80,22,029,,86,22,174,,0*74
$GLGSV,3,3,10,87,60,212,20,88,38,319,,0*72
$GAGSV,1,1,00,0*74
$GNGLL,5552.32628,N,03800.09311,E,133325.00,A,A*79

$GNRMC,133326.00,A,5552.32560,N,03800.09204,E,1.178,,120625,,,A,V*1E
$GNVTG,,T,,M,1.178,N,2.182,K,A*3B

$GNGGA,133326.00,5552.32560,N,03800.09204,E,1,07,1.74,155.2,M,12.9,M,,*49
$GNGSA,A,3,01,02,32,03,31,,,,,,,,4.64,1.74,4.30,1*01
$GNGSA,A,3,87,71,,,,,,,,,,,4.64,1.74,4.30,2*08
$GNGSA,A,3,,,,,,,,,,,,,4.64,1.74,4.30,3*00
$GPGSV,3,1,12,01,70,237,12,02,51,183,19,03,53,277,09,04,13,221,,0*6A
$GPGSV,3,2,12,10,06,096,09,12,06,027,,17,28,300,,19,17,327,13,0*63
$GPGSV,3,3,12,25,03,058,,28,40,104,15,31,27,137,09,32,36,061,15,0*6C
$GLGSV,3,1,10,65,16,244,,70,05,060,,71,50,052,17,72,72,259,,0*74
$GLGSV,3,2,10,73,16,085,,79,04,341,,80,22,029,,86,22,174,,0*74
$GLGSV,3,3,10,87,60,212,21,88,38,319,,0*73
$GAGSV,1,1,00,0*74
$GNGLL,5552.32560,N,03800.09204,E,133326.00,A,A*70

$GNRMC,133327.00,V,,,,,,,120625,,,N,V*1C
$GNVTG,,,,,,,,,N*2E

$GNGGA,133327.00,,,,,0,05,11.62,,,,,,*7E
$GNGSA,A,1,01,02,31,,,,,,,,,,27.05,11.62,24.43,1*37
$GNGSA,A,1,87,71,,,,,,,,,,,27.05,11.62,24.43,2*3C
$GNGSA,A,1,,,,,,,,,,,,,27.05,11.62,24.43,3*34
$GPGSV,3,1,12,01,70,237,13,02,51,183,18,03,53,277,06,04,13,221,,0*65
$GPGSV,3,2,12,10,06,096,09,12,06,027,,17,28,300,,19,17,327,15,0*65
$GPGSV,3,3,12,25,03,058,,28,40,104,16,31,27,137,11,32,36,061,,0*62
$GLGSV,3,1,10,65,16,244,,70,05,060,,71,50,052,17,72,72,259,,0*74
$GLGSV,3,2,10,73,16,085,,79,04,341,,80,22,029,,86,22,174,,0*74
$GLGSV,3,3,10,87,60,212,22,88,38,319,,0*70
$GAGSV,1,1,00,0*74
$GNGLL,,,,,133327.00,V,N*53

$GNRMC,133328.00,V,,,,,,,120625,,,N,V*13
$GNVTG,,,,,,,,,N*2E
$GNGGA,133328.00,,,,,0,05,11.64,,,,,,*77

$GNGSA,A,1,01,02,31,,,,,,,,,,27.10,11.64,24.48,1*3E
$GNGSA,A,1,87,71,,,,,,,,,,,27.10,11.64,24.48,2*35
$GNGSA,A,1,,,,,,,,,,,,,27.10,11.64,24.48,3*3D
$GPGSV,3,1,12,01,70,237,12,02,51,183,18,03,53,277,11,04,13,221,,0*62
$GPGSV,3,2,12,10,06,096,09,12,06,027,,17,28,300,,19,17,327,18,0*68
$GPGSV,3,3,12,25,03,058,,28,40,104,16,31,27,137,11,32,36,061,,0*62
$GLGSV,3,1,10,65,16,244,,70,05,060,,71,50,052,17,72,72,259,,0*74
$GLGSV,3,2,10,73,16,085,,79,04,341,,80,22,029,,86,22,174,,0*74
$GLGSV,3,3,10,87,60,212,21,88,38,319,,0*73
$GAGSV,1,1,00,0*74
$GNGLL,,,,,133328.00,V,N*5C

$GNRMC,133329.00,V,,,,,,,120625,,,N,V*12
$GNVTG,,,,,,,,,N*2E
$GNGGA,133329.00,,,,,0,05,11.66,,,,,,*74
$GNGSA,A,1,01,02,31,,,,,,,,,,27.16,11.66,24.53,1*30
$GNGSA,A,1,87,71,,,,,,,,,,,27.16,11.66,24.53,2*3B
$GNGSA,A,1,,,,,,,,,,,,,27.16,11.66,24.53,3*33

$GPGSV,3,1,12,01,70,237,13,02,51,183,18,03,53,277,14,04,13,221,,0*66
$GPGSV,3,2,12,10,06,096,09,12,06,027,,17,28,300,,19,17,327,19,0*69
$GPGSV,3,3,12,25,03,058,,28,40,104,15,31,27,137,13,32,36,061,16,0*64
$GLGSV,3,1,10,65,16,244,,70,05,060,,71,50,052,19,72,72,259,,0*7A
$GLGSV,3,2,10,73,16,085,,79,04,341,,80,22,029,,86,22,174,,0*74
$GLGSV,3,3,10,87,60,212,20,88,38,319,,0*72
$GAGSV,1,1,00,0*74
$GNGLL,,,,,133329.00,V,N*5D

$GNRMC,133330.00,A,5552.32525,N,03800.09139,E,0.686,,120625,,,A,V*12
$GNVTG,,T,,M,0.686,N,1.270,K,A*31

$GNGGA,133330.00,5552.32525,N,03800.09139,E,1,07,1.72,154.6,M,12.9,M,,*41
$GNGSA,A,3,01,02,03,10,31,,,,,,,,3.15,1.72,2.63,1*06
$GNGSA,A,3,87,71,,,,,,,,,,,3.15,1.72,2.63,2*0F
$GNGSA,A,3,,,,,,,,,,,,,3.15,1.72,2.63,3*07
$GPGSV,3,1,12,01,70,237,15,02,51,183,17,03,53,277,11,04,13,221,,0*6A
$GPGSV,3,2,12,10,06,096,09,12,06,027,,17,28,300,,19,17,327,18,0*68
$GPGSV,3,3,12,25,03,058,,28,40,104,13,31,27,137,12,32,36,061,15,0*60
$GLGSV,3,1,10,65,16,244,,70,05,060,,71,50,052,19,72,72,259,,0*7A
$GLGSV,3,2,10,73,16,085,,79,04,341,,80,22,029,,86,22,174,,0*74
$GLGSV,3,3,10,87,60,212,20,88,38,319,,0*72
$GAGSV,1,1,00,0*74
$GNGLL,5552.32525,N,03800.09139,E,133330.00,A,A*7B

$GNRMC,133331.00,A,5552.32506,N,03800.09187,E,0.406,,120625,,,A,V*1D
$GNVTG,,T,,M,0.406,N,0.751,K,A*3C

$GNGGA,133331.00,5552.32506,N,03800.09187,E,1,07,1.72,154.5,M,12.9,M,,*47
$GNGSA,A,3,01,02,03,10,31,,,,,,,,3.15,1.72,2.63,1*06
$GNGSA,A,3,87,71,,,,,,,,,,,3.15,1.72,2.63,2*0F
$GNGSA,A,3,,,,,,,,,,,,,3.15,1.72,2.63,3*07
$GPGSV,3,1,12,01,70,237,16,02,51,183,18,03,53,277,15,04,13,221,,0*62
$GPGSV,3,2,12,10,06,096,09,12,06,027,,17,28,300,,19,17,327,16,0*66
$GPGSV,3,3,12,25,03,058,,28,40,104,10,31,27,137,18,32,36,061,13,0*6F
$GLGSV,3,1,10,65,16,244,,70,05,060,,71,50,052,20,72,72,259,,0*70
$GLGSV,3,2,10,73,16,085,,79,04,341,,80,22,029,,86,22,174,,0*74
$GLGSV,3,3,10,87,60,212,19,88,38,319,,0*78
$GAGSV,1,1,00,0*74
$GNGLL,5552.32506,N,03800.09187,E,133331.00,A,A*7E

$GNRMC,133332.00,A,5552.32477,N,03800.09280,E,0.462,,120625,,,A,V*1F
$GNVTG,,T,,M,0.462,N,0.855,K,A*35

$GNGGA,133332.00,5552.32477,N,03800.09280,E,1,07,1.72,154.3,M,12.9,M,,*41
$GNGSA,A,3,01,02,03,10,31,,,,,,,,3.15,1.72,2.63,1*06
$GNGSA,A,3,87,71,,,,,,,,,,,3.15,1.72,2.63,2*0F
$GNGSA,A,3,,,,,,,,,,,,,3.15,1.72,2.63,3*07
$GPGSV,3,1,12,01,70,237,15,02,51,183,18,03,53,277,18,04,13,221,,0*6C
$GPGSV,3,2,12,10,06,096,09,12,06,027,,17,28,300,,19,17,327,14,0*64
$GPGSV,3,3,12,25,03,058,,28,40,104,08,31,27,137,21,32,36,061,12,0*6D
$GLGSV,3,1,10,65,16,244,,70,05,060,,71,50,052,22,72,72,259,,0*72
$GLGSV,3,2,10,73,16,085,,79,04,341,,80,22,029,,86,22,174,,0*74
$GLGSV,3,3,10,87,60,212,17,88,38,319,,0*76
$GAGSV,1,1,00,0*74
$GNGLL,5552.32477,N,03800.09280,E,133332.00,A,A*7E

$GNRMC,133333.00,A,5552.32474,N,03800.09274,E,0.313,,120625,,,A,V*17
$GNVTG,,T,,M,0.313,N,0.580,K,A*31
$GNGGA,133333.00,5552.32474,N,03800.09274,E,1,06,1.88,154.0,M,12.9,M,,*4F

$GNGSA,A,3,01,02,03,31,,,,,,,,,4.84,1.88,4.46,1*0C
$GNGSA,A,3,87,71,,,,,,,,,,,4.84,1.88,4.46,2*04
$GNGSA,A,3,,,,,,,,,,,,,4.84,1.88,4.46,3*0C
$GPGSV,3,1,12,01,70,237,12,02,51,183,19,03,53,277,19,04,13,221,,0*6B
$GPGSV,3,2,12,10,06,096,09,12,06,027,,17,28,300,,19,17,327,14,0*64
$GPGSV,3,3,12,25,03,058,,28,40,104,07,31,27,137,22,32,36,061,09,0*6B
$GLGSV,3,1,10,65,16,245,,70,05,060,,71,50,052,24,72,72,259,,0*75
$GLGSV,3,2,10,73,16,085,,79,04,341,,80,22,029,,86,22,174,,0*74
$GLGSV,3,3,10,87,60,212,14,88,38,319,,0*75
$GAGSV,1,1,00,0*74
$GNGLL,5552.32474,N,03800.09274,E,133333.00,A,A*77

$GNRMC,133334.00,A,5552.32417,N,03800.09314,E,0.646,,120625,,,A,V*17
$GNVTG,,T,,M,0.646,N,1.196,K,A*36

$GNGGA,133334.00,5552.32417,N,03800.09314,E,1,05,1.92,153.7,M,12.9,M,,*42
$GNGSA,A,3,02,03,31,,,,,,,,,,5.48,1.92,5.14,1*01
$GNGSA,A,3,87,71,,,,,,,,,,,5.48,1.92,5.14,2*08
$GNGSA,A,3,,,,,,,,,,,,,5.48,1.92,5.14,3*00
$GPGSV,3,1,12,01,70,237,08,02,51,183,19,03,53,277,20,04,13,221,,0*6A
$GPGSV,3,2,12,10,06,096,09,12,06,027,,17,28,300,,19,17,327,14,0*64
$GPGSV,3,3,12,25,03,058,,28,40,104,,31,27,137,23,32,36,061,09,0*6D
$GLGSV,3,1,10,65,16,245,,70,05,060,,71,50,052,26,72,72,259,,0*77
$GLGSV,3,2,10,73,16,085,,79,04,341,,80,22,029,,86,22,174,,0*74
$GLGSV,3,3,10,87,60,212,15,88,38,319,18,0*7D
$GAGSV,1,1,00,0*74
$GNGLL,5552.32417,N,03800.09314,E,133334.00,A,A*72

$GNRMC,133335.00,A,5552.32394,N,03800.09252,E,0.430,,120625,,,A,V*1A
$GNVTG,,T,,M,0.430,N,0.796,K,A*32

$GNGGA,133335.00,5552.32394,N,03800.09252,E,1,05,1.92,153.6,M,12.9,M,,*4D
$GNGSA,A,3,02,03,31,,,,,,,,,,5.49,1.92,5.14,1*00
$GNGSA,A,3,87,71,,,,,,,,,,,5.49,1.92,5.14,2*09
$GNGSA,A,3,,,,,,,,,,,,,5.49,1.92,5.14,3*01
$GPGSV,3,1,12,01,70,237,07,02,51,183,18,03,53,277,21,04,13,221,,0*65
$GPGSV,3,2,12,10,06,096,09,12,06,027,,17,28,300,,19,17,327,14,0*64
$GPGSV,3,3,12,25,03,058,,28,40,104,,31,27,137,23,32,36,061,08,0*6C
$GLGSV,3,1,10,65,16,245,,70,05,060,,71,50,052,26,72,72,259,,0*77
$GLGSV,3,2,10,73,16,085,,79,04,341,,80,22,029,,86,22,174,,0*74
$GLGSV,3,3,10,87,60,212,13,88,38,319,18,0*7B
$GAGSV,1,1,00,0*74
$GNGLL,5552.32394,N,03800.09252,E,133335.00,A,A*7C

$GNRMC,133336.00,A,5552.32364,N,03800.09218,E,0.484,,120625,,,A,V*17
$GNVTG,,T,,M,0.484,N,0.897,K,A*33

$GNGGA,133336.00,5552.32364,N,03800.09218,E,1,05,1.92,153.3,M,12.9,M,,*4A
$GNGSA,A,3,02,03,31,,,,,,,,,,5.49,1.92,5.15,1*01
$GNGSA,A,3,87,71,,,,,,,,,,,5.49,1.92,5.15,2*08
$GNGSA,A,3,,,,,,,,,,,,,5.49,1.92,5.15,3*00
$GPGSV,3,1,12,01,70,237,07,02,51,183,18,03,53,277,21,04,13,221,,0*65
$GPGSV,3,2,12,10,06,096,09,12,06,027,,17,28,300,,19,17,327,11,0*61
$GPGSV,3,3,12,25,03,058,,28,40,104,,31,27,137,23,32,36,061,08,0*6C
$GLGSV,3,1,10,65,16,245,,70,05,060,,71,50,052,25,72,72,259,,0*74
$GLGSV,3,2,10,73,16,085,,79,04,341,,80,22,029,,86,22,174,,0*74
$GLGSV,3,3,10,87,60,212,11,88,38,319,16,0*77
$GAGSV,1,1,00,0*74
$GNGLL,5552.32364,N,03800.09218,E,133336.00,A,A*7E

$GNRMC,133337.00,A,5552.32357,N,03800.09177,E,0.417,,120625,,,A,V*16
$GNVTG,,T,,M,0.417,N,0.773,K,A*3C

$GNGGA,133337.00,5552.32357,N,03800.09177,E,1,05,1.92,153.2,M,12.9,M,,*40
$GNGSA,A,3,02,03,31,,,,,,,,,,5.50,1.92,5.15,1*09
$GNGSA,A,3,87,71,,,,,,,,,,,5.50,1.92,5.15,2*00
$GNGSA,A,3,,,,,,,,,,,,,5.50,1.92,5.15,3*08
$GPGSV,3,1,12,01,70,237,07,02,51,183,18,03,53,277,20,04,13,221,,0*64
$GPGSV,3,2,12,10,06,096,09,12,06,027,,17,28,300,,19,17,327,,0*61
$GPGSV,3,3,12,25,03,058,,28,40,104,,31,27,137,22,32,36,061,08,0*6D
$GLGSV,3,1,10,65,16,245,,70,05,060,,71,50,052,24,72,72,259,,0*75
$GLGSV,3,2,10,73,16,085,,79,04,341,,80,22,029,,86,22,174,,0*74
$GLGSV,3,3,10,87,60,212,10,88,38,319,13,0*73
$GAGSV,1,1,00,0*74
$GNGLL,5552.32357,N,03800.09177,E,133337.00,A,A*75

$GNRMC,133338.00,A,5552.32301,N,03800.09262,E,0.430,,120625,,,A,V*18
$GNVTG,,T,,M,0.430,N,0.796,K,A*32

$GNGGA,133338.00,5552.32301,N,03800.09262,E,1,06,1.88,153.0,M,12.9,M,,*41
$GNGSA,A,3,01,02,03,31,,,,,,,,,4.85,1.88,4.47,1*0C
$GNGSA,A,3,87,71,,,,,,,,,,,4.85,1.88,4.47,2*04
$GNGSA,A,3,,,,,,,,,,,,,4.85,1.88,4.47,3*0C
$GPGSV,3,1,12,01,70,237,08,02,51,183,18,03,53,277,19,04,13,221,,0*61
$GPGSV,3,2,12,10,06,096,11,12,06,027,,17,28,300,,19,17,327,,0*68
$GPGSV,3,3,12,25,03,058,,28,40,104,,31,27,137,21,32,36,061,08,0*6E
$GLGSV,3,1,10,65,16,245,,70,05,060,,71,50,052,23,72,72,259,,0*72
$GLGSV,3,2,10,73,16,085,,79,04,341,,80,22,029,,86,22,174,,0*74
$GLGSV,3,3,10,87,60,212,11,88,38,319,10,0*71
$GAGSV,1,1,00,0*74
$GNGLL,5552.32301,N,03800.09262,E,133338.00,A,A*7E

$GNRMC,133339.00,A,5552.32302,N,03800.09266,E,0.378,,120625,,,A,V*15
$GNVTG,,T,,M,0.378,N,0.700,K,A*36
$GNGGA,133339.00,5552.32302,N,03800.09266,E,1,06,1.88,153.1,M,12.9,M,,*46
$GNGSA,A,3,01,02,03,31,,,,,,,,,4.86,1.88,4.48,1*00
$GNGSA,A,3,87,71,,,,,,,,,,,4.86,1.88,4.48,2*08
$GNGSA,A,3,,,,,,,,,,,,,4.86,1.88,4.48,3*00

$GPGSV,3,1,12,01,70,237,08,02,51,183,19,03,53,277,19,04,13,221,,0*60
$GPGSV,3,2,12,10,06,096,,12,06,027,,17,28,300,,19,17,327,,0*68
$GPGSV,3,3,12,25,03,058,,28,40,104,,31,27,137,21,32,36,061,08,0*6E
$GLGSV,3,1,10,65,16,245,,70,05,060,,71,50,053,21,72,72,259,,0*71
$GLGSV,3,2,10,73,16,085,,79,04,341,,80,22,029,,86,22,174,,0*74
$GLGSV,3,3,10,87,60,212,14,88,38,319,08,0*7D
$GAGSV,1,1,00,0*74
$GNGLL,5552.32302,N,03800.09266,E,133339.00,A,A*78

$GNRMC,133340.00,A,5552.32261,N,03800.09346,E,0.826,,120625,,,A,V*1C
$GNVTG,,T,,M,0.826,N,1.530,K,A*36

$GNGGA,133340.00,5552.32261,N,03800.09346,E,1,06,1.88,153.0,M,12.9,M,,*4E
$GNGSA,A,3,01,02,03,31,,,,,,,,,4.86,1.88,4.48,1*00
$GNGSA,A,3,87,71,,,,,,,,,,,4.86,1.88,4.48,2*08
$GNGSA,A,3,,,,,,,,,,,,,4.86,1.88,4.48,3*00
$GPGSV,3,1,12,01,70,237,08,02,51,183,18,03,53,277,19,04,13,221,,0*61
$GPGSV,3,2,12,10,06,096,,12,06,027,,17,28,300,,19,17,327,,0*68

$GPGSV,3,3,12,25,03,058,,28,40,104,,31,27,137,21,32,36,061,,0*66
$GLGSV,3,1,10,65,16,245,,70,05,060,,71,50,053,18,72,73,260,,0*70
$GLGSV,3,2,10,73,16,085,,79,04,341,,80,22,029,,86,22,174,,0*74
$GLGSV,3,3,10,87,60,212,14,88,38,319,08,0*7D
$GAGSV,1,1,00,0*74
$GNGLL,5552.32261,N,03800.09346,E,133340.00,A,A*71

$GNRMC,133341.00,A,5552.32229,N,03800.09334,E,0.611,,120625,,,A,V*1E
$GNVTG,,T,,M,0.611,N,1.132,K,A*3A

$GNGGA,133341.00,5552.32229,N,03800.09334,E,1,06,1.88,153.0,M,12.9,M,,*46
$GNGSA,A,3,01,02,03,31,,,,,,,,,4.86,1.88,4.48,1*00
$GNGSA,A,3,87,71,,,,,,,,,,,4.86,1.88,4.48,2*08
$GNGSA,A,3,,,,,,,,,,,,,4.86,1.88,4.48,3*00
$GPGSV,3,1,12,01,70,237,08,02,51,183,17,03,53,277,20,04,13,221,,0*64
$GPGSV,3,2,12,10,06,096,,12,06,027,,17,28,300,,19,17,327,,0*68
$GPGSV,3,3,12,25,03,058,,28,40,104,,31,27,137,19,32,36,061,,0*6D
$GLGSV,3,1,10,65,16,245,,70,05,060,,71,50,053,15,72,73,260,,0*7D
$GLGSV,3,2,10,73,17,085,,79,04,341,,80,22,029,,86,22,174,,0*75
$GLGSV,3,3,10,87,60,212,17,88,38,319,09,0*7F
$GAGSV,1,1,00,0*74
$GNGLL,5552.32229,N,03800.09334,E,133341.00,A,A*79

$GNRMC,133342.00,A,5552.32241,N,03800.09415,E,0.591,,120625,,,A,V*1C
$GNVTG,,T,,M,0.591,N,1.095,K,A*3D

$GNGGA,133342.00,5552.32241,N,03800.09415,E,1,06,1.36,153.1,M,12.9,M,,*4B
$GNGSA,A,3,02,03,31,,,,,,,,,,3.65,1.36,3.39,1*0F
$GNGSA,A,3,87,71,88,,,,,,,,,,3.65,1.36,3.39,2*06
$GNGSA,A,3,,,,,,,,,,,,,3.65,1.36,3.39,3*0E
$GPGSV,3,1,12,01,70,237,08,02,51,183,15,03,53,277,18,04,13,221,,0*6D
$GPGSV,3,2,12,10,06,096,,12,06,027,,17,28,300,17,19,17,327,,0*6E
$GPGSV,3,3,12,25,03,058,,28,40,104,,31,27,137,16,32,36,061,,0*62
$GLGSV,3,1,10,65,16,245,,70,05,060,,71,50,053,15,72,73,260,,0*7D
$GLGSV,3,2,10,73,17,085,,79,04,341,,80,22,029,,86,22,174,,0*75
$GLGSV,3,3,10,87,60,212,20,88,38,319,12,0*71
$GAGSV,1,1,00,0*74
$GNGLL,5552.32241,N,03800.09415,E,133342.00,A,A*70

$GNRMC,133343.00,A,5552.32233,N,03800.09427,E,0.467,,120625,,,A,V*11
$GNVTG,,T,,M,0.467,N,0.865,K,A*33

$GNGGA,133343.00,5552.32233,N,03800.09427,E,1,06,1.36,153.4,M,12.9,M,,*4B
$GNGSA,A,3,02,03,31,,,,,,,,,,3.66,1.36,3.39,1*0C
$GNGSA,A,3,87,71,88,,,,,,,,,,3.66,1.36,3.39,2*05
$GNGSA,A,3,,,,,,,,,,,,,3.66,1.36,3.39,3*0D
$GPGSV,3,1,12,01,70,237,08,02,51,183,12,03,53,277,18,04,13,221,,0*6A
$GPGSV,3,2,12,10,06,096,,12,06,027,,17,28,300,14,19,17,327,,0*6D
$GPGSV,3,3,12,25,03,058,,28,40,104,,31,27,137,14,32,36,061,,0*60
$GLGSV,3,1,10,65,16,245,,70,05,060,,71,50,053,16,72,73,260,,0*7E
$GLGSV,3,2,10,73,17,085,,79,04,341,,80,22,029,,86,22,174,,0*75
$GLGSV,3,3,10,87,60,212,21,88,38,319,14,0*76
$GAGSV,1,1,00,0*74
$GNGLL,5552.32233,N,03800.09427,E,133343.00,A,A*75

$GNRMC,133344.00,A,5552.32214,N,03800.09444,E,0.332,,120625,,,A,V*11
$GNVTG,,T,,M,0.332,N,0.615,K,A*3D

$GNGGA,133344.00,5552.32214,N,03800.09444,E,1,06,1.36,153.7,M,12.9,M,,*4F
$GNGSA,A,3,02,03,31,,,,,,,,,,3.66,1.36,3.40,1*02
$GNGSA,A,3,87,71,88,,,,,,,,,,3.66,1.36,3.40,2*0B
$GNGSA,A,3,,,,,,,,,,,,,3.66,1.36,3.40,3*03
$GPGSV,3,1,12,01,70,237,12,02,51,183,11,03,53,277,17,04,13,221,,0*6D
$GPGSV,3,2,12,10,06,096,,12,06,027,,17,28,300,14,19,17,327,,0*6D
$GPGSV,3,3,12,25,03,058,,28,40,104,,31,27,137,19,32,36,061,,0*6D
$GLGSV,3,1,10,65,16,245,,70,05,060,,71,50,053,20,72,73,260,,0*7B
$GLGSV,3,2,10,73,17,085,,79,04,341,,80,22,029,,86,22,174,,0*75
$GLGSV,3,3,10,87,60,212,21,88,38,319,16,0*74
$GAGSV,1,1,00,0*74
$GNGLL,5552.32214,N,03800.09444,E,133344.00,A,A*72

$GNRMC,133345.00,A,5552.32219,N,03800.09461,E,0.577,,120625,,,A,V*1D
$GNVTG,,T,,M,0.577,N,1.068,K,A*37

$GNGGA,133345.00,5552.32219,N,03800.09461,E,1,07,1.36,154.3,M,12.9,M,,*46
$GNGSA,A,3,01,02,03,31,,,,,,,,,3.24,1.36,2.94,1*0D
$GNGSA,A,3,87,71,88,,,,,,,,,,3.24,1.36,2.94,2*05
$GNGSA,A,3,,,,,,,,,,,,,3.24,1.36,2.94,3*0D
$GPGSV,3,1,12,01,70,237,12,02,51,183,09,03,53,277,16,04,13,221,,0*65
$GPGSV,3,2,12,10,06,096,,12,06,027,,17,28,300,12,19,17,327,,0*6B
$GPGSV,3,3,12,25,03,058,,28,40,104,,31,27,137,16,32,36,061,,0*62
$GLGSV,3,1,10,65,16,245,,70,05,060,,71,50,053,22,72,73,260,,0*79
$GLGSV,3,2,10,73,17,085,,79,04,341,,80,22,029,,86,22,174,,0*75
$GLGSV,3,3,10,87,60,212,20,88,38,319,16,0*75
$GAGSV,1,1,00,0*74
$GNGLL,5552.32219,N,03800.09461,E,133345.00,A,A*79

$GNRMC,133346.00,A,5552.32188,N,03800.09557,E,0.714,,120625,,,A,V*16
$GNVTG,,T,,M,0.714,N,1.323,K,A*3C

$GNGGA,133346.00,5552.32188,N,03800.09557,E,1,07,1.36,154.5,M,12.9,M,,*4C
$GNGSA,A,3,01,02,03,31,,,,,,,,,3.24,1.36,2.94,1*0D
$GNGSA,A,3,87,71,88,,,,,,,,,,3.24,1.36,2.94,2*05
$GNGSA,A,3,,,,,,,,,,,,,3.24,1.36,2.94,3*0D
$GPGSV,3,1,12,01,70,237,12,02,51,183,13,03,53,277,17,04,13,221,,0*6F
$GPGSV,3,2,12,10,06,096,,12,06,027,,17,28,300,08,19,17,327,,0*60
$GPGSV,3,3,12,25,03,058,,28,40,104,,31,27,137,19,32,36,061,,0*6D
$GLGSV,3,1,10,65,16,245,,70,05,060,,71,50,053,23,72,73,260,,0*78
$GLGSV,3,2,10,73,17,085,,79,04,341,,80,22,029,,86,22,174,,0*75
$GLGSV,3,3,10,87,60,212,21,88,38,319,14,0*76
$GAGSV,1,1,00,0*74
$GNGLL,5552.32188,N,03800.09557,E,133346.00,A,A*75

$GNRMC,133347.00,A,5552.32231,N,03800.09621,E,1.197,,120625,,,A,V*18
$GNVTG,,T,,M,1.197,N,2.216,K,A*34

$GNGGA,133347.00,5552.32231,N,03800.09621,E,1,07,1.36,154.8,M,12.9,M,,*43
$GNGSA,A,3,01,02,03,31,,,,,,,,,3.24,1.36,2.95,1*0C
$GNGSA,A,3,87,71,88,,,,,,,,,,3.24,1.36,2.95,2*04
$GNGSA,A,3,,,,,,,,,,,,,3.24,1.36,2.95,3*0C
$GPGSV,3,1,12,01,70,237,12,02,51,183,15,03,53,277,19,04,13,221,,0*67
$GPGSV,3,2,12,10,06,096,,12,06,027,,17,28,300,08,19,17,327,17,0*66
$GPGSV,3,3,12,25,03,058,,28,40,104,,31,27,137,20,32,36,061,,0*67
$GLGSV,3,1,10,65,16,245,,70,05,060,,71,50,053,22,72,73,260,,0*79
$GLGSV,3,2,10,73,17,085,,79,03,341,,80,22,029,,86,22,174,,0*72
$GLGSV,3,3,10,87,60,212,21,88,38,319,13,0*71

$GAGSV,1,1,00,0*74
$GNGLL,5552.32231,N,03800.09621,E,133347.00,A,A*77

$GNRMC,133348.00,A,5552.32194,N,03800.09619,E,0.734,,120625,,,A,V*1E
$GNVTG,,T,,M,0.734,N,1.359,K,A*33

$GNGGA,133348.00,5552.32194,N,03800.09619,E,1,06,1.43,155.5,M,12.9,M,,*44
$GNGSA,A,3,01,03,31,,,,,,,,,,3.28,1.43,2.95,1*00
$GNGSA,A,3,87,71,88,,,,,,,,,,3.28,1.43,2.95,2*0A
$GNGSA,A,3,,,,,,,,,,,,,3.28,1.43,2.95,3*02
$GPGSV,3,1,12,01,70,237,12,02,51,183,07,03,53,277,20,04,13,221,,0*6E
$GPGSV,3,2,12,10,06,096,,12,06,027,,17,28,300,07,19,17,327,17,0*69
$GPGSV,3,3,12,25,03,058,,28,40,104,,31,27,137,20,32,36,061,,0*67
$GLGSV,3,1,10,65,16,245,,70,05,060,,71,50,053,22,72,73,260,,0*79
$GLGSV,3,2,10,73,17,085,,79,03,341,,80,22,029,,86,22,174,,0*72
$GLGSV,3,3,10,87,60,212,20,88,38,319,11,0*72
$GAGSV,1,1,00,0*74
$GNGLL,5552.32194,N,03800.09619,E,133348.00,A,A*7F

$GNRMC,133349.00,A,5552.32147,N,03800.09653,E,0.713,,120625,,,A,V*1A
$GNVTG,,T,,M,0.713,N,1.321,K,A*39

$GNGGA,133349.00,5552.32147,N,03800.09653,E,1,05,2.04,155.6,M,12.9,M,,*45
$GNGSA,A,3,01,03,31,,,,,,,,,,5.09,2.04,4.66,1*0F
$GNGSA,A,3,87,71,,,,,,,,,,,5.09,2.04,4.66,2*05
$GNGSA,A,3,,,,,,,,,,,,,5.09,2.04,4.66,3*0D
$GPGSV,3,1,12,01,70,237,12,02,51,183,08,03,53,277,21,04,13,221,,0*60
$GPGSV,3,2,12,10,06,096,,12,06,027,,17,28,300,08,19,17,327,17,0*66
$GPGSV,3,3,12,25,03,058,,28,40,104,,31,27,137,21,32,36,061,,0*66
$GLGSV,3,1,10,65,16,245,,70,05,060,,71,50,053,21,72,73,260,,0*7A
$GLGSV,3,2,10,73,17,085,,79,03,341,,80,22,029,,86,22,174,,0*72
$GLGSV,3,3,10,87,60,212,20,88,38,319,09,0*7B
$GAGSV,1,1,00,0*74
$GNGLL,5552.32147,N,03800.09653,E,133349.00,A,A*7E

$GNRMC,133350.00,A,5552.32173,N,03800.09537,E,0.290,,120625,,,A,V*1A
$GNVTG,,T,,M,0.290,N,0.538,K,A*38

$GNGGA,133350.00,5552.32173,N,03800.09537,E,1,05,2.04,155.8,M,12.9,M,,*45
$GNGSA,A,3,01,03,31,,,,,,,,,,5.09,2.04,4.67,1*0E
$GNGSA,A,3,87,71,,,,,,,,,,,5.09,2.04,4.67,2*04
$GNGSA,A,3,,,,,,,,,,,,,5.09,2.04,4.67,3*0C
$GPGSV,3,1,12,01,70,237,12,02,51,183,10,03,53,277,21,04,13,221,,0*69
$GPGSV,3,2,12,10,06,096,,12,06,027,,17,28,300,07,19,17,327,16,0*68
$GPGSV,3,3,12,25,03,058,,28,40,104,,31,27,137,21,32,36,061,,0*66
$GLGSV,3,1,10,65,16,245,,70,05,060,,71,50,053,21,72,73,260,,0*7A
$GLGSV,3,2,10,73,17,085,,79,03,341,,80,22,029,,86,22,174,,0*72
$GLGSV,3,3,10,87,60,212,20,88,38,319,08,0*7A
$GAGSV,1,1,00,0*74
$GNGLL,5552.32173,N,03800.09537,E,133350.00,A,A*70

$GNRMC,133351.00,A,5552.32174,N,03800.09495,E,0.472,,120625,,,A,V*1F
$GNVTG,,T,,M,0.472,N,0.875,K,A*36

$GNGGA,133351.00,5552.32174,N,03800.09495,E,1,06,1.36,156.1,M,12.9,M,,*41
$GNGSA,A,3,02,03,31,,,,,,,,,,3.67,1.36,3.41,1*02
$GNGSA,A,3,87,71,88,,,,,,,,,,3.67,1.36,3.41,2*0B
$GNGSA,A,3,,,,,,,,,,,,,3.67,1.36,3.41,3*03
$GPGSV,3,1,12,01,70,237,,02,51,183,12,03,53,277,21,04,13,221,,0*68
$GPGSV,3,2,12,10,06,096,,12,06,027,,17,28,300,08,19,17,327,17,0*66
$GPGSV,3,3,12,25,03,058,,28,40,104,,31,27,137,21,32,36,061,,0*66
$GLGSV,3,1,10,65,16,245,,70,05,060,,71,50,053,19,72,73,260,,0*71
$GLGSV,3,2,10,73,17,085,,79,03,341,,80,22,029,20,86,22,174,,0*70
$GLGSV,3,3,10,87,60,212,22,88,38,319,10,0*71
$GAGSV,1,1,00,0*74
$GNGLL,5552.32174,N,03800.09495,E,133351.00,A,A*7F

$GNRMC,133352.00,A,5552.32188,N,03800.09475,E,0.358,,120625,,,A,V*1E
$GNVTG,,T,,M,0.358,N,0.662,K,A*31
$GNGGA,133352.00,5552.32188,N,03800.09475,E,1,06,1.36,156.5,M,12.9,M,,*4B
$GNGSA,A,3,02,03,31,,,,,,,,,,3.67,1.36,3.41,1*02

$GNGSA,A,3,87,71,88,,,,,,,,,,3.67,1.36,3.41,2*0B
$GNGSA,A,3,,,,,,,,,,,,,3.67,1.36,3.41,3*03
$GPGSV,3,1,12,01,70,237,,02,51,183,14,03,53,277,21,04,13,221,,0*6E
$GPGSV,3,2,12,10,06,096,,12,06,027,,17,28,300,09,19,17,327,18,0*68
$GPGSV,3,3,12,25,03,058,,28,40,104,,31,27,137,20,32,36,061,,0*67
$GLGSV,3,1,10,65,16,245,,70,05,060,,71,50,053,19,72,73,260,,0*71
$GLGSV,3,2,10,73,17,085,,79,03,341,,80,22,029,20,86,22,174,,0*70
$GLGSV,3,3,10,87,60,212,22,88,38,319,10,0*71
$GAGSV,1,1,00,0*74
$GNGLL,5552.32188,N,03800.09475,E,133352.00,A,A*71

$GNRMC,133353.00,A,5552.32191,N,03800.09347,E,0.335,,120625,,,A,V*1A
$GNVTG,,T,,M,0.335,N,0.620,K,A*3C
$GNGGA,133353.00,5552.32191,N,03800.09347,E,1,07,1.22,155.4,M,12.9,M,,*42

$GNGSA,A,3,02,17,03,31,,,,,,,,,2.85,1.22,2.57,1*0A
$GNGSA,A,3,87,71,88,,,,,,,,,,2.85,1.22,2.57,2*05
$GNGSA,A,3,,,,,,,,,,,,,2.85,1.22,2.57,3*0D
$GPGSV,3,1,12,01,70,237,,02,51,183,15,03,53,277,21,04,13,221,,0*6F
$GPGSV,3,2,12,10,06,096,,12,06,027,,17,28,300,10,19,17,327,18,0*60
$GPGSV,3,3,12,25,03,058,,28,40,104,,31,27,137,20,32,36,061,05,0*62
$GLGSV,3,1,10,65,16,245,,70,05,060,,71,50,053,19,72,73,260,,0*71
$GLGSV,3,2,10,73,17,085,,79,03,341,,80,22,029,20,86,22,174,,0*70
$GLGSV,3,3,10,87,60,212,24,88,38,319,09,0*7F
$GAGSV,1,1,00,0*74
$GNGLL,5552.32191,N,03800.09347,E,133353.00,A,A*7E

$GNRMC,133354.00,A,5552.32194,N,03800.09274,E,0.527,,120625,,,A,V*1C
$GNVTG,,T,,M,0.527,N,0.976,K,A*35
$GNGGA,133354.00,5552.32194,N,03800.09274,E,1,07,1.27,155.9,M,12.9,M,,*49

$GNGSA,A,3,02,03,31,,,,,,,,,,3.24,1.27,2.97,1*0F
$GNGSA,A,3,87,71,88,80,,,,,,,,,3.24,1.27,2.97,2*0E
$GNGSA,A,3,,,,,,,,,,,,,3.24,1.27,2.97,3*0E
$GPGSV,3,1,12,01,70,237,,02,51,183,16,03,53,277,21,04,13,221,,0*6C
$GPGSV,3,2,12,10,06,096,,12,06,027,,17,28,300,09,19,17,327,18,0*68
$GPGSV,3,3,12,25,03,058,,28,40,104,,31,27,137,19,32,36,061,08,0*65
$GLGSV,3,1,10,65,16,245,,70,05,060,,71,50,053,20,72,73,260,,0*7B
$GLGSV,3,2,10,73,17,085,,79,03,341,,80,22,029,19,86,21,175,,0*78
$GLGSV,3,3,10,87,60,212,25,88,38,319,09,0*7E
$GAGSV,1,1,00,0*74
$GNGLL,5552.32194,N,03800.09274,E,133354.00,A,A*7D

$GNRMC,133355.00,A,5552.32173,N,03800.09308,E,0.182,,120625,,,A,V*15
$GNVTG,,T,,M,0.182,N,0.337,K,A*31
$GNGGA,133355.00,5552.32173,N,03800.09308,E,1,07,1.27,156.0,M,12.9,M,,*41
$GNGSA,A,3,02,03,31,,,,,,,,,,3.24,1.27,2.98,1*00

$GNGSA,A,3,87,71,88,80,,,,,,,,,3.24,1.27,2.98,2*01
$GNGSA,A,3,,,,,,,,,,,,,3.24,1.27,2.98,3*01
$GPGSV,3,1,12,01,70,237,,02,51,183,17,03,53,277,20,04,13,221,,0*6C
$GPGSV,3,2,12,10,06,096,,12,06,027,,17,28,300,,19,17,327,18,0*61
$GPGSV,3,3,12,25,03,058,,28,40,104,,31,27,137,18,32,36,061,10,0*6D
$GLGSV,3,1,10,65,16,245,,70,05,060,,71,50,053,21,72,73,260,,0*7A
$GLGSV,3,2,10,73,17,085,,79,03,341,,80,22,029,18,86,21,175,,0*79
$GLGSV,3,3,10,87,60,211,25,88,38,319,09,0*7D
$GAGSV,1,1,00,0*74
$GNGLL,5552.32173,N,03800.09308,E,133355.00,A,A*7F

$GNRMC,133356.00,A,5552.32160,N,03800.09266,E,0.205,,120625,,,A,V*11
$GNVTG,,T,,M,0.205,N,0.380,K,A*31

$GNGGA,133356.00,5552.32160,N,03800.09266,E,1,07,1.27,156.0,M,12.9,M,,*49
$GNGSA,A,3,02,03,31,,,,,,,,,,3.24,1.27,2.98,1*00
$GNGSA,A,3,87,71,88,80,,,,,,,,,3.24,1.27,2.98,2*01
$GNGSA,A,3,,,,,,,,,,,,,3.24,1.27,2.98,3*01
$GPGSV,3,1,12,01,70,237,,02,51,183,18,03,53,277,20,04,13,221,,0*63
$GPGSV,3,2,12,10,06,096,,12,06,027,,17,28,300,,19,17,327,17,0*6E
$GPGSV,3,3,12,25,03,058,,28,40,104,,31,27,137,19,32,36,061,13,0*6F
$GLGSV,3,1,10,65,16,245,,70,05,060,,71,50,053,22,72,73,260,,0*79
$GLGSV,3,2,10,73,17,085,,79,03,341,,80,22,029,17,86,21,175,,0*76
$GLGSV,3,3,10,87,60,211,25,88,38,319,09,0*7D
$GAGSV,1,1,00,0*74
$GNGLL,5552.32160,N,03800.09266,E,133356.00,A,A*77

$GNRMC,133357.00,A,5552.32165,N,03800.09238,E,0.280,,120625,,,A,V*13
$GNVTG,,T,,M,0.280,N,0.519,K,A*3A

$GNGGA,133357.00,5552.32165,N,03800.09238,E,1,07,1.27,156.1,M,12.9,M,,*47
$GNGSA,A,3,02,03,31,,,,,,,,,,3.24,1.27,2.98,1*00
$GNGSA,A,3,87,71,88,80,,,,,,,,,3.24,1.27,2.98,2*01
$GNGSA,A,3,,,,,,,,,,,,,3.24,1.27,2.98,3*01
$GPGSV,3,1,12,01,69,235,,02,51,183,16,03,53,277,19,04,13,221,,0*6D
$GPGSV,3,2,12,10,06,096,,12,06,027,,17,28,300,,19,17,327,17,0*6E
$GPGSV,3,3,12,25,03,058,,28,40,104,,31,27,137,20,32,36,061,12,0*64
$GLGSV,3,1,10,65,16,245,,70,05,060,,71,50,053,23,72,73,260,,0*78
$GLGSV,3,2,10,73,17,085,,79,03,341,,80,22,029,17,86,21,175,,0*76
$GLGSV,3,3,10,87,60,211,25,88,38,319,14,0*71
$GAGSV,1,1,00,0*74
$GNGLL,5552.32165,N,03800.09238,E,133357.00,A,A*78

$GNRMC,133358.00,A,5552.32174,N,03800.09273,E,0.102,,120625,,,A,V*1A
$GNVTG,,T,,M,0.102,N,0.190,K,A*36

$GNGGA,133358.00,5552.32174,N,03800.09273,E,1,08,1.14,156.1,M,12.9,M,,*48
$GNGSA,A,3,02,32,03,31,,,,,,,,,3.11,1.14,2.89,1*07
$GNGSA,A,3,87,71,88,80,,,,,,,,,3.11,1.14,2.89,2*07
$GNGSA,A,3,,,,,,,,,,,,,3.11,1.14,2.89,3*07
$GPGSV,3,1,12,01,69,235,,02,50,182,12,03,53,277,19,04,13,221,,0*69
$GPGSV,3,2,12,10,06,096,,12,06,027,,17,28,300,,19,17,327,18,0*61
$GPGSV,3,3,12,25,03,058,,28,40,104,,31,27,137,21,32,36,061,11,0*66
$GLGSV,3,1,10,65,16,245,,70,05,060,,71,50,053,24,72,73,260,,0*7F
$GLGSV,3,2,10,73,17,085,,79,03,341,,80,22,029,14,86,21,175,,0*75
$GLGSV,3,3,10,87,60,211,25,88,38,319,14,0*71
$GAGSV,1,1,00,0*74
$GNGLL,5552.32174,N,03800.09273,E,133358.00,A,A*78

$GNRMC,133359.00,A,5552.32182,N,03800.09285,E,0.207,,120625,,,A,V*1D
$GNVTG,,T,,M,0.207,N,0.383,K,A*30

$GNGGA,133359.00,5552.32182,N,03800.09285,E,1,08,1.14,156.0,M,12.9,M,,*48
$GNGSA,A,3,02,32,03,31,,,,,,,,,3.11,1.14,2.89,1*07
$GNGSA,A,3,87,71,88,80,,,,,,,,,3.11,1.14,2.89,2*07
$GNGSA,A,3,,,,,,,,,,,,,3.11,1.14,2.89,3*07
$GPGSV,3,1,12,01,69,235,,02,50,182,09,03,53,277,18,04,13,221,,0*62
$GPGSV,3,2,12,10,06,096,,12,06,027,,17,28,300,,19,17,327,18,0*61
$GPGSV,3,3,12,25,03,058,,28,40,104,,31,27,137,21,32,36,061,10,0*67
$GLGSV,3,1,10,65,16,245,,70,05,060,,71,50,053,24,72,73,260,,0*7F
$GLGSV,3,2,10,73,17,085,,79,03,341,,80,22,029,11,86,21,175,,0*70
$GLGSV,3,3,10,87,60,211,24,88,38,319,11,0*75
$GAGSV,1,1,00,0*74
$GNGLL,5552.32182,N,03800.09285,E,133359.00,A,A*79

$GNRMC,133400.00,A,5552.32187,N,03800.09252,E,0.347,,120625,,,A,V*1C
$GNVTG,,T,,M,0.347,N,0.642,K,A*3D

$GNGGA,133400.00,5552.32187,N,03800.09252,E,1,07,1.19,156.3,M,12.9,M,,*4D
$GNGSA,A,3,02,32,03,31,,,,,,,,,3.63,1.19,3.43,1*08
$GNGSA,A,3,87,71,88,,,,,,,,,,3.63,1.19,3.43,2*00
$GNGSA,A,3,,,,,,,,,,,,,3.63,1.19,3.43,3*08
$GPGSV,3,1,12,01,69,235,,02,50,182,08,03,53,277,16,04,14,221,,0*6A
$GPGSV,3,2,12,10,06,096,,12,06,027,,17,28,300,,19,17,327,16,0*6F
$GPGSV,3,3,12,25,03,058,,28,40,104,,31,27,137,21,32,36,061,10,0*67
$GLGSV,3,1,10,65,16,245,,70,05,060,,71,50,053,23,72,73,260,,0*78
$GLGSV,3,2,10,73,17,085,,79,03,341,,80,22,029,08,86,21,175,,0*78
$GLGSV,3,3,10,87,60,211,23,88,38,319,11,0*72
$GAGSV,1,1,00,0*74
$GNGLL,5552.32187,N,03800.09252,E,133400.00,A,A*7D

$GNRMC,133401.00,A,5552.32204,N,03800.09209,E,0.599,,120625,,,A,V*1E
$GNVTG,,T,,M,0.599,N,1.109,K,A*31
$GNGGA,133401.00,5552.32204,N,03800.09209,E,1,07,1.19,156.2,M,12.9,M,,*4B
$GNGSA,A,3,02,32,03,31,,,,,,,,,3.63,1.19,3.43,1*08
$GNGSA,A,3,87,71,88,,,,,,,,,,3.63,1.19,3.43,2*00
$GNGSA,A,3,,,,,,,,,,,,,3.63,1.19,3.43,3*08

$GPGSV,3,1,12,01,69,235,,02,50,182,19,03,53,277,13,04,14,221,,0*6F
$GPGSV,3,2,12,10,06,096,,12,06,027,,17,28,300,,19,17,327,,0*68
$GPGSV,3,3,12,25,03,058,,28,40,104,,31,27,137,21,32,36,061,10,0*67
$GLGSV,3,1,10,65,16,245,,70,05,060,,71,50,053,23,72,73,260,,0*78
$GLGSV,3,2,10,73,17,085,,79,03,341,,80,22,029,07,86,21,175,,0*77
$GLGSV,3,3,10,87,60,211,21,88,38,319,11,0*70
$GAGSV,1,1,00,0*74
$GNGLL,5552.32204,N,03800.09209,E,133401.00,A,A*7A

$GNRMC,133402.00,A,5552.32188,N,03800.09182,E,0.463,,120625,,,A,V*1E
$GNVTG,,T,,M,0.463,N,0.858,K,A*39

$GNGGA,133402.00,5552.32188,N,03800.09182,E,1,07,1.19,156.0,M,12.9,M,,*4D
$GNGSA,A,3,02,32,03,31,,,,,,,,,3.63,1.19,3.43,1*08
$GNGSA,A,3,87,71,88,,,,,,,,,,3.63,1.19,3.43,2*00
$GNGSA,A,3,,,,,,,,,,,,,3.63,1.19,3.43,3*08
$GPGSV,3,1,12,01,69,235,,02,50,182,18,03,53,277,09,04,14,221,,0*65
$GPGSV,3,2,12,10,06,096,,12,06,027,,17,28,300,,19,17,327,,0*68
$GPGSV,3,3,12,25,03,058,,28,40,104,,31,27,137,20,32,36,061,12,0*64
$GLGSV,3,1,10,65,16,245,,70,05,060,,71,50,053,21,72,73,260,,0*7A
$GLGSV,3,2,10,73,17,085,,79,03,341,,80,22,029,08,86,21,175,,0*78
$GLGSV,3,3,10,87,60,211,21,88,38,319,11,0*70
$GAGSV,1,1,00,0*74
$GNGLL,5552.32188,N,03800.09182,E,133402.00,A,A*7E

$GNRMC,133403.00,A,5552.32198,N,03800.09144,E,0.390,,120625,,,A,V*1F
$GNVTG,,T,,M,0.390,N,0.722,K,A*30

$GNGGA,133403.00,5552.32198,N,03800.09144,E,1,08,1.15,155.8,M,12.9,M,,*4F
$GNGSA,A,3,02,32,03,31,,,,,,,,,3.11,1.15,2.89,1*06
$GNGSA,A,3,87,71,88,80,,,,,,,,,3.11,1.15,2.89,2*06
$GNGSA,A,3,,,,,,,,,,,,,3.11,1.15,2.89,3*06
$GPGSV,3,1,12,01,69,235,,02,50,182,16,03,53,277,09,04,14,221,,0*6B
$GPGSV,3,2,12,10,06,096,,12,06,027,,17,28,300,,19,17,327,08,0*60
$GPGSV,3,3,12,25,03,058,,28,40,104,,31,27,137,17,32,36,061,12,0*60
$GLGSV,3,1,10,65,16,245,,70,05,060,,71,50,053,21,72,73,260,,0*7A
$GLGSV,3,2,10,73,17,085,,79,03,341,,80,22,029,10,86,21,175,,0*71
$GLGSV,3,3,10,87,60,211,21,88,38,319,16,0*77
$GAGSV,1,1,00,0*74
$GNGLL,5552.32198,N,03800.09144,E,133403.00,A,A*74

$GNRMC,133404.00,A,5552.32174,N,03800.09129,E,0.202,,120625,,,A,V*1B
$GNVTG,,T,,M,0.202,N,0.374,K,A*3D

$GNGGA,133404.00,5552.32174,N,03800.09129,E,1,08,1.15,155.7,M,12.9,M,,*4E
$GNGSA,A,3,02,32,03,31,,,,,,,,,3.11,1.15,2.90,1*0E
$GNGSA,A,3,87,71,88,80,,,,,,,,,3.11,1.15,2.90,2*0E
$GNGSA,A,3,,,,,,,,,,,,,3.11,1.15,2.90,3*0E
$GPGSV,3,1,12,01,69,235,,02,50,182,19,03,53,277,12,04,14,221,,0*6E
$GPGSV,3,2,12,10,06,096,,12,06,027,,17,28,300,,19,17,327,09,0*61
$GPGSV,3,3,12,25,03,058,,28,40,104,,31,27,137,14,32,36,061,12,0*63
$GLGSV,3,1,10,65,16,245,,70,05,060,,71,50,053,19,72,73,260,,0*71
$GLGSV,3,2,10,73,17,085,,79,03,341,,80,22,029,13,86,21,175,,0*72
$GLGSV,3,3,10,87,60,211,20,88,38,319,16,0*76
$GAGSV,1,1,00,0*74
$GNGLL,5552.32174,N,03800.09129,E,133404.00,A,A*7A

$GNRMC,133405.00,A,5552.32155,N,03800.09135,E,0.207,,120625,,,A,V*11
$GNVTG,,T,,M,0.207,N,0.383,K,A*30

$GNGGA,133405.00,5552.32155,N,03800.09135,E,1,08,1.15,155.5,M,12.9,M,,*43
$GNGSA,A,3,02,32,03,31,,,,,,,,,3.12,1.15,2.90,1*0D
$GNGSA,A,3,87,71,88,80,,,,,,,,,3.12,1.15,2.90,2*0D
$GNGSA,A,3,,,,,,,,,,,,,3.12,1.15,2.90,3*0D
$GPGSV,3,1,12,01,69,235,,02,50,182,21,03,53,277,14,04,14,221,,0*63
$GPGSV,3,2,12,10,06,096,,12,06,027,,17,28,300,,19,17,327,15,0*6C
$GPGSV,3,3,12,25,03,058,,28,40,104,,31,27,137,15,32,36,061,12,0*62
$GLGSV,3,1,10,65,16,245,,70,05,060,,71,50,053,16,72,73,260,,0*7E
$GLGSV,3,2,10,73,17,085,,79,03,341,,80,22,029,13,86,21,175,,0*72
$GLGSV,3,3,10,87,60,211,19,88,38,319,13,0*79
$GAGSV,1,1,00,0*74
$GNGLL,5552.32155,N,03800.09135,E,133405.00,A,A*75

$GNRMC,133406.00,A,5552.32144,N,03800.09037,E,0.644,,120625,,,A,V*12
$GNVTG,,T,,M,0.644,N,1.192,K,A*30

$GNGGA,133406.00,5552.32144,N,03800.09037,E,1,07,1.39,155.2,M,12.9,M,,*45
$GNGSA,A,3,02,32,03,31,,,,,,,,,3.44,1.39,3.14,1*0D
$GNGSA,A,3,87,71,80,,,,,,,,,,3.44,1.39,3.14,2*0D
$GNGSA,A,3,,,,,,,,,,,,,3.44,1.39,3.14,3*0D
$GPGSV,3,1,12,01,69,235,,02,50,182,19,03,53,277,14,04,14,221,,0*68
$GPGSV,3,2,12,10,05,096,,12,06,027,,17,28,300,06,19,17,327,17,0*6B
$GPGSV,3,3,12,25,03,058,,28,40,104,,31,27,137,15,32,36,061,12,0*62
$GLGSV,3,1,10,65,16,245,,70,05,060,,71,50,053,14,72,73,260,,0*7C
$GLGSV,3,2,10,73,17,085,,79,03,341,,80,22,029,12,86,21,175,,0*73
$GLGSV,3,3,10,87,60,211,18,88,38,319,,0*7A
$GAGSV,1,1,00,0*74
$GNGLL,5552.32144,N,03800.09037,E,133406.00,A,A*75

$GNRMC,133407.00,A,5552.32125,N,03800.09023,E,0.637,,120625,,,A,V*15
$GNVTG,,T,,M,0.637,N,1.180,K,A*37
$GNGGA,133407.00,5552.32125,N,03800.09023,E,1,06,1.81,155.3,M,12.9,M,,*45

$GNGSA,A,3,02,32,03,31,,,,,,,,,5.37,1.81,5.06,1*09
$GNGSA,A,3,87,71,,,,,,,,,,,5.37,1.81,5.06,2*01
$GNGSA,A,3,,,,,,,,,,,,,5.37,1.81,5.06,3*09
$GPGSV,3,1,12,01,69,235,,02,50,182,16,03,53,277,11,04,14,221,,0*62
$GPGSV,3,2,12,10,05,096,,12,06,027,,17,28,300,08,19,17,327,18,0*6A
$GPGSV,3,3,12,25,03,058,,28,40,104,,31,27,137,14,32,36,061,08,0*68
$GLGSV,3,1,10,65,16,245,,70,05,060,,71,50,053,14,72,73,260,,0*7C
$GLGSV,3,2,10,73,17,085,,79,03,341,,80,22,029,10,86,21,175,,0*71
$GLGSV,3,3,10,87,60,211,18,88,38,319,,0*7A
$GAGSV,1,1,00,0*74
$GNGLL,5552.32125,N,03800.09023,E,133407.00,A,A*76

$GNRMC,133408.00,A,5552.32128,N,03800.09040,E,0.412,,120625,,,A,V*17
$GNVTG,,T,,M,0.412,N,0.762,K,A*39
$GNGGA,133408.00,5552.32128,N,03800.09040,E,1,07,1.39,155.2,M,12.9,M,,*41
$GNGSA,A,3,02,32,03,31,,,,,,,,,3.44,1.39,3.15,1*0C
$GNGSA,A,3,87,71,80,,,,,,,,,,3.44,1.39,3.15,2*0C
$GNGSA,A,3,,,,,,,,,,,,,3.44,1.39,3.15,3*0C
$GPGSV,3,1,12,01,69,235,,02,50,182,13,03,53,277,11,04,14,221,,0*67
$GPGSV,3,2,12,10,05,096,,12,06,027,,17,28,300,12,19,17,327,20,0*6A

$GPGSV,3,3,12,25,03,058,,28,40,104,,31,27,137,15,32,36,061,11,0*61
$GLGSV,3,1,10,65,16,245,,70,05,060,,71,50,053,14,72,73,260,,0*7C
$GLGSV,3,2,10,73,17,085,,79,03,341,,80,22,029,10,86,21,175,,0*71
$GLGSV,3,3,10,87,60,211,20,88,38,319,,0*71
$GAGSV,1,1,00,0*74
$GNGLL,5552.32128,N,03800.09040,E,133408.00,A,A*71

$GNRMC,133409.00,A,5552.32125,N,03800.08853,E,0.967,,120625,,,A,V*1F

$GNVTG,,T,,M,0.967,N,1.791,K,A*3B
$GNGGA,133409.00,5552.32125,N,03800.08853,E,1,08,1.03,154.8,M,12.9,M,,*4B
$GNGSA,A,3,02,32,17,03,31,,,,,,,,2.60,1.03,2.39,1*0B
$GNGSA,A,3,87,71,80,,,,,,,,,,2.60,1.03,2.39,2*0D
$GNGSA,A,3,,,,,,,,,,,,,2.60,1.03,2.39,3*0D

$GPGSV,3,1,12,01,69,235,,02,50,182,12,03,53,277,11,04,14,221,,0*66
$GPGSV,3,2,12,10,05,096,,12,06,027,,17,28,300,09,19,17,327,20,0*60
$GPGSV,3,3,12,25,03,058,,28,40,104,,31,27,137,14,32,36,061,11,0*60
$GLGSV,3,1,10,65,16,245,,70,05,060,,71,50,053,15,72,73,260,,0*7D
$GLGSV,3,2,10,73,17,085,21,79,03,341,,80,22,029,12,86,21,175,,0*70
$GLGSV,3,3,10,87,60,211,21,88,38,319,,0*70
$GAGSV,1,1,00,0*74
$GNGLL,5552.32125,N,03800.08853,E,133409.00,A,A*76

$GNRMC,133410.00,A,5552.32127,N,03800.08827,E,0.835,,120625,,,A,V*10

$GNVTG,,T,,M,0.835,N,1.546,K,A*35
$GNGGA,133410.00,5552.32127,N,03800.08827,E,1,06,1.78,154.9,M,12.9,M,,*41
$GNGSA,A,3,02,32,03,,,,,,,,,,4.54,1.78,4.17,1*08
$GNGSA,A,3,87,71,80,,,,,,,,,,4.54,1.78,4.17,2*0A
$GNGSA,A,3,,,,,,,,,,,,,4.54,1.78,4.17,3*0A

$GPGSV,3,1,12,01,69,235,,02,50,182,13,03,53,277,11,04,14,221,,0*67
$GPGSV,3,2,12,10,05,096,,12,06,027,,17,28,300,08,19,17,327,20,0*61
$GPGSV,3,3,12,25,03,058,,28,40,104,,31,27,137,12,32,36,061,11,0*66
$GLGSV,3,1,10,65,16,245,,70,05,060,,71,50,053,15,72,73,260,,0*7D

$GLGSV,3,2,10,73,17,085,20,79,03,341,,80,22,029,15,86,21,175,,0*76
$GLGSV,3,3,10,87,60,211,21,88,38,319,19,0*78
$GAGSV,1,1,00,0*74
$GNGLL,5552.32127,N,03800.08827,E,133410.00,A,A*7F

$GNRMC,133411.00,A,5552.32109,N,03800.08753,E,0.996,,120625,,,A,V*19
$GNVTG,,T,,M,0.996,N,1.844,K,A*32

$GNGGA,133411.00,5552.32109,N,03800.08753,E,1,06,1.78,155.0,M,12.9,M,,*48
$GNGSA,A,3,02,32,03,,,,,,,,,,4.54,1.78,4.17,1*08
$GNGSA,A,3,87,71,80,,,,,,,,,,4.54,1.78,4.17,2*0A
$GNGSA,A,3,,,,,,,,,,,,,4.54,1.78,4.17,3*0A
$GPGSV,3,1,12,01,69,235,,02,50,182,14,03,53,277,11,04,14,221,,0*60
$GPGSV,3,2,12,10,05,096,,12,06,027,,17,28,300,08,19,17,327,18,0*6A
$GPGSV,3,3,12,25,03,058,,28,40,104,18,31,27,137,11,32,36,061,11,0*6C
$GLGSV,3,1,10,65,16,245,,70,05,060,,71,50,053,10,72,73,260,,0*78
$GLGSV,3,2,10,73,17,085,19,79,03,341,,80,22,029,12,86,21,175,,0*7B
$GLGSV,3,3,10,87,60,211,21,88,38,319,19,0*78
$GAGSV,1,1,00,0*74
$GNGLL,5552.32109,N,03800.08753,E,133411.00,A,A*7E

$GNRMC,133412.00,A,5552.32106,N,03800.08663,E,1.078,,120625,,,A,V*1F

$GNVTG,,T,,M,1.078,N,1.996,K,A*34
$GNGGA,133412.00,5552.32106,N,03800.08663,E,1,05,2.02,155.2,M,12.9,M,,*49
$GNGSA,A,3,02,32,03,,,,,,,,,,8.20,2.02,7.95,1*00
$GNGSA,A,3,87,71,,,,,,,,,,,8.20,2.02,7.95,2*0A
$GNGSA,A,3,,,,,,,,,,,,,8.20,2.02,7.95,3*02
$GPGSV,3,1,12,01,69,235,,02,50,182,15,03,53,277,11,04,14,221,,0*61
$GPGSV,3,2,12,10,05,096,,12,06,027,,17,28,300,08,19,17,327,18,0*6A
$GPGSV,3,3,12,25,03,058,,28,40,104,18,31,27,137,09,32,36,061,11,0*65

$GLGSV,3,1,10,65,16,245,,70,05,060,,71,50,053,14,72,73,260,,0*7C
$GLGSV,3,2,10,73,17,085,17,79,03,341,,80,22,029,09,86,21,175,,0*7F
$GLGSV,3,3,10,87,60,211,21,88,38,319,19,0*78
$GAGSV,1,1,00,0*74
$GNGLL,5552.32106,N,03800.08663,E,133412.00,A,A*70

$GNRMC,133413.00,A,5552.32078,N,03800.08568,E,1.256,,120625,,,A,V*10

$GNVTG,,T,,M,1.256,N,2.326,K,A*38
$GNGGA,133413.00,5552.32078,N,03800.08568,E,1,08,1.15,155.3,M,12.9,M,,*41
$GNGSA,A,3,02,32,03,31,,,,,,,,,3.13,1.15,2.91,1*0D
$GNGSA,A,3,87,71,88,80,,,,,,,,,3.13,1.15,2.91,2*0D
$GNGSA,A,3,,,,,,,,,,,,,3.13,1.15,2.91,3*0D
$GPGSV,3,1,12,01,69,235,,02,50,182,20,03,53,277,08,04,14,221,,0*6F

$GPGSV,3,2,12,10,05,096,,12,06,027,,17,28,299,08,19,17,327,16,0*65
$GPGSV,3,3,12,25,03,058,,28,40,104,18,31,27,137,11,32,36,061,08,0*64
$GLGSV,3,1,10,65,16,245,,70,05,060,,71,50,053,14,72,73,260,,0*7C

$GLGSV,3,2,10,73,17,085,16,79,03,341,,80,22,029,11,86,21,175,,0*77
$GLGSV,3,3,10,87,60,211,20,88,38,319,20,0*73
$GAGSV,1,1,00,0*74
$GNGLL,5552.32078,N,03800.08568,E,133413.00,A,A*71

$GNRMC,133414.00,A,5552.32126,N,03800.08346,E,1.730,,120625,,,A,V*12
$GNVTG,,T,,M,1.730,N,3.204,K,A*3D

$GNGGA,133414.00,5552.32126,N,03800.08346,E,1,08,1.15,155.3,M,12.9,M,,*46
$GNGSA,A,3,02,32,03,31,,,,,,,,,3.13,1.15,2.91,1*0D
$GNGSA,A,3,87,71,88,80,,,,,,,,,3.13,1.15,2.91,2*0D
$GNGSA,A,3,,,,,,,,,,,,,3.13,1.15,2.91,3*0D
$GPGSV,3,1,12,01,69,235,,02,50,182,21,03,53,277,17,04,14,221,,0*60
$GPGSV,3,2,12,10,05,096,,12,06,027,,17,28,299,13,19,17,327,14,0*6D
$GPGSV,3,3,12,25,03,058,,28,40,104,17,31,27,137,13,32,36,061,14,0*64
$GLGSV,3,1,10,65,16,245,,70,05,060,,71,50,053,14,72,73,260,,0*7C
$GLGSV,3,2,10,73,17,085,16,79,03,341,,80,22,029,12,86,21,175,,0*74
$GLGSV,3,3,10,87,60,211,19,88,38,319,20,0*79
$GAGSV,1,1,00,0*74
$GNGLL,5552.32126,N,03800.08346,E,133414.00,A,A*76

$GNRMC,133415.00,A,5552.32157,N,03800.08250,E,1.434,,120625,,,A,V*14
$GNVTG,,T,,M,1.434,N,2.657,K,A*39

$GNGGA,133415.00,5552.32157,N,03800.08250,E,1,08,1.06,154.2,M,12.9,M,,*45
$GNGSA,A,3,02,17,03,31,,,,,,,,,2.64,1.06,2.42,1*07
$GNGSA,A,3,87,71,88,80,,,,,,,,,2.64,1.06,2.42,2*00
$GNGSA,A,3,,,,,,,,,,,,,2.64,1.06,2.42,3*00
$GPGSV,3,1,12,01,69,235,,02,50,182,21,03,53,277,11,04,14,221,,0*66
$GPGSV,3,2,12,10,05,096,,12,06,027,,17,28,299,13,19,17,326,12,0*6A
$GPGSV,3,3,12,25,03,058,,28,40,104,15,31,27,137,19,32,36,061,,0*69
$GLGSV,3,1,10,65,16,245,,70,05,060,,71,50,053,15,72,73,260,,0*7D
$GLGSV,3,2,10,73,17,085,13,79,03,341,,80,22,029,14,86,21,175,,0*77
$GLGSV,3,3,10,87,60,211,19,88,38,319,18,0*72
$GAGSV,1,1,00,0*74
$GNGLL,5552.32157,N,03800.08250,E,133415.00,A,A*77

$GNRMC,133416.00,A,5552.32393,N,03800.08357,E,2.972,,120625,,,A,V*17
$GNVTG,,T,,M,2.972,N,5.504,K,A*37
$GNGGA,133416.00,5552.32393,N,03800.08357,E,1,08,1.06,155.1,M,12.9,M,,*48

$GNGSA,A,3,02,17,03,31,,,,,,,,,2.64,1.06,2.42,1*07
$GNGSA,A,3,87,71,88,80,,,,,,,,,2.64,1.06,2.42,2*00
$GNGSA,A,3,,,,,,,,,,,,,2.64,1.06,2.42,3*00
$GPGSV,3,1,12,01,69,235,21,02,50,182,18,03,53,277,21,04,14,221,,0*6C
$GPGSV,3,2,12,10,05,096,,12,06,027,,17,28,299,13,19,17,326,15,0*6D
$GPGSV,3,3,12,25,03,058,,28,40,104,16,31,27,137,21,32,36,061,17,0*67
$GLGSV,3,1,10,65,16,245,,70,05,060,,71,50,053,14,72,73,260,,0*7C
$GLGSV,3,2,10,73,17,085,11,79,03,341,,80,22,029,12,86,21,175,,0*73
$GLGSV,3,3,10,87,60,211,20,88,38,319,17,0*77
$GAGSV,1,1,00,0*74
$GNGLL,5552.32393,N,03800.08357,E,133416.00,A,A*78

$GNRMC,133417.00,A,5552.32482,N,03800.08627,E,3.096,,120625,,,A,V*11
$GNVTG,,T,,M,3.096,N,5.734,K,A*34
$GNGGA,133417.00,5552.32482,N,03800.08627,E,1,07,1.22,155.8,M,12.9,M,,*4C

$GNGSA,A,3,02,17,03,31,,,,,,,,,2.86,1.22,2.59,1*07
$GNGSA,A,3,87,71,88,,,,,,,,,,2.86,1.22,2.59,2*08
$GNGSA,A,3,,,,,,,,,,,,,2.86,1.22,2.59,3*00
$GPGSV,3,1,12,01,69,235,19,02,50,182,19,03,53,277,19,04,14,221,,0*6D
$GPGSV,3,2,12,10,05,096,14,12,06,027,,17,28,299,13,19,17,326,18,0*65
$GPGSV,3,3,12,25,03,058,,28,40,104,16,31,27,137,21,32,36,061,18,0*68
$GLGSV,3,1,10,65,16,245,,70,05,060,,71,50,053,12,72,73,260,,0*7A
$GLGSV,3,2,10,73,17,085,14,79,03,341,,80,22,029,08,86,21,175,,0*7D
$GLGSV,3,3,10,87,60,211,19,88,38,319,15,0*7F
$GAGSV,1,1,00,0*74
$GNGLL,5552.32482,N,03800.08627,E,133417.00,A,A*7C

$GNRMC,133418.00,A,5552.32462,N,03800.08703,E,2.170,,120625,,,A,V*1F
$GNVTG,,T,,M,2.170,N,4.018,K,A*34
$GNGGA,133418.00,5552.32462,N,03800.08703,E,1,07,1.22,155.8,M,12.9,M,,*4A
$GNGSA,A,3,02,17,03,31,,,,,,,,,2.86,1.22,2.59,1*07
$GNGSA,A,3,87,71,88,,,,,,,,,,2.86,1.22,2.59,2*08
$GNGSA,A,3,,,,,,,,,,,,,2.86,1.22,2.59,3*00

$GPGSV,3,1,12,01,69,235,17,02,50,182,18,03,53,277,19,04,14,221,,0*62
$GPGSV,3,2,12,10,05,096,10,12,06,027,,17,28,299,13,19,17,326,18,0*61
$GPGSV,3,3,12,25,03,058,,28,40,104,15,31,27,137,21,32,36,061,17,0*64
$GLGSV,3,1,10,65,16,245,,70,05,060,,71,50,053,14,72,73,260,,0*7C
$GLGSV,3,2,10,73,17,085,14,79,03,341,,80,22,029,07,86,21,175,,0*72
$GLGSV,3,3,10,87,60,211,18,88,38,319,14,0*7F
$GAGSV,1,1,00,0*74
$GNGLL,5552.32462,N,03800.08703,E,133418.00,A,A*7A

$GNRMC,133419.00,A,5552.32516,N,03800.08919,E,2.428,,120625,,,A,V*11
$GNVTG,,T,,M,2.428,N,4.496,K,A*3E
$GNGGA,133419.00,5552.32516,N,03800.08919,E,1,08,1.22,155.7,M,12.9,M,,*4C

$GNGSA,A,3,01,02,17,03,31,,,,,,,,2.56,1.22,2.25,1*00
$GNGSA,A,3,87,71,88,,,,,,,,,,2.56,1.22,2.25,2*0E
$GNGSA,A,3,,,,,,,,,,,,,2.56,1.22,2.25,3*06
$GPGSV,3,1,12,01,69,235,20,02,50,182,19,03,53,277,18,04,14,221,,0*66
$GPGSV,3,2,12,10,05,096,07,12,06,027,,17,28,299,13,19,17,326,18,0*67
$GPGSV,3,3,12,25,03,058,,28,40,104,16,31,27,137,20,32,36,061,17,0*66
$GLGSV,3,1,10,65,16,245,,70,05,060,,71,50,053,16,72,73,260,,0*7E
$GLGSV,3,2,10,73,17,085,12,79,03,341,,80,22,029,07,86,21,175,,0*74
$GLGSV,3,3,10,87,60,211,17,88,38,319,12,0*76
$GAGSV,1,1,00,0*74
$GNGLL,5552.32516,N,03800.08919,E,133419.00,A,A*7C

$GNRMC,133420.00,A,5552.32527,N,03800.08995,E,1.909,,120625,,,A,V*10
$GNVTG,,T,,M,1.909,N,3.535,K,A*3C
$GNGGA,133420.00,5552.32527,N,03800.08995,E,1,09,1.03,155.9,M,12.9,M,,*4C

$GNGSA,A,3,01,02,32,17,03,31,,,,,,,2.47,1.03,2.25,1*02
$GNGSA,A,3,87,71,88,,,,,,,,,,2.47,1.03,2.25,2*0D
$GNGSA,A,3,,,,,,,,,,,,,2.47,1.03,2.25,3*05
$GPGSV,3,1,12,01,69,235,19,02,50,182,20,03,53,277,16,04,14,221,,0*68
$GPGSV,3,2,12,10,05,096,,12,06,027,,17,28,299,08,19,17,326,17,0*65
$GPGSV,3,3,12,25,03,058,,28,40,104,16,31,27,137,18,32,36,061,15,0*6F
$GLGSV,3,1,10,65,16,245,,70,05,060,,71,50,053,17,72,73,260,,0*7F
$GLGSV,3,2,10,73,17,085,10,79,03,341,,80,22,029,06,86,21,175,,0*77
$GLGSV,3,3,10,87,60,211,17,88,38,319,10,0*74
$GAGSV,1,1,00,0*74
$GNGLL,5552.32527,N,03800.08995,E,133420.00,A,A*70

$GNRMC,133421.00,A,5552.32546,N,03800.09037,E,1.558,,120625,,,A,V*1E
$GNVTG,,T,,M,1.558,N,2.886,K,A*30

$GNGGA,133421.00,5552.32546,N,03800.09037,E,1,10,0.97,156.5,M,12.9,M,,*41
$GNGSA,A,3,01,02,32,17,03,31,,,,,,,2.35,0.97,2.13,1*0E
$GNGSA,A,3,87,71,88,80,,,,,,,,,2.35,0.97,2.13,2*09
$GNGSA,A,3,,,,,,,,,,,,,2.35,0.97,2.13,3*09
$GPGSV,3,1,12,01,69,235,21,02,50,182,18,03,53,277,14,04,14,221,,0*6A
$GPGSV,3,2,12,10,05,096,,12,06,027,,17,28,299,08,19,17,326,17,0*65
$GPGSV,3,3,12,25,03,058,,28,40,104,13,31,27,137,20,32,36,061,12,0*66
$GLGSV,3,1,10,65,16,245,,70,05,060,,71,50,053,15,72,73,260,,0*7D
$GLGSV,3,2,10,73,17,085,09,79,03,341,,80,22,029,11,86,21,175,,0*79
$GLGSV,3,3,10,87,60,211,18,88,38,319,15,0*7E
$GAGSV,1,1,00,0*74
$GNGLL,5552.32546,N,03800.09037,E,133421.00,A,A*76

$GNRMC,133422.00,A,5552.32533,N,03800.09015,E,0.838,,120625,,,A,V*15
$GNVTG,,T,,M,0.838,N,1.552,K,A*3D

$GNGGA,133422.00,5552.32533,N,03800.09015,E,1,10,0.97,156.5,M,12.9,M,,*40
$GNGSA,A,3,01,02,32,17,03,31,,,,,,,2.35,0.97,2.14,1*09
$GNGSA,A,3,87,71,88,80,,,,,,,,,2.35,0.97,2.14,2*0E
$GNGSA,A,3,,,,,,,,,,,,,2.35,0.97,2.14,3*0E
$GPGSV,3,1,12,01,69,235,19,02,50,182,18,03,53,277,14,04,14,221,,0*61
$GPGSV,3,2,12,10,05,096,,12,06,027,,17,28,299,08,19,17,326,15,0*67
$GPGSV,3,3,12,25,03,058,,28,40,104,11,31,27,137,21,32,36,061,14,0*63
$GLGSV,3,1,10,65,16,245,,70,05,060,,71,50,053,15,72,73,260,,0*7D
$GLGSV,3,2,10,73,17,085,10,79,03,341,,80,22,029,11,86,21,175,,0*71
$GLGSV,3,3,10,87,60,211,16,88,38,319,16,0*73
$GAGSV,1,1,00,0*74
$GNGLL,5552.32533,N,03800.09015,E,133422.00,A,A*77

$GNRMC,133423.00,A,5552.32529,N,03800.09155,E,0.828,,120625,,,A,V*1B
$GNVTG,,T,,M,0.828,N,1.533,K,A*3B

$GNGGA,133423.00,5552.32529,N,03800.09155,E,1,10,0.97,156.5,M,12.9,M,,*4F
$GNGSA,A,3,01,02,32,17,03,31,,,,,,,2.35,0.97,2.14,1*09
$GNGSA,A,3,87,71,88,80,,,,,,,,,2.35,0.97,2.14,2*0E
$GNGSA,A,3,,,,,,,,,,,,,2.35,0.97,2.14,3*0E
$GPGSV,3,1,12,01,69,235,19,02,50,182,16,03,53,277,25,04,14,221,,0*6D
$GPGSV,3,2,12,10,05,096,,12,06,027,,17,28,299,08,19,17,326,17,0*65
$GPGSV,3,3,12,25,03,058,,28,40,104,13,31,27,137,22,32,36,061,15,0*63
$GLGSV,3,1,10,65,16,245,,70,05,060,,71,50,053,16,72,73,260,,0*7E
$GLGSV,3,2,10,73,17,085,13,79,03,341,,80,22,029,18,86,21,175,,0*7B
$GLGSV,3,3,10,87,60,211,18,88,38,319,15,0*7E
$GAGSV,1,1,00,0*74
$GNGLL,5552.32529,N,03800.09155,E,133423.00,A,A*78

$GNRMC,133424.00,A,5552.32466,N,03800.09161,E,0.269,,120625,,,A,V*1E

$GNVTG,,T,,M,0.269,N,0.499,K,A*34
$GNGGA,133424.00,5552.32466,N,03800.09161,E,1,10,0.97,156.1,M,12.9,M,,*41
$GNGSA,A,3,01,02,32,17,03,31,,,,,,,2.35,0.97,2.14,1*09
$GNGSA,A,3,87,71,88,80,,,,,,,,,2.35,0.97,2.14,2*0E
$GNGSA,A,3,,,,,,,,,,,,,2.35,0.97,2.14,3*0E
$GPGSV,3,1,12,01,69,235,18,02,50,182,15,03,53,277,24,04,14,221,,0*6E
$GPGSV,3,2,12,10,05,096,,12,06,027,,17,28,299,08,19,17,326,17,0*65
$GPGSV,3,3,12,25,03,058,,28,40,104,12,31,27,137,25,32,36,061,17,0*67
$GLGSV,3,1,10,65,16,245,,70,05,060,,71,50,053,15,72,73,260,21,0*7E
$GLGSV,3,2,10,73,17,085,17,79,03,341,,80,22,029,18,86,21,175,,0*7F
$GLGSV,3,3,10,87,60,211,17,88,38,319,15,0*71
$GAGSV,1,1,00,0*74
$GNGLL,5552.32466,N,03800.09161,E,133424.00,A,A*72

$GNRMC,133425.00,A,5552.32461,N,03800.09211,E,0.325,,120625,,,A,V*15
$GNVTG,,T,,M,0.325,N,0.602,K,A*3D
$GNGGA,133425.00,5552.32461,N,03800.09211,E,1,10,0.97,156.3,M,12.9,M,,*41

