$GNTXT,01,01,02,u-blox AG - www.u-blox.com*4E
$GNTXT,01,01,02,HW UBX-M8030 00080000*60
$GNTXT,01,01,02,ROM CORE 3.01 (107888)*2B
$GNTXT,01,01,02,FWVER=SPG 3.01*46
$GNTXT,01,01,02,PROTVER=18.00*11
$GNTXT,01,01,02,GPS;GLO;GAL;BDS*77
$GNTXT,01,01,02,SBAS;IMES;QZSS*49
$GNTXT,01,01,02,GNSS OTP=GPS;GLO*37
$GNTXT,01,01,02,LLC=FFFFFFFF-FFFFFFFF-FFFFFFFF-FFFFFFFF-FFFFFFFD*2F
$GNTXT,01,01,02,ANTSUPERV=AC SD PDoS SR*3E
$GNTXT,01,01,02,ANTSTATUS=OK*25
$GNTXT,01,01,02,PF=3FF*4B
$GNRMC,132519.00,A,5552.32096,N,03800.08930,E,0.088,,120625,,,A,V*1B
$GNVTG,,T,,M,0.088,N,0.162,K,A*38
$GNGGA,132519.00,5552.32096,N,03800.08930,E,1,05,1.43,162.8,M,12.9,M,,*4B
$GNGSA,A,3,03,,,,,,,,,,,,3.10,1.43,2.74,1*07
$GNGSA,A,3,87,71,88,86,,,,,,,,,3.10,1.43,2.74,2*00
$GNGSA,A,3,,,,,,,,,,,,,3.10,1.43,2.74,3*06
$GPGSV,4,1,13,01,70,248,17,02,55,184,,03,49,275,22,04,10,220,,0*68
$GPGSV,4,2,13,08,00,204,,10,09,094,12,12,05,031,,17,28,304,05,0*63
$GPGSV,4,3,13,19,15,330,17,25,01,061,,28,37,109,16,31,24,139,17,0*63
$GPGSV,4,4,13,32,39,061,,0*5B
$GLGSV,3,1,10,65,12,242,,70,08,059,,71,54,051,17,72,69,252,,0*77
$GLGSV,3,2,10,73,14,088,,79,06,344,,80,22,034,18,86,27,174,12,0*7F
$GLGSV,3,3,10,87,65,218,08,88,34,322,24,0*75
$GAGSV,1,1,00,0*74
$GNGLL,5552.32096,N,03800.08930,E,132519.00,A,A*7A
$GNRMC,132520.00,A,5552.32026,N,03800.08858,E,0.760,,120625,,,A,V*14
$GNVTG,,T,,M,0.760,N,1.408,K,A*31
$GNGGA,132520.00,5552.32026,N,03800.08858,E,1,05,1.43,162.8,M,12.9,M,,*45
$GNGSA,A,3,03,,,,,,,,,,,,3.10,1.43,2.74,1*07
$GNGSA,A,3,87,71,88,86,,,,,,,,,3.10,1.43,2.74,2*00
$GNGSA,A,3,,,,,,,,,,,,,3.10,1.43,2.74,3*06
$GPGSV,4,1,13,01,70,248,17,02,55,184,,03,49,275,23,04,10,220,,0*69
$GPGSV,4,2,13,08,00,204,,10,09,094,09,12,05,031,,17,28,304,05,0*69
$GPGSV,4,3,13,19,15,330,18,25,01,061,,28,37,109,17,31,24,139,17,0*6D
$GPGSV,4,4,13,32,39,061,04,0*5F
$GLGSV,3,1,10,65,12,242,,70,08,059,,71,54,051,18,72,69,252,,0*78
$GLGSV,3,2,10,73,14,088,,79,06,344,,80,22,034,17,86,27,174,16,0*74
$GLGSV,3,3,10,87,65,218,08,88,34,322,25,0*74
$GAGSV,1,1,00,0*74
$GNGLL,5552.32026,N,03800.08858,E,132520.00,A,A*74
$GNRMC,132521.00,A,5552.31976,N,03800.08908,E,0.724,,120625,,,A,V*1E
$GNVTG,,T,,M,0.724,N,1.340,K,A*3A
$GNGGA,132521.00,5552.31976,N,03800.08908,E,1,08,1.17,162.4,M,12.9,M,,*4F
$GNGSA,A,3,01,03,10,31,,,,,,,,,2.19,1.17,1.85,1*01
$GNGSA,A,3,87,71,88,86,,,,,,,,,2.19,1.17,1.85,2*04
$GNGSA,A,3,,,,,,,,,,,,,2.19,1.17,1.85,3*02
$GPGSV,4,1,13,01,70,248,17,02,55,184,,03,49,275,23,04,10,220,,0*69
$GPGSV,4,2,13,08,00,204,,10,09,094,08,12,05,031,,17,28,304,05,0*68
$GPGSV,4,3,13,19,15,330,21,25,01,061,,28,37,109,18,31,24,139,19,0*66
$GPGSV,4,4,13,32,39,061,06,0*5D
$GLGSV,3,1,10,65,12,242,,70,08,059,,71,54,051,19,72,69,252,,0*79
$GLGSV,3,2,10,73,14,088,,79,06,344,,80,22,034,14,86,27,174,16,0*77
$GLGSV,3,3,10,87,65,218,09,88,34,322,25,0*75
$GAGSV,1,1,00,0*74
$GNGLL,5552.31976,N,03800.08908,E,132521.00,A,A*7E
$GNRMC,132522.00,A,5552.31945,N,03800.08904,E,0.765,,120625,,,A,V*14
$GNVTG,,T,,M,0.765,N,1.417,K,A*3A
$GNGGA,132522.00,5552.31945,N,03800.08904,E,1,09,1.05,161.9,M,12.9,M,,*4C
$GNGSA,A,3,01,32,03,10,31,,,,,,,,2.07,1.05,1.78,1*0E
$GNGSA,A,3,87,71,88,86,,,,,,,,,2.07,1.05,1.78,2*0A
$GNGSA,A,3,,,,,,,,,,,,,2.07,1.05,1.78,3*0C
$GPGSV,4,1,13,01,70,248,17,02,55,184,,03,49,275,22,04,10,220,,0*68
$GPGSV,4,2,13,08,00,204,,10,09,094,07,12,05,031,,17,28,304,05,0*67
$GPGSV,4,3,13,19,15,330,22,25,01,061,,28,37,109,17,31,24,139,21,0*61
$GPGSV,4,4,13,32,39,061,08,0*53
$GLGSV,3,1,10,65,12,242,,70,08,059,,71,54,051,19,72,69,252,,0*79
$GLGSV,3,2,10,73,14,088,,79,06,344,,80,22,034,13,86,27,174,15,0*73
$GLGSV,3,3,10,87,65,218,09,88,34,322,24,0*74
$GAGSV,1,1,00,0*74
$GNGLL,5552.31945,N,03800.08904,E,132522.00,A,A*71
$GNRMC,132523.00,A,5552.31950,N,03800.08908,E,0.542,,120625,,,A,V*1A
$GNVTG,,T,,M,0.542,N,1.004,K,A*3B
$GNGGA,132523.00,5552.31950,N,03800.08908,E,1,08,1.10,161.6,M,12.9,M,,*4F
$GNGSA,A,3,01,03,31,,,,,,,,,,2.23,1.10,1.94,1*0E
$GNGSA,A,3,87,71,88,86,80,,,,,,,,2.23,1.10,1.94,2*02
$GNGSA,A,3,,,,,,,,,,,,,2.23,1.10,1.94,3*0C
$GPGSV,4,1,13,01,70,2
48,17,02,55,184,,03,49,275,22,04,10,220,,0*68
$GPGSV,4,2,13,08,00,204,,10,09,094,07,12,05,031,,17,28,304,05,0*67
$GPGSV,4,3,13,19,15,330,22,25,01,061,,28,37,109,16,31,24,139,22,0*63
$GPGSV,4,4,13,32,39,061,08,0*53
$GLGSV,3,1,10,65,12,242,,70,08,059,,71,54,051,18,72,69,252,,0*78
$GLGSV,3,2,10,73,14,088,,79,06,344,,80,22,034,13,86,27,174,14,0*72
$GLGSV,3,3,10,87,65,218,09,88,34,322,23,0*73
$GAGSV,1,1,00,0*74
$GNGLL,5552.31950,N,03800.08908,E,132523.00,A,A*78

$GNRMC,132524.00,A,5552.31891,N,03800.08901,E,0.948,,120625,,,A,V*1E

$GNVTG,,T,,M,0.948,N,1.755,K,A*3E
$GNGGA,132524.00,5552.31891,N,03800.08901,E,1,08,1.10,161.4,M,12.9,M,,*4F
$GNGSA,A,3,01,03,31,,,,,,,,,,2.23,1.10,1.94,1*0E
$GNGSA,A,3,87,71,88,86,80,,,,,,,,2.23,1.10,1.94,2*02
$GNGSA,A,3,,,,,,,,,,,,,2.23,1.10,1.94,3*0C
$GPGSV,4,1,13,01,70,248,17,02,55,184,,03,49,275,21,04,10,220,,0*6B
$GPGSV,4,2,13,08,00,204,,10,09,094,07,12,05,031,,17,28,304,05,0*67

$GPGSV,4,3,13,19,15,330,22,25,01,061,,28,37,109,13,31,24,139,23,0*67
$GPGSV,4,4,13,32,39,061,08,0*53
$GLGSV,3,1,10,65,12,242,,70,08,059,,71,54,051,16,72,69,252,,0*76
$GLGSV,3,2,10,73,14,088,,79,06,344,,80,22,033,12,86,27,174,11,0*71
$GLGSV,3,3,10,87,65,218,09,88,34,322,23,0*73

$GAGSV,1,1,00,0*74
$GNGLL,5552.31891,N,03800.08901,E,132524.00,A,A*7A

$GNRMC,132525.00,A,5552.31967,N,03800.08847,E,0.513,,120625,,,A,V*16

$GNVTG,,T,,M,0.513,N,0.950,K,A*36
$GNGGA,132525.00,5552.31967,N,03800.08847,E,1,08,1.12,161.2,M,12.9,M,,*41
$GNGSA,A,3,01,32,03,31,,,,,,,,,2.41,1.12,2.14,1*02
$GNGSA,A,3,87,71,88,80,,,,,,,,,2.41,1.12,2.14,2*01
$GNGSA,A,3,,,,,,,,,,,,,2.41,1.12,2.14,3*01
$GPGSV,4,1,13,01,70,248,15,02,55,184,18,03,49,275,20,04,10,220,,0*61
$GPGSV,4,2,13,08,00,204,,10,09,094,07,12,05,031,,17,28,304,,0*62
$GPGSV,4,3,13,19,15,330,22,25,01,061,,28,37,109,13,31,24,139,24,0*60
$GPGSV,4,4,13,32,39,061,16,0*5C

$GLGSV,3,1,10,65,12,242,,70,08,059,,71,54,051,15,72,69,252,,0*75
$GLGSV,3,2,10,73,14,088,,79,06,344,,80,22,033,13,86,27,174,,0*70
$GLGSV,3,3,10,87,65,218,11,88,34,322,24,0*7D
$GAGSV,1,1,00,0*74
$GNGLL,5552.31967,N,03800.08847,E,132525.00,A,A*70

$GNRMC,132526.00,A,5552.31916,N,03800.08771,E,0.986,,120625,,,A,V*19

$GNVTG,,T,,M,0.986,N,1.827,K,A*36
$GNGGA,132526.00,5552.31916,N,03800.08771,E,1,08,1.12,160.8,M,12.9,M,,*45
$GNGSA,A,3,01,32,03,31,,,,,,,,,2.41,1.12,2.14,1*02
$GNGSA,A,3,87,71,88,80,,,,,,,,,2.41,1.12,2.14,2*01
$GNGSA,A,3,,,,,,,,,,,,,2.41,1.12,2.14,3*01
$GPGSV,4,1,13,01,70,248,13,02,55,184,19,03,49,275,18,04,10,220,,0*6D
$GPGSV,4,2,13,08,00,204,,10,09,094,07,12,05,031,,17,28,304,,0*62
$GPGSV,4,3,13,19,15,330,22,25,01,061,,28,37,109,,31,24,139,24,0*62
$GPGSV,4,4,13,32,39,061,16,0*5C

$GLGSV,3,1,10,65,12,242,,70,08,059,,71,54,051,13,72,69,252,,0*73
$GLGSV,3,2,10,73,14,088,,79,06,344,,80,22,033,15,86,27,174,,0*76
$GLGSV,3,3,10,87,65,218,11,88,34,322,25,0*7C
$GAGSV,1,1,00,0*74
$GNGLL,5552.31916,N,03800.08771,E,132526.00,A,A*7F

$GNRMC,132527.00,A,5552.31966,N,03800.08682,E,0.677,,120625,,,A,V*13
$GNVTG,,T,,M,0.677,N,1.255,K,A*38

$GNGGA,132527.00,5552.31966,N,03800.08682,E,1,08,1.12,160.8,M,12.9,M,,*4E
$GNGSA,A,3,01,32,03,31,,,,,,,,,2.41,1.12,2.14,1*02
$GNGSA,A,3,87,71,88,80,,,,,,,,,2.41,1.12,2.14,2*01
$GNGSA,A,3,,,,,,,,,,,,,2.41,1.12,2.14,3*01
$GPGSV,4,1,13,01,70,248,13,02,55,184,19,03,49,275,17,04,10,220,,0*62
$GPGSV,4,2,13,08,00,204,,10,09,094,07,12,05,031,,17,28,304,,0*62
$GPGSV,4,3,13,19,15,330,21,25,01,061,,28,37,109,21,31,24,139,24,0*62
$GPGSV,4,4,13,32,39,061,16,0*5C

$GLGSV,3,1,10,65,12,242,,70,08,059,,71,54,051,13,72,69,252,,0*73
$GLGSV,3,2,10,73,14,088,,79,06,344,,80,22,033,16,86,27,174,,0*75
$GLGSV,3,3,10,87,65,218,10,88,34,322,26,0*7E
$GAGSV,1,1,00,0*74
$GNGLL,5552.31966,N,03800.08682,E,132527.00,A,A*74

$GNRMC,132528.00,A,5552.31985,N,03800.08642,E,0.282,,120625,,,A,V*13
$GNVTG,,T,,M,0.282,N,0.522,K,A*30

$GNGGA,132528.00,5552.31985,N,03800.08642,E,1,09,1.07,159.8,M,12.9,M,,*4F
$GNGSA,A,3,01,02,32,03,31,,,,,,,,2.39,1.07,2.13,1*0C
$GNGSA,A,3,87,71,88,80,,,,,,,,,2.39,1.07,2.13,2*0D
$GNGSA,A,3,,,,,,,,,,,,,2.39,1.07,2.13,3*0D
$GPGSV,4,1,13,01,70,248,12,02,55,184,18,03,49,275,15,04,10,220,,0*60
$GPGSV,4,2,13,08,00,204,,10,09,094,07,12,05,031,,17,28,304,,0*62
$GPGSV,4,3,13,19,15,330,19,25,01,061,,28,37,109,20,31,24,139,24,0*68
$GPGSV,4,4,13,32,39,061,16,0*5C

$GLGSV,3,1,10,65,12,242,,70,08,059,,71,54,051,15,72,69,252,,0*75
$GLGSV,3,2,10,73,14,088,,79,06,344,,80,22,033,15,86,27,174,,0*76
$GLGSV,3,3,10,87,65,218,10,88,34,322,25,0*7D

$GAGSV,1,1,00,0*74

$GNGLL,5552.31985,N,03800.08642,E,132528.00,A,A*7A

$GNRMC,132529.00,A,5552.32024,N,03800.08682,E,0.316,,120625,,,A,V*13
$GNVTG,,T,,M,0.316,N,0.585,K,A*31

$GNGGA,132529.00,5552.32024,N,03800.08682,E,1,09,1.07,159.3,M,12.9,M,,*48
$GNGSA,A,3,01,02,32,03,31,,,,,,,,2.39,1.07,2.13,1*0C
$GNGSA,A,3,87,71,88,80,,,,,,,,,2.39,1.07,2.13,2*0D
$GNGSA,A,3,,,,,,,,,,,,,2.39,1.07,2.13,3*0D
$GPGSV,4,1,13,01,70,248,14,02,55,184,18,03,49,275,13,04,10,220,,0*60
$GPGSV,4,2,13,08,00,204,,10,09,094,07,12,05,031,,17,28,304,,0*62
$GPGSV,4,3,13,19,15,330,17,25,01,061,,28,37,109,20,31,24,139,24,0*66
$GPGSV,4,4,13,32,39,061,16,0*5C
$GLGSV,3,1,10,65,12,242,,70,08,059,,71,54,051,15,72,69,252,,0*75
$GLGSV,3,2,10,73,14,088,,79,06,344,,80,22,033,10,86,27,174,,0*73
$GLGSV,3,3,10,87,65,218,10,88,34,322,26,0*7E
$GAGSV,1,1,00,0*74
$GNGLL,5552.32024,N,03800.08682,E,132529.00,A,A*76

$GNRMC,132530.00,A,5552.32029,N,03800.08665,E,0.181,,120625,,,A,V*13

$GNVTG,,T,,M,0.181,N,0.335,K,A*30
$GNGGA,132530.00,5552.32029,N,03800.08665,E,1,08,1.13,159.0,M,12.9,M,,*43
$GNGSA,A,3,01,02,32,03,31,,,,,,,,2.59,1.13,2.33,1*0D
$GNGSA,A,3,87,71,88,,,,,,,,,,2.59,1.13,2.33,2*04
$GNGSA,A,3,,,,,,,,,,,,,2.59,1.13,2.33,3*0C
$GPGSV,4,1,13,01,70,248,14,02,55,184,18,03,49,275,10,04,10,220,,0*63
$GPGSV,4,2,13,08,00,204,,10,09,094,07,12,05,031,,17,28,304,,0*62
$GPGSV,4,3,13,19,15,330,14,25,01,061,,28,37,109,18,31,24,139,25,0*6F
$GPGSV,4,4,13,32,39,061,16,0*5C
$GLGSV,3,1,10,65,12,242,,70,08,059,,71,54,051,14,72,69,252,,0*74
$GLGSV,3,2,10,73,14,088,,79,06,344,,80,22,033,10,86,26,174,,0*72
$GLGSV,3,3,10,87,65,218,10,88,34,322,26,0*7E
$GAGSV,1,1,00,0*74
$GNGLL,5552.32029,N,03800.08665,E,132530.00,A,A*7A

$GNRMC,132531.00,A,5552.32035,N,03800.08611,E,0.131,,120625,,,A,V*17
$GNVTG,,T,,M,0.131,N,0.242,K,A*3A

$GNGGA,132531.00,5552.32035,N,03800.08611,E,1,08,1.13,158.1,M,12.9,M,,*4C
$GNGSA,A,3,01,02,32,03,31,,,,,,,,2.59,1.13,2.33,1*0D
$GNGSA,A,3,87,71,88,,,,,,,,,,2.59,1.13,2.33,2*04
$GNGSA,A,3,,,,,,,,,,,,,2.59,1.13,2.33,3*0C
$GPGSV,4,1,13,01,70,248,12,02,55,184,17,03,49,275,10,04,10,220,,0*6A
$GPGSV,4,2,13,08,00,204,,10,09,094,07,12,05,031,,17,28,304,,0*62
$GPGSV,4,3,13,19,15,330,,25,01,061,,28,37,109,17,31,24,139,25,0*65
$GPGSV,4,4,13,32,39,061,16,0*5C
$GLGSV,3,1,10,65,12,242,,70,08,059,,71,54,051,15,72,69,252,,0*75
$GLGSV,3,2,10,73,14,088,,79,06,344,,80,22,033,09,86,26,174,,0*7A
$GLGSV,3,3,10,87,64,217,15,88,34,322,26,0*75
$GAGSV,1,1,00,0*74
$GNGLL,5552.32035,N,03800.08611,E,132531.00,A,A*75

$GNRMC,132532.00,A,5552.32015,N,03800.08507,E,0.414,,120625,,,A,V*10
$GNVTG,,T,,M,0.414,N,0.768,K,A*35

$GNGGA,132532.00,5552.32015,N,03800.08507,E,1,07,1.23,157.6,M,12.9,M,,*4D
$GNGSA,A,3,01,02,32,31,,,,,,,,,2.66,1.23,2.36,1*04
$GNGSA,A,3,87,71,88,,,,,,,,,,2.66,1.23,2.36,2*0E
$GNGSA,A,3,,,,,,,,,,,,,2.66,1.23,2.36,3*06
$GPGSV,4,1,13,01,70,248,11,02,55,184,17,03,49,275,08,04,10,220,,0*60
$GPGSV,4,2,13,08,00,204,,10,09,094,07,12,05,031,,17,28,304,,0*62
$GPGSV,4,3,13,19,15,330,,25,01,061,,28,37,109,17,31,24,139,26,0*66
$GPGSV,4,4,13,32,39,061,16,0*5C
$GLGSV,3,1,10,65,12,242,,70,08,059,,71,54,051,16,72,69,252,,0*76
$GLGSV,3,2,10,73,14,088,23,79,06,344,,80,22,033,09,86,26,174,,0*7B
$GLGSV,3,3,10,87,64,217,15,88,34,321,26,0*76
$GAGSV,1,1,00,0*74
$GNGLL,5552.32015,N,03800.08507,E,132532.00,A,A*70

$GNRMC,132533.00,A,5552.32038,N,03800.08491,E,0.188,,120625,,,A,V*10
$GNVTG,,T,,M,0.188,N,0.347,K,A*3C

$GNGGA,132533.00,5552.32038,N,03800.08491,E,1,08,1.18,157.4,M,12.9,M,,*48
$GNGSA,A,3,01,02,32,31,,,,,,,,,2.46,1.18,2.16,1*0C
$GNGSA,A,3,87,71,88,80,,,,,,,,,2.46,1.18,2.16,2*0E
$GNGSA,A,3,,,,,,,,,,,,,2.46,1.18,2.16,3*0E
$GPGSV,4,1,13,01,70,247,12,02,55,184,17,03,49,275,08,04,10,220,,0*6C
$GPGSV,4,2,13,08,00,204,,10,09,094,07,12,05,031,,17,28,304,,0*62
$GPGSV,4,3,13,19,15,330,,25,01,061,,28,37,109,15,31,24,139,26,0*64
$GPGSV,4,4,13,32,39,061,16,0*5C
$GLGSV,3,1,10,65,12,242,,70,08,059,,71,54,051,16,72,69,252,,0*76
$GLGSV,3,2,10,73,14,088,22,79,06,344,,80,22,033,11,86,26,174,,0*73
$GLGSV,3,3,10,87,64,217,16,88,34,321,26,0*75
$GAGSV,1,1,00,0*74
$GNGLL,5552.32038,N,03800.08491,E,132533.00,A,A*70

$GNRMC,132534.00,A,5552.32064,N,03800.08486,E,0.270,,120625,,,A,V*1C

$GNVTG,,T,,M,0.270,N,0.499,K,A*3C
$GNGGA,132534.00,5552.32064,N,03800.08486,E,1,07,1.20,157.6,M,12.9,M,,*46
$GNGSA,A,3,01,02,32,31,,,,,,,,,2.52,1.20,2.22,1*05
$GNGSA,A,3,71,88,80,,,,,,,,,,2.52,1.20,2.22,2*08
$GNGSA,A,3,,,,,,,,,,,,,2.52,1.20,2.22,3*07
$GPGSV,4,1,13,01,70,247,13,02,54,184,16,03,49,275,08,04,10,220,,0*6D
$GPGSV,4,2,13,08,00,204,,10,09,094,07,12,05,031,,17,28,304,,0*62
$GPGSV,4,3,13,19,15,330,,25,01,061,,28,37,109,13,31,24,139,26,0*62
$GPGSV,4,4,13,32,39,061,16,0*5C
$GLGSV,3,1,10,65,12,242,,70,08,059,,71,54,051,17,72,69,252,18,0*7E
$GLGSV,3,2,10,73,14,088,21,79,06,344,,80,22,033,14,86,26,174,,0*75
$GLGSV,3,3,10,87,64,217,,88,34,321,26,0*72
$GAGSV,1,1,00,0*74
$GNGLL,5552.32064,N,03800.08486,E,132534.00,A,A*78

$GNRMC,132535.00,A,5552.32098,N,03800.08499,E,0.502,,120625,,,A,V*12
$GNVTG,,T,,M,0.502,N,0.930,K,A*30
$GNGGA,132535.00,5552.32098,N,03800.08499,E,1,07,1.20,157.2,M,12.9,M,,*4E
$GNGSA,A,3,01,02,32,31,,,,,,,,,2.52,1.20,2.22,1*05

$GNGSA,A,3,71,88,80,,,,,,,,,,2.52,1.20,2.22,2*08
$GNGSA,A,3,,,,,,,,,,,,,2.52,1.20,2.22,3*07
$GPGSV,4,1,13,01,70,247,13,02,54,184,15,03,50,276,08,04,10,220,,0*65
$GPGSV,4,2,13,08,00,204,,10,09,094,07,12,05,031,,17,28,304,,0*62
$GPGSV,4,3,13,19,15,330,,25,01,061,,28,37,109,13,31,24,139,26,0*62
$GPGSV,4,4,13,32,39,061,16,0*5C
$GLGSV,3,1,10,65,12,242,,70,08,059,,71,54,051,18,72,69,252,18,0*71
$GLGSV,3,2,10,73,14,088,20,79,06,344,,80,22,033,16,86,26,174,,0*76
$GLGSV,3,3,10,87,64,217,,88,34,321,25,0*71
$GAGSV,1,1,00,0*74
$GNGLL,5552.32098,N,03800.08499,E,132535.00,A,A*74

$GNRMC,132536.00,A,5552.32121,N,03800.08511,E,0.577,,120625,,,A,V*11
$GNVTG,,T,,M,0.577,N,1.068,K,A*37
$GNGGA,132536.00,5552.32121,N,03800.08511,E,1,07,1.20,157.1,M,12.9,M,,*4C
$GNGSA,A,3,01,02,32,31,,,,,,,,,2.52,1.20,2.22,1*05
$GNGSA,A,3,71,88,80,,,,,,,,,,2.52,1.20,2.22,2*08

$GNGSA,A,3,,,,,,,,,,,,,2.52,1.20,2.22,3*07
$GPGSV,4,1,13,01,70,247,14,02,54,184,15,03,50,276,08,04,10,220,,0*62
$GPGSV,4,2,13,08,00,204,,10,09,094,07,12,05,031,,17,28,304,23,0*63
$GPGSV,4,3,13,19,15,330,07,25,01,061,,28,37,109,14,31,24,139,25,0*61
$GPGSV,4,4,13,32,39,061,16,0*5C
$GLGSV,3,1,10,65,12,242,,70,08,059,,71,54,051,19,72,69,252,17,0*7F
$GLGSV,3,2,10,73,14,088,19,79,06,344,,80,22,033,17,86,26,174,,0*7D
$GLGSV,3,3,10,87,64,217,,88,34,321,24,0*70
$GAGSV,1,1,00,0*74
$GNGLL,5552.32121,N,03800.08511,E,132536.00,A,A*75

$GNRMC,132537.00,A,5552.32184,N,03800.08513,E,0.985,,120625,,,A,V*1C
$GNVTG,,T,,M,0.985,N,1.825,K,A*37

$GNGGA,132537.00,5552.32184,N,03800.08513,E,1,08,1.08,156.1,M,12.9,M,,*44
$GNGSA,A,3,01,02,32,03,31,,,,,,,,2.46,1.08,2.21,1*0A
$GNGSA,A,3,71,88,80,,,,,,,,,,2.46,1.08,2.21,2*04
$GNGSA,A,3,,,,,,,,,,,,,2.46,1.08,2.21,3*0B
$GPGSV,4,1,13,01,70,247,14,02,54,184,13,03,50,276,19,04,10,220,,0*64
$GPGSV,4,2,13,08,00,204,,10,09,094,07,12,05,031,,17,28,304,20,0*60
$GPGSV,4,3,13,19,15,330,18,25,01,061,,28,37,109,16,31,24,139,23,0*6B
$GPGSV,4,4,13,32,39,061,20,0*59
$GLGSV,3,1,10,65,12,242,,70,08,059,,71,54,051,18,72,69,252,15,0*7C
$GLGSV,3,2,10,73,14,088,17,79,06,344,,80,22,033,15,86,26,174,,0*71
$GLGSV,3,3,10,87,64,217,,88,34,321,21,0*75
$GAGSV,1,1,00,0*74
$GNGLL,5552.32184,N,03800.08513,E,132537.00,A,A*79

$GNRMC,132538.00,A,5552.32255,N,03800.08589,E,1.351,,120625,,,A,V*1D
$GNVTG,,T,,M,1.351,N,2.502,K,A*3E

$GNGGA,132538.00,5552.32255,N,03800.08589,E,1,08,1.09,155.6,M,12.9,M,,*42
$GNGSA,A,3,01,02,32,03,31,,,,,,,,2.46,1.09,2.21,1*0B
$GNGSA,A,3,71,88,80,,,,,,,,,,2.46,1.09,2.21,2*05
$GNGSA,A,3,,,,,,,,,,,,,2.46,1.09,2.21,3*0A
$GPGSV,4,1,13,01,70,247,14,02,54,184,13,03,50,276,25,04,10,220,,0*6B
$GPGSV,4,2,13,08,00,204,,10,09,094,07,12,05,031,,17,28,304,19,0*6A
$GPGSV,4,3,13,19,15,330,18,25,01,061,,28,37,109,15,31,24,139,22,0*69
$GPGSV,4,4,13,32,39,061,15,0*5F
$GLGSV,3,1,10,65,12,242,,70,08,059,,71,54,051,17,72,69,252,14,0*72
$GLGSV,3,2,10,73,14,088,16,79,06,344,,80,22,033,16,86,26,174,,0*73
$GLGSV,3,3,10,87,64,217,,88,34,321,19,0*7E
$GAGSV,1,1,00,0*74
$GNGLL,5552.32255,N,03800.08589,E,132538.00,A,A*7A

$GNRMC,132539.00,A,5552.32274,N,03800.08508,E,0.954,,120625,,,A,V*18
$GNVTG,,T,,M,0.954,N,1.768,K,A*3D

$GNGGA,132539.00,5552.32274,N,03800.08508,E,1,09,1.08,155.5,M,12.9,M,,*4A
$GNGSA,A,3,01,02,32,03,31,,,,,,,,2.36,1.08,2.09,1*07
$GNGSA,A,3,72,71,88,80,,,,,,,,,2.36,1.08,2.09,2*0C
$GNGSA,A,3,,,,,,,,,,,,,2.36,1.08,2.09,3*06
$GPGSV,4,1,13,01,70,247,14,02,54,184,12,03,50,276,22,04,10,220,,0*6D
$GPGSV,4,2,13,08,00,204,,10,09,094,07,12,05,031,,17,28,304,17,0*64
$GPGSV,4,3,13,19,15,330,19,25,01,061,,28,37,109,14,31,24,139,21,0*6A
$GPGSV,4,4,13,32,39,061,15,0*5F
$GLGSV,3,1,10,65,12,242,,70,08,059,,71,54,051,15,72,69,252,17,0*73
$GLGSV,3,2,10,73,14,088,14,79,06,344,,80,22,033,15,86,26,174,,0*72
$GLGSV,3,3,10,87,64,217,,88,34,321,21,0*75
$GAGSV,1,1,00,0*74
$GNGLL,5552.32274,N,03800.08508,E,132539.00,A,A*71

$GNRMC,132540.00,A,5552.32248,N,03800.08386,E,0.950,,120625,,,A,V*1D
$GNVTG,,T,,M,0.950,N,1.759,K,A*3B
$GNGGA,132540.00,5552.32248,N,03800.08386,E,1,10,0.97,155.1,M,12.9,M,,*40
$GNGSA,A,3,01,02,32,17,03,31,,,,,,,2.05,0.97,1.80,1*04
$GNGSA,A,3,72,71,88,80,,,,,,,,,2.05,0.97,1.80,2*09
$GNGSA,A,3,,,,,,,,,,,,,2.05,0.97,1.80,3*03

$GPGSV,3,1,12,01,70,247,14,02,54,184,11,03,50,276,20,04,10,220,,0*6A
$GPGSV,3,2,12,10,09,094,,12,05,031,,17,28,304,16,19,15,330,17,0*60
$GPGSV,3,3,12,25,01,061,,28,37,109,13,31,24,139,20,32,39,061,12,0*61
$GLGSV,3,1,10,65,12,242,,70,08,059,,71,54,051,10,72,69,252,16,0*77
$GLGSV,3,2,10,73,14,088,14,79,06,344,,80,22,033,15,86,26,174,,0*72
$GLGSV,3,3,10,87,64,217,,88,34,321,21,0*75
$GAGSV,1,1,00,0*74
$GNGLL,5552.32248,N,03800.08386,E,132540.00,A,A*70

$GNRMC,132541.00,A,5552.32169,N,03800.08191,E,2.115,,120625,,,A,V*13
$GNVTG,,T,,M,2.115,N,3.917,K,A*36

$GNGGA,132541.00,5552.32169,N,03800.08191,E,1,09,1.09,154.9,M,12.9,M,,*42
$GNGSA,A,3,01,02,32,17,03,31,,,,,,,2.33,1.09,2.06,1*0A
$GNGSA,A,3,72,88,80,,,,,,,,,,2.33,1.09,2.06,2*01
$GNGSA,A,3,,,,,,,,,,,,,2.33,1.09,2.06,3*0D
$GPGSV,3,1,12,01,70,247,14,02,54,184,12,03,50,276,17,04,10,220,,0*6D
$GPGSV,3,2,12,10,09,094,,12,05,031,,17,28,304,16,19,15,330,16,0*61
$GPGSV,3,3,12,25,01,061,,28,37,109,11,31,24,139,22,32,39,061,12,0*61
$GLGSV,3,1,10,65,12,242,,70,08,059,,71,54,051,08,72,69,252,15,0*7D
$GLGSV,3,2,10,73,14,088,13,79,06,344,,80,22,033,13,86,26,174,,0*73
$GLGSV,3,3,10,87,64,217,,88,34,321,19,0*7E
$GAGSV,1,1,00,0*74
$GNGLL,5552.32169,N,03800.08191,E,132541.00,A,A*75

$GNRMC,132542.00,A,5552.32043,N,03800.08169,E,2.663,,120625,,,A,V*18
$GNVTG,,T,,M,2.663,N,4.931,K,A*33

$GNGGA,132542.00,5552.32043,N,03800.08169,E,1,08,1.37,154.4,M,12.9,M,,*4E
$GNGSA,A,3,01,02,17,03,31,,,,,,,,2.69,1.37,2.32,1*0E
$GNGSA,A,3,72,88,80,,,,,,,,,,2.69,1.37,2.32,2*04
$GNGSA,A,3,,,,,,,,,,,,,2.69,1.37,2.32,3*08
$GPGSV,3,1,12,01,70,247,14,02,54,184,13,03,50,276,16,04,10,220,,0*6D
$GPGSV,3,2,12,10,09,094,,12,05,031,,17,28,304,15,19,15,330,16,0*62
$GPGSV,3,3,12,25,01,061,,28,37,109,09,31,24,139,19,32,39,061,10,0*62
$GLGSV,3,1,10,65,12,242,,70,08,059,,71,54,051,07,72,69,252,17,0*70
$GLGSV,3,2,10,73,14,088,13,79,06,344,,80,22,033,12,86,26,174,,0*72
$GLGSV,3,3,10,87,64,217,,88,34,321,15,0*72
$GAGSV,1,1,00,0*74
$GNGLL,5552.32043,N,03800.08169,E,132542.00,A,A*78

$GNRMC,132543.00,A,5552.32030,N,03800.08164,E,2.293,,120625,,,A,V*1B
$GNVTG,,T,,M,2.293,N,4.247,K,A*32

$GNGGA,132543.00,5552.32030,N,03800.08164,E,1,10,0.97,153.9,M,12.9,M,,*4E
$GNGSA,A,3,01,02,32,17,03,31,,,,,,,2.05,0.97,1.80,1*04
$GNGSA,A,3,72,71,88,80,,,,,,,,,2.05,0.97,1.80,2*09
$GNGSA,A,3,,,,,,,,,,,,,2.05,0.97,1.80,3*03
$GPGSV,3,1,12,01,70,247,14,02,54,184,12,03,50,276,12,04,10,220,,0*68
$GPGSV,3,2,12,10,09,094,,12,05,031,,17,28,304,13,19,15,330,13,0*61
$GPGSV,3,3,12,25,01,061,,28,37,109,08,31,24,139,18,32,39,061,09,0*6A
$GLGSV,3,1,10,65,12,242,,70,08,059,,71,54,051,08,72,69,252,15,0*7D
$GLGSV,3,2,10,73,14,088,10,79,06,344,,80,22,033,09,86,26,174,,0*7B
$GLGSV,3,3,10,87,64,217,,88,34,321,11,0*76
$GAGSV,1,1,00,0*74
$GNGLL,5552.32030,N,03800.08164,E,132543.00,A,A*70

$GNRMC,132544.00,A,5552.31994,N,03800.08117,E,2.157,,120625,,,A,V*17
$GNVTG,,T,,M,2.157,N,3.996,K,A*39

$GNGGA,132544.00,5552.31994,N,03800.08117,E,1,08,1.29,153.8,M,12.9,M,,*45
$GNGSA,A,3,01,02,17,03,31,,,,,,,,2.29,1.29,1.89,1*06
$GNGSA,A,3,72,71,88,,,,,,,,,,2.29,1.29,1.89,2*02
$GNGSA,A,3,,,,,,,,,,,,,2.29,1.29,1.89,3*00
$GPGSV,3,1,12,01,70,247,14,02,54,184,19,03,50,276,16,04,10,220,,0*67
$GPGSV,3,2,12,10,09,094,,12,05,030,,17,28,304,13,19,15,330,15,0*66
$GPGSV,3,3,12,25,01,061,,28,37,109,,31,24,139,20,32,39,061,07,0*67
$GLGSV,3,1,10,65,12,242,,70,08,059,,71,54,051,09,72,69,252,18,0*71
$GLGSV,3,2,10,73,14,088,,79,06,344,,80,22,033,09,86,26,174,,0*7A
$GLGSV,3,3,10,87,64,217,,88,34,321,11,0*76
$GAGSV,1,1,00,0*74
$GNGLL,5552.31994,N,03800.08117,E,132544.00,A,A*77

$GNRMC,132545.00,A,5552.31984,N,03800.08189,E,1.570,,120625,,,A,V*12
$GNVTG,,T,,M,1.570,N,2.908,K,A*3D

$GNGGA,132545.00,5552.31984,N,03800.08189,E,1,09,1.07,153.7,M,12.9,M,,*40
$GNGSA,A,3,01,02,17,03,31,,,,,,,,2.12,1.07,1.84,1*0F
$GNGSA,A,3,72,71,88,80,,,,,,,,,2.12,1.07,1.84,2*03
$GNGSA,A,3,,,,,,,,,,,,,2.12,1.07,1.84,3*09
$GPGSV,3,1,12,01,70,247,14,02,54,184,21,03,50,276,17,04,10,220,,0*6D
$GPGSV,3,2,12,10,09,094,07,12,05,030,,17,28,304,16,19,15,330,15,0*64
$GPGSV,3,3,12,25,01,061,,28,37,109,,31,24,139,22,32,39,061,06,0*64
$GLGSV,3,1,10,65,12,242,,70,08,059,,71,54,051,16,72,69,252,18,0*7F
$GLGSV,3,2,10,73,14,088,,79,06,344,,80,22,033,16,86,26,174,,0*74
$GLGSV,3,3,10,87,64,217,26,88,34,321,11,0*72
$GAGSV,1,1,00,0*74
$GNGLL,5552.31984,N,03800.08189,E,132545.00,A,A*70

$GNRMC,132546.00,A,5552.32006,N,03800.08163,E,1.110,,120625,,,A,V*17
$GNVTG,,T,,M,1.110,N,2.056,K,A*3D
$GNGGA,132546.00,5552.32006,N,03800.08163,E,1,09,1.07,152.6,M,12.9,M,,*47

$GNGSA,A,3,01,02,17,03,31,,,,,,,,2.12,1.07,1.84,1*0F
$GNGSA,A,3,72,71,88,80,,,,,,,,,2.12,1.07,1.84,2*03
$GNGSA,A,3,,,,,,,,,,,,,2.12,1.07,1.84,3*09
$GPGSV,3,1,12,01,70,247,14,02,54,184,20,03,50,276,14,04,10,220,,0*6F
$GPGSV,3,2,12,10,09,094,08,12,05,030,,17,28,304,16,19,15,330,18,0*66
$GPGSV,3,3,12,25,01,061,,28,37,109,,31,24,139,22,32,39,061,06,0*64
$GLGSV,3,1,10,65,12,242,,70,08,059,,71,54,051,16,72,69,252,19,0*7E
$GLGSV,3,2,10,73,14,088,,79,06,344,,80,22,033,16,86,26,174,,0*74
$GLGSV,3,3,10,87,64,217,23,88,34,321,11,0*77
$GAGSV,1,1,00,0*74
$GNGLL,5552.32006,N,03800.08163,E,132546.00,A,A*77

$GNRMC,132547.00,A,5552.32030,N,03800.08125,E,0.780,,120625,,,A,V*1F
$GNVTG,,T,,M,0.780,N,1.444,K,A*37
$GNGGA,132547.00,5552.32030,N,03800.08125,E,1,09,1.07,152.2,M,12.9,M,,*45
$GNGSA,A,3,01,02,17,03,31,,,,,,,,2.12,1.07,1.84,1*0F
$GNGSA,A,3,72,71,88,80,,,,,,,,,2.12,1.07,1.84,2*03
$GNGSA,A,3,,,,,,,,,,,,,2.12,1.07,1.84,3*09

$GPGSV,3,1,12,01,70,247,14,02,54,184,20,03,50,276,10,04,10,220,,0*6B
$GPGSV,3,2,12,10,09,094,10,12,05,030,,17,28,304,16,19,15,330,18,0*6F
$GPGSV,3,3,12,25,01,061,,28,37,109,,31,24,139,23,32,39,061,06,0*65
$GLGSV,3,1,10,65,12,242,,70,08,059,,71,54,051,16,72,69,252,18,0*7F
$GLGSV,3,2,10,73,14,088,,79,06,344,,80,22,033,16,86,26,174,,0*74
$GLGSV,3,3,10,87,64,217,21,88,34,321,11,0*75
$GAGSV,1,1,00,0*74
$GNGLL,5552.32030,N,03800.08125,E,132547.00,A,A*71

$GNRMC,132548.00,A,5552.32023,N,03800.08271,E,0.811,,120625,,,A,V*17
$GNVTG,,T,,M,0.811,N,1.501,K,A*30

$GNGGA,132548.00,5552.32023,N,03800.08271,E,1,11,1.02,151.4,M,12.9,M,,*43
$GNGSA,A,3,01,02,17,03,10,31,,,,,,,1.89,1.02,1.59,1*0A
$GNGSA,A,3,72,87,71,88,80,,,,,,,,1.89,1.02,1.59,2*08
$GNGSA,A,3,,,,,,,,,,,,,1.89,1.02,1.59,3*0D
$GPGSV,3,1,12,01,70,247,14,02,54,184,18,03,50,276,11,04,10,220,,0*61
$GPGSV,3,2,12,10,09,094,08,12,05,030,,17,28,304,15,19,15,330,17,0*6A
$GPGSV,3,3,12,25,01,061,,28,37,109,,31,24,139,22,32,39,061,06,0*64
$GLGSV,3,1,10,65,12,242,,70,08,059,,71,54,051,16,72,69,252,17,0*70
$GLGSV,3,2,10,73,14,088,,79,06,344,,80,22,033,16,86,26,174,,0*74
$GLGSV,3,3,10,87,64,217,20,88,34,321,11,0*74
$GAGSV,1,1,00,0*74
$GNGLL,5552.32023,N,03800.08271,E,132548.00,A,A*7E

$GNRMC,132549.00,A,5552.32090,N,03800.08389,E,0.628,,120625,,,A,V*1C
$GNVTG,,T,,M,0.628,N,1.162,K,A*35

$GNGGA,132549.00,5552.32090,N,03800.08389,E,1,11,0.93,151.0,M,12.9,M,,*41
$GNGSA,A,3,02,32,17,03,10,31,,,,,,,1.82,0.93,1.56,1*07
$GNGSA,A,3,72,87,71,88,80,,,,,,,,1.82,0.93,1.56,2*05
$GNGSA,A,3,,,,,,,,,,,,,1.82,0.93,1.56,3*00
$GPGSV,3,1,12,01,70,247,,02,54,184,16,03,50,276,13,04,10,220,,0*68
$GPGSV,3,2,12,10,09,094,08,12,05,030,,17,28,303,13,19,15,330,16,0*6A
$GPGSV,3,3,12,25,01,061,,28,37,109,,31,24,139,22,32,39,061,11,0*62
$GLGSV,3,1,10,65,12,242,,70,08,059,,71,54,051,18,72,69,252,18,0*71
$GLGSV,3,2,10,73,14,088,,79,06,344,,80,22,033,12,86,26,174,,0*70
$GLGSV,3,3,10,87,64,217,20,88,34,321,14,0*71
$GAGSV,1,1,00,0*74
$GNGLL,5552.32090,N,03800.08389,E,132549.00,A,A*71

$GNRMC,132550.00,A,5552.32120,N,03800.08421,E,0.403,,120625,,,A,V*10
$GNVTG,,T,,M,0.403,N,0.746,K,A*3F

$GNGGA,132550.00,5552.32120,N,03800.08421,E,1,11,0.93,150.7,M,12.9,M,,*40
$GNGSA,A,3,02,32,17,03,10,31,,,,,,,1.82,0.93,1.56,1*07
$GNGSA,A,3,72,87,71,88,80,,,,,,,,1.82,0.93,1.56,2*05
$GNGSA,A,3,,,,,,,,,,,,,1.82,0.93,1.56,3*00
$GPGSV,3,1,12,01,70,247,,02,54,184,17,03,50,276,16,04,10,220,,0*6C
$GPGSV,3,2,12,10,09,094,10,12,05,030,,17,28,303,10,19,15,330,14,0*62
$GPGSV,3,3,12,25,01,061,,28,37,109,,31,24,139,21,32,39,061,11,0*61

$GLGSV,3,1,10,65,12,242,,70,08,059,,71,54,051,20,72,69,252,18,0*7A
$GLGSV,3,2,10,73,14,088,,79,06,344,,80,22,033,12,86,26,174,,0*70
$GLGSV,3,3,10,87,64,217,20,88,34,321,19,0*7C
$GAGSV,1,1,00,0*74
$GNGLL,5552.32120,N,03800.08421,E,132550.00,A,A*76

$GNRMC,132551.00,A,5552.32128,N,03800.08492,E,0.723,,120625,,,A,V*10
$GNVTG,,T,,M,0.723,N,1.338,K,A*32

$GNGGA,132551.00,5552.32128,N,03800.08492,E,1,11,0.93,150.3,M,12.9,M,,*45
$GNGSA,A,3,02,32,17,03,10,31,,,,,,,1.82,0.93,1.56,1*07
$GNGSA,A,3,72,87,71,88,80,,,,,,,,1.82,0.93,1.56,2*05
$GNGSA,A,3,,,,,,,,,,,,,1.82,0.93,1.56,3*00
$GPGSV,3,1,12,01,70,247,,02,54,184,14,03,50,276,13,04,10,220,,0*6A
$GPGSV,3,2,12,10,09,094,12,12,05,030,,17,28,303,13,19,15,329,11,0*6E
$GPGSV,3,3,12,25,01,061,,28,37,109,,31,24,139,21,32,39,061,11,0*61
$GLGSV,3,1,10,65,12,242,,70,08,059,,71,54,051,18,72,69,252,17,0*7E
$GLGSV,3,2,10,73,14,088,,79,06,344,,80,22,033,18,86,26,174,,0*7A
$GLGSV,3,3,10,87,64,217,22,88,34,321,23,0*77
$GAGSV,1,1,00,0*74
$GNGLL,5552.32128,N,03800.08492,E,132551.00,A,A*77

$GNRMC,132552.00,A,5552.32116,N,03800.08578,E,1.108,,120625,,,A,V*15
$GNVTG,,T,,M,1.108,N,2.051,K,A*33

$GNGGA,132552.00,5552.32116,N,03800.08578,E,1,10,0.96,150.2,M,12.9,M,,*4B
$GNGSA,A,3,02,32,17,03,31,,,,,,,,2.11,0.96,1.87,1*06
$GNGSA,A,3,72,87,71,88,80,,,,,,,,2.11,0.96,1.87,2*05
$GNGSA,A,3,,,,,,,,,,,,,2.11,0.96,1.87,3*00
$GPGSV,3,1,12,01,70,247,23,02,54,184,13,03,50,276,09,04,10,220,,0*67
$GPGSV,3,2,12,10,09,094,13,12,05,030,,17,28,303,13,19,15,329,12,0*6C
$GPGSV,3,3,12,25,01,061,,28,37,109,,31,24,139,20,32,39,061,11,0*60
$GLGSV,3,1,10,65,12,242,,70,08,059,,71,54,051,20,72,69,252,18,0*7A
$GLGSV,3,2,10,73,14,088,,79,06,344,,80,22,033,18,86,26,174,,0*7A
$GLGSV,3,3,10,87,64,217,23,88,34,321,21,0*74
$GAGSV,1,1,00,0*74
$GNGLL,5552.32116,N,03800.08578,E,132552.00,A,A*7C

$GNRMC,132553.00,A,5552.32072,N,03800.08630,E,1.441,,120625,,,A,V*10
$GNVTG,,T,,M,1.441,N,2.669,K,A*36

$GNGGA,132553.00,5552.32072,N,03800.08630,E,1,10,0.96,150.1,M,12.9,M,,*45
$GNGSA,A,3,02,32,17,03,31,,,,,,,,2.11,0.96,1.87,1*06
$GNGSA,A,3,72,87,71,88,80,,,,,,,,2.11,0.96,1.87,2*05
$GNGSA,A,3,,,,,,,,,,,,,2.11,0.96,1.87,3*00
$GPGSV,3,1,12,01,70,247,24,02,54,184,12,03,50,276,08,04,10,220,,0*60
$GPGSV,3,2,12,10,09,094,15,12,05,030,,17,28,303,13,19,15,329,15,0*6D
$GPGSV,3,3,12,25,01,061,,28,37,109,,31,24,139,20,32,39,061,12,0*63
$GLGSV,3,1,10,65,12,242,,70,08,059,,71,54,051,20,72,69,252,23,0*72
$GLGSV,3,2,10,73,14,088,,79,06,344,,80,22,033,18,86,26,174,,0*7A
$GLGSV,3,3,10,87,64,217,23,88,34,321,21,0*74
$GAGSV,1,1,00,0*74
$GNGLL,5552.32072,N,03800.08630,E,132553.00,A,A*71

$GNRMC,132554.00,A,5552.32071,N,03800.08650,E,0.961,,120625,,,A,V*1C
$GNVTG,,T,,M,0.961,N,1.781,K,A*3C

$GNGGA,132554.00,5552.32071,N,03800.08650,E,1,11,1.06,148.6,M,12.9,M,,*40
$GNGSA,A,3,01,02,32,17,03,10,,,,,,,1.96,1.06,1.65,1*0C
$GNGSA,A,3,72,87,71,88,80,,,,,,,,1.96,1.06,1.65,2*0D
$GNGSA,A,3,,,,,,,,,,,,,1.96,1.06,1.65,3*08
$GPGSV,3,1,12,01,70,247,25,02,54,184,13,03,50,276,11,04,10,220,,0*68
$GPGSV,3,2,12,10,09,094,15,12,05,030,,17,28,303,13,19,15,329,15,0*6D
$GPGSV,3,3,12,25,01,061,,28,37,109,,31,24,139,,32,39,061,12,0*61
$GLGSV,3,1,10,65,12,242,,70,08,059,,71,54,051,18,72,69,252,22,0*78
$GLGSV,3,2,10,73,14,088,,79,06,344,,80,22,033,18,86,26,174,,0*7A
$GLGSV,3,3,10,87,64,217,22,88,34,321,18,0*7F
$GAGSV,1,1,00,0*74
$GNGLL,5552.32071,N,03800.08650,E,132554.00,A,A*73

$GNRMC,132555.00,A,5552.32072,N,03800.08730,E,1.018,,120625,,,A,V*1F
$GNVTG,,T,,M,1.018,N,1.885,K,A*31
$GNGGA,132555.00,5552.32072,N,03800.08730,E,1,11,1.06,148.0,M,12.9,M,,*43
$GNGSA,A,3,01,02,32,17,03,10,,,,,,,1.96,1.06,1.65,1*0C
$GNGSA,A,3,72,87,71,88,80,,,,,,,,1.96,1.06,1.65,2*0D
$GNGSA,A,3,,,,,,,,,,,,,1.96,1.06,1.65,3*08

$GPGSV,3,1,12,01,70,247,25,02,54,184,13,03,50,276,14,04,10,220,,0*6D
$GPGSV,3,2,12,10,09,094,14,12,05,030,,17,28,303,13,19,15,329,14,0*6D
$GPGSV,3,3,12,25,01,061,,28,37,109,,31,24,139,20,32,39,061,19,0*68
$GLGSV,3,1,10,65,12,242,,70,08,059,,71,54,051,15,72,69,252,21,0*76
$GLGSV,3,2,10,73,14,088,,79,06,344,,80,22,033,16,86,26,174,,0*74
$GLGSV,3,3,10,87,64,217,23,88,34,321,17,0*71
$GAGSV,1,1,00,0*74
$GNGLL,5552.32072,N,03800.08730,E,132555.00,A,A*76

$GNRMC,132556.00,A,5552.32107,N,03800.09005,E,2.071,,120625,,,A,V*13
$GNVTG,,T,,M,2.071,N,3.835,K,A*34

$GNGGA,132556.00,5552.32107,N,03800.09005,E,1,11,1.06,147.5,M,12.9,M,,*49
$GNGSA,A,3,01,02,32,17,03,10,,,,,,,1.96,1.06,1.65,1*0C
$GNGSA,A,3,72,87,71,88,80,,,,,,,,1.96,1.06,1.65,2*0D
$GNGSA,A,3,,,,,,,,,,,,,1.96,1.06,1.65,3*08
$GPGSV,3,1,12,01,70,247,24,02,54,184,16,03,50,276,20,04,10,220,,0*6E
$GPGSV,3,2,12,10,09,094,12,12,05,030,,17,28,303,11,19,15,329,14,0*69
$GPGSV,3,3,12,25,01,061,,28,37,109,,31,24,139,22,32,39,061,16,0*65
$GLGSV,3,1,10,65,12,242,,70,08,059,,71,54,051,14,72,69,252,20,0*76

$GLGSV,3,2,10,73,14,088,,79,06,344,,80,22,033,16,86,26,174,,0*74
$GLGSV,3,3,10,87,64,217,22,88,34,321,17,0*70
$GAGSV,1,1,00,0*74
$GNGLL,5552.32107,N,03800.09005,E,132556.00,A,A*76

$GNRMC,132557.00,A,5552.32060,N,03800.09145,E,2.359,,120625,,,A,V*1E
$GNVTG,,T,,M,2.359,N,4.368,K,A*39
$GNGGA,132557.00,5552.32060,N,03800.09145,E,1,12,0.93,146.8,M,12.9,M,,*4F

$GNGSA,A,3,01,02,32,17,03,10,31,,,,,,1.77,0.93,1.50,1*0A
$GNGSA,A,3,72,87,71,88,80,,,,,,,,1.77,0.93,1.50,2*09
$GNGSA,A,3,,,,,,,,,,,,,1.77,0.93,1.50,3*0C
$GPGSV,3,1,12,01,70,247,25,02,54,184,19,03,50,276,14,04,10,220,,0*67
$GPGSV,3,2,12,10,09,094,09,12,05,030,,17,28,303,09,19,15,329,14,0*6A
$GPGSV,3,3,12,25,01,060,,28,37,109,,31,24,139,22,32,39,061,19,0*6B
$GLGSV,3,1,10,65,12,242,,70,08,059,,71,54,051,13,72,69,252,21,0*70
$GLGSV,3,2,10,73,14,088,,79,06,344,,80,22,033,17,86,26,174,,0*75
$GLGSV,3,3,10,87,64,217,22,88,34,321,18,0*7F
$GAGSV,1,1,00,0*74
$GNGLL,5552.32060,N,03800.09145,E,132557.00,A,A*72

$GNRMC,132558.00,A,5552.32063,N,03800.09207,E,1.989,,120625,,,A,V*13
$GNVTG,,T,,M,1.989,N,3.683,K,A*3A

$GNGGA,132558.00,5552.32063,N,03800.09207,E,1,11,0.96,146.3,M,12.9,M,,*4B
$GNGSA,A,3,01,02,32,17,03,31,,,,,,,2.01,0.96,1.77,1*09
$GNGSA,A,3,72,87,71,88,80,,,,,,,,2.01,0.96,1.77,2*0B
$GNGSA,A,3,,,,,,,,,,,,,2.01,0.96,1.77,3*0E
$GPGSV,3,1,12,01,70,247,25,02,54,184,17,03,50,276,10,04,10,220,,0*6D
$GPGSV,3,2,12,10,09,094,08,12,05,030,,17,28,303,09,19,15,329,13,0*6C
$GPGSV,3,3,12,25,01,060,,28,37,109,,31,24,139,20,32,39,061,22,0*61
$GLGSV,3,1,10,65,12,242,,70,08,059,,71,54,051,18,72,69,252,23,0*79
$GLGSV,3,2,10,73,14,088,,79,06,344,,80,22,033,17,86,26,174,,0*75
$GLGSV,3,3,10,87,64,217,21,88,34,321,28,0*7F
$GAGSV,1,1,00,0*74
$GNGLL,5552.32063,N,03800.09207,E,132558.00,A,A*7B

$GNRMC,132559.00,A,5552.32041,N,03800.09287,E,1.924,,120625,,,A,V*1D
$GNVTG,,T,,M,1.924,N,3.563,K,A*30

$GNGGA,132559.00,5552.32041,N,03800.09287,E,1,10,1.08,145.6,M,12.9,M,,*43
$GNGSA,A,3,01,02,32,03,31,,,,,,,,2.33,1.08,2.07,1*0C
$GNGSA,A,3,72,87,71,88,80,,,,,,,,2.33,1.08,2.07,2*08
$GNGSA,A,3,,,,,,,,,,,,,2.33,1.08,2.07,3*0D
$GPGSV,3,1,12,01,70,247,25,02,54,184,18,03,50,276,13,04,10,220,,0*61
$GPGSV,3,2,12,10,09,094,07,12,05,030,,17,28,303,09,19,15,329,14,0*64
$GPGSV,3,3,12,25,01,060,,28,37,109,,31,24,139,19,32,39,061,21,0*68
$GLGSV,3,1,10,65,12,242,,70,08,059,,71,54,051,19,72,69,252,23,0*78
$GLGSV,3,2,10,73,14,088,,79,06,344,,80,22,033,17,86,26,174,,0*75
$GLGSV,3,3,10,87,64,217,22,88,34,321,26,0*72
$GAGSV,1,1,00,0*74
$GNGLL,5552.32041,N,03800.09287,E,132559.00,A,A*72

$GNRMC,132600.00,A,5552.32072,N,03800.09376,E,1.833,,120625,,,A,V*1A
$GNVTG,,T,,M,1.833,N,3.394,K,A*39

$GNGGA,132600.00,5552.32072,N,03800.09376,E,1,11,0.96,145.1,M,12.9,M,,*43
$GNGSA,A,3,01,02,32,17,03,31,,,,,,,2.01,0.96,1.77,1*09
$GNGSA,A,3,72,87,71,88,80,,,,,,,,2.01,0.96,1.77,2*0B
$GNGSA,A,3,,,,,,,,,,,,,2.01,0.96,1.77,3*0E
$GPGSV,3,1,12,01,70,247,24,02,54,184,18,03,50,276,15,04,10,220,,0*66
$GPGSV,3,2,12,10,09,094,07,12,05,030,,17,28,303,10,19,15,329,13,0*6B
$GPGSV,3,3,12,25,01,060,,28,38,108,,31,24,139,18,32,39,061,22,0*64
$GLGSV,3,1,10,65,12,242,,70,08,059,,71,54,051,17,72,69,252,22,0*77
$GLGSV,3,2,10,73,14,088,,79,06,344,,80,22,033,17,86,26,174,,0*75
$GLGSV,3,3,10,87,64,217,21,88,34,321,24,0*73

$GAGSV,1,1,00,0*74
$GNGLL,5552.32072,N,03800.09376,E,132600.00,A,A*72

$GNRMC,132601.00,A,5552.32022,N,03800.09380,E,1.608,,120625,,,A,V*11
$GNVTG,,T,,M,1.608,N,2.978,K,A*36

$GNGGA,132601.00,5552.32022,N,03800.09380,E,1,10,1.03,144.4,M,12.9,M,,*46
$GNGSA,A,3,01,02,32,17,03,31,,,,,,,2.11,1.03,1.84,1*09
$GNGSA,A,3,72,87,71,88,,,,,,,,,2.11,1.03,1.84,2*03
$GNGSA,A,3,,,,,,,,,,,,,2.11,1.03,1.84,3*0E
$GPGSV,3,1,12,01,70,247,23,02,54,184,18,03,50,276,29,04,10,220,,0*6E
$GPGSV,3,2,12,10,09,094,07,12,05,030,,17,28,303,11,19,15,329,15,0*6C
$GPGSV,3,3,12,25,01,060,,28,38,108,,31,24,139,18,32,39,061,20,0*66
$GLGSV,3,1,10,65,12,242,,70,08,059,,71,54,051,16,72,69,252,22,0*76
$GLGSV,3,2,10,73,14,088,,79,06,344,,80,22,033,,86,26,174,,0*73
$GLGSV,3,3,10,87,64,217,18,88,34,321,21,0*7C
$GAGSV,1,1,00,0*74
$GNGLL,5552.32022,N,03800.09380,E,132601.00,A,A*7F

$GNRMC,132602.00,A,5552.32066,N,03800.09446,E,1.411,,120625,,,A,V*15
$GNVTG,,T,,M,1.411,N,2.613,K,A*3E
$GNGGA,132602.00,5552.32066,N,03800.09446,E,1,10,1.03,143.8,M,12.9,M,,*43
$GNGSA,A,3,01,02,32,17,03,31,,,,,,,2.11,1.03,1.84,1*09
$GNGSA,A,3,72,87,71,88,,,,,,,,,2.11,1.03,1.84,2*03
$GNGSA,A,3,,,,,,,,,,,,,2.11,1.03,1.84,3*0E

$GPGSV,3,1,12,01,70,247,20,02,54,184,19,03,50,276,26,04,10,220,,0*63
$GPGSV,3,2,12,10,09,094,07,12,05,030,,17,28,303,11,19,15,329,16,0*6F
$GPGSV,3,3,12,25,01,060,,28,38,108,,31,24,139,18,32,39,061,17,0*62
$GLGSV,3,1,10,65,12,242,,70,08,059,,71,54,051,13,72,69,252,22,0*73
$GLGSV,3,2,10,73,14,088,,79,06,344,,80,22,033,21,86,26,174,,0*70
$GLGSV,3,3,10,87,64,217,15,88,34,321,28,0*78
$GAGSV,1,1,00,0*74
$GNGLL,5552.32066,N,03800.09446,E,132602.00,A,A*71

$GNRMC,132603.00,A,5552.32045,N,03800.09501,E,1.177,,120625,,,A,V*12
$GNVTG,,T,,M,1.177,N,2.179,K,A*30

$GNGGA,132603.00,5552.32045,N,03800.09501,E,1,10,1.03,142.9,M,12.9,M,,*41
$GNGSA,A,3,01,02,32,17,03,31,,,,,,,2.11,1.03,1.84,1*09
$GNGSA,A,3,72,87,71,88,,,,,,,,,2.11,1.03,1.84,2*03
$GNGSA,A,3,,,,,,,,,,,,,2.11,1.03,1.84,3*0E
$GPGSV,3,1,12,01,70,247,16,02,54,184,20,03,50,276,25,04,10,220,,0*6F
$GPGSV,3,2,12,10,09,094,07,12,05,030,,17,28,303,11,19,15,329,17,0*6E
$GPGSV,3,3,12,25,01,060,,28,38,108,,31,24,139,20,32,39,061,18,0*66
$GLGSV,3,1,10,65,12,242,,70,08,059,,71,54,051,11,72,69,252,22,0*71
$GLGSV,3,2,10,73,14,088,,79,06,344,,80,22,033,24,86,26,174,22,0*75
$GLGSV,3,3,10,87,64,217,14,88,34,321,28,0*79
$GAGSV,1,1,00,0*74
$GNGLL,5552.32045,N,03800.09501,E,132603.00,A,A*73

$GNRMC,132604.00,A,5552.31981,N,03800.09551,E,1.109,,120625,,,A,V*1B
$GNVTG,,T,,M,1.109,N,2.055,K,A*36
$GNGGA,132604.00,5552.31981,N,03800.09551,E,1,10,1.03,142.6,M,12.9,M,,*4E
$GNGSA,A,3,01,02,32,17,03,31,,,,,,,2.11,1.03,1.84,1*09
$GNGSA,A,3,72,87,71,88,,,,,,,,,2.11,1.03,1.84,2*03
$GNGSA,A,3,,,,,,,,,,,,,2.11,1.03,1.84,3*0E

$GPGSV,3,1,12,01,70,247,17,02,54,184,20,03,50,276,27,04,10,220,,0*6C
$GPGSV,3,2,12,10,09,094,07,12,05,030,,17,28,303,11,19,15,329,17,0*6E
$GPGSV,3,3,12,25,01,060,,28,38,108,,31,24,139,20,32,39,061,19,0*67
$GLGSV,3,1,10,65,12,242,,70,08,059,,71,54,051,14,72,69,252,25,0*73
$GLGSV,3,2,10,73,14,088,,79,06,344,,80,22,033,22,86,26,174,20,0*71
$GLGSV,3,3,10,87,64,217,14,88,34,321,19,0*7B
$GAGSV,1,1,00,0*74
$GNGLL,5552.31981,N,03800.09551,E,132604.00,A,A*73

$GNRMC,132605.00,A,5552.31971,N,03800.09620,E,1.185,,120625,,,A,V*14
$GNVTG,,T,,M,1.185,N,2.195,K,A*3F

$GNGGA,132605.00,5552.31971,N,03800.09620,E,1,11,0.96,141.9,M,12.9,M,,*45
$GNGSA,A,3,01,02,32,17,03,31,,,,,,,2.02,0.96,1.77,1*0A
$GNGSA,A,3,72,87,71,88,80,,,,,,,,2.02,0.96,1.77,2*08
$GNGSA,A,3,,,,,,,,,,,,,2.02,0.96,1.77,3*0D
$GPGSV,3,1,12,01,70,247,21,02,54,184,18,03,50,276,26,04,10,220,,0*63
$GPGSV,3,2,12,10,09,094,07,12,05,030,,17,28,303,11,19,15,329,17,0*6E
$GPGSV,3,3,12,25,01,060,,28,38,108,,31,24,139,21,32,39,061,20,0*6C
$GLGSV,3,1,10,65,12,242,,70,08,059,,71,54,051,17,72,69,252,27,0*72
$GLGSV,3,2,10,73,14,088,,79,06,344,,80,22,033,18,86,26,174,18,0*73
$GLGSV,3,3,10,87,64,217,13,88,34,321,22,0*74
$GAGSV,1,1,00,0*74
$GNGLL,5552.31971,N,03800.09620,E,132605.00,A,A*78

$GNRMC,132606.00,A,5552.31972,N,03800.09721,E,1.462,,120625,,,A,V*18
$GNVTG,,T,,M,1.462,N,2.708,K,A*31

$GNGGA,132606.00,5552.31972,N,03800.09721,E,1,11,0.96,141.2,M,12.9,M,,*4E
$GNGSA,A,3,01,02,32,17,03,31,,,,,,,2.02,0.96,1.77,1*0A
$GNGSA,A,3,72,87,71,88,80,,,,,,,,2.02,0.96,1.77,2*08
$GNGSA,A,3,,,,,,,,,,,,,2.02,0.96,1.77,3*0D
$GPGSV,3,1,12,01,70,247,20,02,54,184,16,03,50,276,24,04,10,220,,0*6E
$GPGSV,3,2,12,10,09,094,07,12,05,030,,17,28,303,11,19,15,329,15,0*6C
$GPGSV,3,3,12,25,01,060,,28,38,108,,31,24,139,21,32,39,061,21,0*6D

$GLGSV,3,1,10,65,12,242,,70,08,059,,71,54,051,18,72,69,252,26,0*7C
$GLGSV,3,2,10,73,14,088,,79,06,344,,80,22,033,18,86,26,174,17,0*7C
$GLGSV,3,3,10,87,64,217,13,88,34,321,25,0*73
$GAGSV,1,1,00,0*74
$GNGLL,5552.31972,N,03800.09721,E,132606.00,A,A*78

$GNRMC,132607.00,A,5552.32042,N,03800.09800,E,1.421,,120625,,,A,V*1B
$GNVTG,,T,,M,1.421,N,2.631,K,A*3D

$GNGGA,132607.00,5552.32042,N,03800.09800,E,1,12,0.85,140.2,M,12.9,M,,*4A
$GNGSA,A,3,01,02,32,17,03,31,,,,,,,1.74,0.85,1.52,1*0D
$GNGSA,A,3,72,87,71,88,86,80,,,,,,,1.74,0.85,1.52,2*01
$GNGSA,A,3,,,,,,,,,,,,,1.74,0.85,1.52,3*0A
$GPGSV,3,1,12,01,70,247,21,02,54,184,10,03,50,276,25,04,10,220,,0*68
$GPGSV,3,2,12,10,09,094,07,12,05,030,,17,28,303,11,19,15,329,15,0*6C
$GPGSV,3,3,12,25,01,060,,28,38,108,,31,24,139,22,32,39,061,21,0*6E
$GLGSV,3,1,10,65,12,242,,70,08,059,,71,54,051,18,72,69,252,25,0*7F
$GLGSV,3,2,10,73,14,088,,79,06,344,,80,22,033,18,86,26,174,16,0*7D
$GLGSV,3,3,10,87,64,217,15,88,34,321,23,0*73
$GAGSV,1,1,00,0*74
$GNGLL,5552.32042,N,03800.09800,E,132607.00,A,A*7C

$GNRMC,132608.00,A,5552.32009,N,03800.09821,E,0.975,,120625,,,A,V*15
$GNVTG,,T,,M,0.975,N,1.805,K,A*3A

$GNGGA,132608.00,5552.32009,N,03800.09821,E,1,11,0.87,139.4,M,12.9,M,,*40
$GNGSA,A,3,01,32,17,03,31,,,,,,,,1.77,0.87,1.54,1*08
$GNGSA,A,3,72,87,71,88,86,80,,,,,,,1.77,0.87,1.54,2*06
$GNGSA,A,3,,,,,,,,,,,,,1.77,0.87,1.54,3*0D
$GPGSV,3,1,12,01,70,247,19,02,54,184,10,03,50,276,22,04,10,220,,0*64
$GPGSV,3,2,12,10,09,094,07,12,05,030,,17,28,303,11,19,15,329,13,0*6A
$GPGSV,3,3,12,25,01,060,,28,38,108,,31,24,139,21,32,39,061,21,0*6D
$GLGSV,3,1,10,65,12,242,,70,08,059,,71,54,051,16,72,69,252,23,0*77
$GLGSV,3,2,10,73,14,088,,79,06,344,,80,22,033,16,86,26,174,17,0*72
$GLGSV,3,3,10,87,64,217,18,88,34,321,20,0*7D
$GAGSV,1,1,00,0*74

$GNGLL,5552.32009,N,03800.09821,E,132608.00,A,A*7F

$GNRMC,132609.00,A,5552.31979,N,03800.09886,E,1.122,,120625,,,A,V*1F
$GNVTG,,T,,M,1.122,N,2.078,K,A*30

$GNGGA,132609.00,5552.31979,N,03800.09886,E,1,12,0.85,138.8,M,12.9,M,,*4D
$GNGSA,A,3,01,02,32,17,03,31,,,,,,,1.74,0.85,1.52,1*0D
$GNGSA,A,3,72,87,71,88,86,80,,,,,,,1.74,0.85,1.52,2*01
$GNGSA,A,3,,,,,,,,,,,,,1.74,0.85,1.52,3*0A
$GPGSV,3,1,12,01,70,247,20,02,54,184,10,03,50,276,19,04,10,220,,0*66
$GPGSV,3,2,12,10,09,094,07,12,05,030,,17,28,303,11,19,15,329,10,0*69
$GPGSV,3,3,12,25,01,060,,28,38,108,,31,24,139,20,32,39,061,20,0*6D
$GLGSV,3,1,10,65,12,242,,70,08,059,,71,54,051,16,72,69,252,21,0*75
$GLGSV,3,2,10,73,14,088,,79,06,344,,80,22,033,15,86,26,174,17,0*71
$GLGSV,3,3,10,87,64,217,20,88,34,321,20,0*76
$GAGSV,1,1,00,0*74
$GNGLL,5552.31979,N,03800.09886,E,132609.00,A,A*7E

$GNRMC,132610.00,A,5552.31962,N,03800.09976,E,1.399,,120625,,,A,V*11

$GNVTG,,T,,M,1.399,N,2.591,K,A*30
$GNGGA,132610.00,5552.31962,N,03800.09976,E,1,12,0.85,138.1,M,12.9,M,,*48
$GNGSA,A,3,01,02,32,17,03,31,,,,,,,1.74,0.85,1.52,1*0D
$GNGSA,A,3,72,87,71,88,86,80,,,,,,,1.74,0.85,1.52,2*01
$GNGSA,A,3,,,,,,,,,,,,,1.74,0.85,1.52,3*0A
$GPGSV,3,1,12,01,70,247,21,02,54,184,11,03,50,276,16,04,10,220,,0*69
$GPGSV,3,2,12,10,09,094,07,12,05,030,,17,28,303,11,19,15,329,09,0*61
$GPGSV,3,3,12,25,01,060,,28,38,108,,31,24,139,18,32,39,061,18,0*6D
$GLGSV,3,1,10,65,12,242,,70,08,059,,71,54,051,15,72,69,252,19,0*7D
$GLGSV,3,2,10,73,14,088,,79,06,344,,80,22,033,14,86,26,174,13,0*74

$GLGSV,3,3,10,87,64,217,22,88,34,321,21,0*75
$GAGSV,1,1,00,0*74
$GNGLL,5552.31962,N,03800.09976,E,132610.00,A,A*72

$GNRMC,132611.00,A,5552.31951,N,03800.10002,E,1.212,,120625,,,A,V*10

$GNVTG,,T,,M,1.212,N,2.244,K,A*3D
$GNGGA,132611.00,5552.31951,N,03800.10002,E,1,12,0.85,137.1,M,12.9,M,,*44
$GNGSA,A,3,01,02,32,17,03,31,,,,,,,1.74,0.85,1.52,1*0D
$GNGSA,A,3,72,87,71,88,86,80,,,,,,,1.74,0.85,1.52,2*01
$GNGSA,A,3,,,,,,,,,,,,,1.74,0.85,1.52,3*0A
$GPGSV,3,1,12,01,70,247,22,02,54,184,11,03,50,276,19,04,10,220,,0*65
$GPGSV,3,2,12,10,09,094,07,12,05,030,,17,28,303,11,19,15,329,,0*68
$GPGSV,3,3,12,25,01,060,,28,38,108,,31,24,139,18,32,39,061,17,0*62
$GLGSV,3,1,10,65,12,242,,70,08,059,,71,54,051,16,72,69,252,20,0*74
$GLGSV,3,2,10,73,14,088,,79,06,344,,80,22,033,15,86,26,174,11,0*77
$GLGSV,3,3,10,87,64,217,21,88,34,321,23,0*74
$GAGSV,1,1,00,0*74
$GNGLL,5552.31951,N,03800.10002,E,132611.00,A,A*71

$GNRMC,132612.00,A,5552.31923,N,03800.10034,E,1.071,,120625,,,A,V*14
$GNVTG,,T,,M,1.071,N,1.984,K,A*3E

$GNGGA,132612.00,5552.31923,N,03800.10034,E,1,11,0.96,136.4,M,12.9,M,,*42
$GNGSA,A,3,01,02,32,17,03,31,,,,,,,2.02,0.96,1.77,1*0A
$GNGSA,A,3,72,87,71,88,80,,,,,,,,2.02,0.96,1.77,2*08
$GNGSA,A,3,,,,,,,,,,,,,2.02,0.96,1.77,3*0D
$GPGSV,3,1,12,01,70,247,21,02,54,184,11,03,50,276,19,04,10,220,,0*66
$GPGSV,3,2,12,10,09,094,07,12,05,030,,17,28,303,11,19,15,329,,0*68
$GPGSV,3,3,12,25,01,060,,28,38,108,,31,24,139,19,32,39,061,17,0*63
$GLGSV,3,1,10,65,12,242,,70,08,059,,71,54,051,17,72,69,252,20,0*75
$GLGSV,3,2,10,73,14,088,,79,06,344,,80,22,033,15,86,26,174,08,0*7F
$GLGSV,3,3,10,87,64,217,21,88,34,321,22,0*75

$GAGSV,1,1,00,0*74
$GNGLL,5552.31923,N,03800.10034,E,132612.00,A,A*72

$GNRMC,132613.00,A,5552.31905,N,03800.10076,E,1.122,,120625,,,A,V*10
$GNVTG,,T,,M,1.122,N,2.078,K,A*30

$GNGGA,132613.00,5552.31905,N,03800.10076,E,1,11,0.96,135.6,M,12.9,M,,*40
$GNGSA,A,3,01,02,32,17,03,31,,,,,,,2.02,0.96,1.77,1*0A
$GNGSA,A,3,72,87,71,88,80,,,,,,,,2.02,0.96,1.77,2*08
$GNGSA,A,3,,,,,,,,,,,,,2.02,0.96,1.77,3*0D
$GPGSV,3,1,12,01,70,247,21,02,54,184,10,03,50,276,18,04,10,220,,0*66
$GPGSV,3,2,12,10,09,094,07,12,05,030,,17,28,303,11,19,15,329,,0*68
$GPGSV,3,3,12,25,01,060,,28,38,108,17,31,24,139,20,32,39,061,18,0*60
$GLGSV,3,1,10,65,12,242,,70,08,059,,71,54,051,17,72,69,252,18,0*7E
$GLGSV,3,2,10,73,14,088,,79,06,344,,80,22,033,14,86,26,174,10,0*77
$GLGSV,3,3,10,87,64,217,21,88,34,321,21,0*76
$GAGSV,1,1,00,0*74
$GNGLL,5552.31905,N,03800.10076,E,132613.00,A,A*71

$GNRMC,132614.00,A,5552.31871,N,03800.10093,E,1.043,,120625,,,A,V*18
$GNVTG,,T,,M,1.043,N,1.931,K,A*31

$GNGGA,132614.00,5552.31871,N,03800.10093,E,1,12,0.85,134.3,M,12.9,M,,*4B
$GNGSA,A,3,01,02,32,17,03,31,,,,,,,1.74,0.85,1.52,1*0D
$GNGSA,A,3,72,87,71,88,86,80,,,,,,,1.74,0.85,1.52,2*01
$GNGSA,A,3,,,,,,,,,,,,,1.74,0.85,1.52,3*0A
$GPGSV,3,1,12,01,70,247,22,02,54,184,18,03,50,276,17,04,10,220,,0*62
$GPGSV,3,2,12,10,09,094,07,12,05,030,,17,28,303,11,19,15,329,,0*68
$GPGSV,3,3,12,25,01,060,,28,38,108,16,31,24,139,18,32,39,061,18,0*6A
$GLGSV,3,1,10,65,12,242,,70,08,059,,71,54,051,16,72,69,252,19,0*7E
$GLGSV,3,2,10,73,14,088,,79,06,344,,80,22,033,14,86,26,174,13,0*74
$GLGSV,3,3,10,87,64,217,24,88,34,321,20,0*72
$GAGSV,1,1,00,0*74
$GNGLL,5552.31871,N,03800.10093,E,132614.00,A,A*7F

$GNRMC,132615.00,A,5552.31805,N,03800.10125,E,1.239,,120625,,,A,V*19
$GNVTG,,T,,M,1.239,N,2.295,K,A*38

$GNGGA,132615.00,5552.31805,N,03800.10125,E,1,12,0.85,133.2,M,12.9,M,,*43
$GNGSA,A,3,01,02,32,17,03,31,,,,,,,1.74,0.85,1.52,1*0D
$GNGSA,A,3,72,87,71,88,86,80,,,,,,,1.74,0.85,1.52,2*01
$GNGSA,A,3,,,,,,,,,,,,,1.74,0.85,1.52,3*0A
$GPGSV,3,1,12,01,70,247,23,02,54,184,20,03,50,276,15,04,10,220,,0*6A
$GPGSV,3,2,12,10,09,094,07,12,05,030,,17,28,303,11,19,15,329,,0*68
$GPGSV,3,3,12,25,01,060,,28,38,108,16,31,24,139,18,32,39,061,17,0*65
$GLGSV,3,1,10,65,12,242,,70,08,059,,71,54,051,15,72,69,252,19,0*7D
$GLGSV,3,2,10,73,14,088,,79,06,344,,80,22,033,16,86,26,174,14,0*71
$GLGSV,3,3,10,87,64,217,25,88,34,321,20,0*73
$GAGSV,1,1,00,0*74
$GNGLL,5552.31805,N,03800.10125,E,132615.00,A,A*71

$GNRMC,132616.00,A,5552.31746,N,03800.10133,E,1.206,,120625,,,A,V*19
$GNVTG,,T,,M,1.206,N,2.234,K,A*3F

$GNGGA,132616.00,5552.31746,N,03800.10133,E,1,11,0.97,132.1,M,12.9,M,,*4D
$GNGSA,A,3,01,02,32,03,31,,,,,,,,2.00,0.97,1.75,1*0D
$GNGSA,A,3,72,87,71,88,86,80,,,,,,,2.00,0.97,1.75,2*07
$GNGSA,A,3,,,,,,,,,,,,,2.00,0.97,1.75,3*0C
$GPGSV,3,1,12,01,70,247,22,02,54,184,19,03,50,276,15,04,10,220,,0*61
$GPGSV,3,2,12,10,09,094,,12,05,030,,17,28,303,,19,15,329,,0*6F
$GPGSV,3,3,12,25,01,060,,28,38,108,18,31,24,139,20,32,39,061,16,0*61
$GLGSV,3,1,10,65,12,242,,70,08,059,,71,54,051,13,72,69,252,20,0*71
$GLGSV,3,2,10,73,14,088,,79,06,344,,80,22,033,16,86,26,174,14,0*71
$GLGSV,3,3,10,87,64,217,23,88,34,321,20,0*75
$GAGSV,1,1,00,0*74
$GNGLL,5552.31746,N,03800.10133,E,132616.00,A,A*7D

$GNRMC,132617.00,A,5552.31671,N,03800.10138,E,1.609,,120625,,,A,V*1D
$GNVTG,,T,,M,1.609,N,2.980,K,A*30
$GNGGA,132617.00,5552.31671,N,03800.10138,E,1,11,0.97,131.2,M,12.9,M,,*42
$GNGSA,A,3,01,02,32,03,31,,,,,,,,2.01,0.97,1.75,1*0C

$GNGSA,A,3,72,87,71,88,86,80,,,,,,,2.01,0.97,1.75,2*06
$GNGSA,A,3,,,,,,,,,,,,,2.01,0.97,1.75,3*0D
$GPGSV,3,1,12,01,70,247,23,02,54,184,12,03,50,276,16,04,10,220,,0*68
$GPGSV,3,2,12,10,09,094,,12,05,030,,17,28,303,,19,15,329,,0*6F
$GPGSV,3,3,12,25,01,060,,28,38,108,19,31,24,139,21,32,39,061,15,0*62
$GLGSV,3,1,10,65,12,242,,70,08,059,,71,54,051,14,72,69,252,21,0*77
$GLGSV,3,2,10,73,14,088,,79,06,344,,80,22,033,15,86,26,174,11,0*77
$GLGSV,3,3,10,87,64,217,22,88,34,321,20,0*74
$GAGSV,1,1,00,0*74
$GNGLL,5552.31671,N,03800.10138,E,132617.00,A,A*72

$GNRMC,132618.00,A,5552.31666,N,03800.10104,E,1.118,,120625,,,A,V*1C

$GNVTG,,T,,M,1.118,N,2.070,K,A*31
$GNGGA,132618.00,5552.31666,N,03800.10104,E,1,10,1.08,130.4,M,12.9,M,,*45
$GNGSA,A,3,01,02,32,03,31,,,,,,,,2.34,1.08,2.08,1*04
$GNGSA,A,3,72,87,71,88,80,,,,,,,,2.34,1.08,2.08,2*00
$GNGSA,A,3,,,,,,,,,,,,,2.34,1.08,2.08,3*05
$GPGSV,3,1,12,01,70,247,22,02,54,184,13,03,50,276,15,04,10,220,,0*6B
$GPGSV,3,2,12,10,09,094,,12,05,030,,17,28,303,,19,15,329,,0*6F
$GPGSV,3,3,12,25,01,060,,28,38,108,17,31,24,139,20,32,39,061,18,0*60
$GLGSV,3,1,10,65,12,242,,70,08,059,,71,54,051,15,72,69,252,21,0*76
$GLGSV,3,2,10,73,14,088,,79,06,344,,80,22,033,13,86,26,174,08,0*79
$GLGSV,3,3,10,87,64,217,22,88,34,321,20,0*74
$GAGSV,1,1,00,0*74
$GNGLL,5552.31666,N,03800.10104,E,132618.00,A,A*74

$GNRMC,132619.00,A,5552.31642,N,03800.10118,E,1.180,,120625,,,A,V*17
$GNVTG,,T,,M,1.180,N,2.186,K,A*38
$GNGGA,132619.00,5552.31642,N,03800.10118,E,1,10,1.08,129.8,M,12.9,M,,*4B

$GNGSA,A,3,01,02,32,03,31,,,,,,,,2.34,1.08,2.08,1*04
$GNGSA,A,3,72,87,71,88,80,,,,,,,,2.34,1.08,2.08,2*00
$GNGSA,A,3,,,,,,,,,,,,,2.34,1.08,2.08,3*05
$GPGSV,3,1,12,01,70,247,23,02,54,184,15,03,50,276,12,04,10,220,,0*6B
$GPGSV,3,2,12,10,09,094,,12,05,030,,17,28,303,,19,15,329,,0*6F
$GPGSV,3,3,12,25,01,060,,28,38,108,17,31,24,139,18,32,39,061,20,0*60
$GLGSV,3,1,10,65,12,242,,70,08,059,,71,54,051,13,72,69,252,21,0*70
$GLGSV,3,2,10,73,14,088,,79,06,344,,80,22,033,13,86,26,174,10,0*70
$GLGSV,3,3,10,87,64,217,23,88,34,321,19,0*7F
$GAGSV,1,1,00,0*74
$GNGLL,5552.31642,N,03800.10118,E,132619.00,A,A*7E

$GNRMC,132620.00,A,5552.31609,N,03800.10103,E,1.086,,120625,,,A,V*1F
$GNVTG,,T,,M,1.086,N,2.011,K,A*30

$GNGGA,132620.00,5552.31609,N,03800.10103,E,1,11,0.97,128.8,M,12.9,M,,*43
$GNGSA,A,3,01,02,32,03,31,,,,,,,,2.01,0.97,1.75,1*0C
$GNGSA,A,3,72,87,71,88,86,80,,,,,,,2.01,0.97,1.75,2*06
$GNGSA,A,3,,,,,,,,,,,,,2.01,0.97,1.75,3*0D
$GPGSV,3,1,12,01,70,247,25,02,54,184,20,03,50,276,16,04,10,220,,0*6F
$GPGSV,3,2,12,10,09,094,,12,05,030,,17,28,303,,19,15,329,,0*6F
$GPGSV,3,3,12,25,01,060,,28,38,108,16,31,24,139,18,32,39,061,19,0*6B
$GLGSV,3,1,10,65,12,242,,70,08,059,,71,54,051,16,72,69,252,22,0*76
$GLGSV,3,2,10,73,14,088,,79,06,344,,80,22,033,14,86,26,174,15,0*72
$GLGSV,3,3,10,87,64,217,24,88,34,321,18,0*79
$GAGSV,1,1,00,0*74
$GNGLL,5552.31609,N,03800.10103,E,132620.00,A,A*71

$GNRMC,132621.00,A,5552.31601,N,03800.10095,E,0.719,,120625,,,A,V*18
$GNVTG,,T,,M,0.719,N,1.332,K,A*31

$GNGGA,132621.00,5552.31601,N,03800.10095,E,1,11,0.97,128.3,M,12.9,M,,*4F
$GNGSA,A,3,01,02,32,03,31,,,,,,,,2.01,0.97,1.75,1*0C
$GNGSA,A,3,72,87,71,88,86,80,,,,,,,2.01,0.97,1.75,2*06
$GNGSA,A,3,,,,,,,,,,,,,2.01,0.97,1.75,3*0D
$GPGSV,3,1,12,01,70,247,25,02,54,184,16,03,50,276,13,04,10,220,,0*6F
$GPGSV,3,2,12,10,09,094,,12,05,030,,17,28,303,,19,15,329,,0*6F
$GPGSV,3,3,12,25,01,060,,28,38,108,15,31,24,139,19,32,39,061,17,0*67
$GLGSV,3,1,10,65,13,243,,70,08,059,,71,54,051,16,72,69,252,21,0*75
$GLGSV,3,2,10,73,14,088,,79,06,344,,80,22,033,15,86,26,174,16,0*70
$GLGSV,3,3,10,87,64,217,25,88,34,321,17,0*77
$GAGSV,1,1,00,0*74
$GNGLL,5552.31601,N,03800.10095,E,132621.00,A,A*76

$GNRMC,132622.00,A,5552.31557,N,03800.10056,E,0.951,,120625,,,A,V*16
$GNVTG,,T,,M,0.951,N,1.761,K,A*31

$GNGGA,132622.00,5552.31557,N,03800.10056,E,1,11,0.97,127.3,M,12.9,M,,*4C
$GNGSA,A,3,01,02,32,03,31,,,,,,,,2.01,0.97,1.75,1*0C
$GNGSA,A,3,72,87,71,88,86,80,,,,,,,2.01,0.97,1.75,2*06
$GNGSA,A,3,,,,,,,,,,,,,2.01,0.97,1.75,3*0D
$GPGSV,3,1,12,01,70,247,25,02,54,184,13,03,50,276,08,04,10,220,,0*60
$GPGSV,3,2,12,10,09,094,,12,05,030,,17,28,303,08,19,15,329,,0*67
$GPGSV,3,3,12,25,01,060,,28,38,108,13,31,24,139,19,32,39,061,16,0*60
$GLGSV,3,1,10,65,13,243,,70,08,059,,71,54,051,16,72,69,252,21,0*75
$GLGSV,3,2,10,73,14,088,,79,06,344,,80,22,033,16,86,26,174,16,0*73
$GLGSV,3,3,10,87,64,217,24,88,34,321,20,0*72
$GAGSV,1,1,00,0*74
$GNGLL,5552.31557,N,03800.10056,E,132622.00,A,A*7A

$GNRMC,132623.00,A,5552.31550,N,03800.10050,E,0.539,,120625,,,A,V*14
$GNVTG,,T,,M,0.539,N,0.998,K,A*3A

$GNGGA,132623.00,5552.31550,N,03800.10050,E,1,11,0.97,126.4,M,12.9,M,,*4A
$GNGSA,A,3,01,02,32,03,31,,,,,,,,2.01,0.97,1.75,1*0C
$GNGSA,A,3,72,87,71,88,86,80,,,,,,,2.01,0.97,1.75,2*06
$GNGSA,A,3,,,,,,,,,,,,,2.01,0.97,1.75,3*0D
$GPGSV,3,1,12,01,70,247,25,02,54,184,13,03,50,276,14,04,10,220,,0*6D
$GPGSV,3,2,12,10,09,094,,12,05,030,,17,28,303,15,19,15,329,,0*6B
$GPGSV,3,3,12,25,01,060,,28,38,108,10,31,24,139,18,32,39,061,20,0*67
$GLGSV,3,1,10,65,13,243,,70,08,059,,71,54,051,18,72,69,252,22,0*78
$GLGSV,3,2,10,73,14,088,,79,06,344,,80,22,033,17,86,26,174,15,0*71
$GLGSV,3,3,10,87,64,217,27,88,34,321,22,0*73
$GAGSV,1,1,00,0*74
$GNGLL,5552.31550,N,03800.10050,E,132623.00,A,A*7A

$GNRMC,132624.00,A,5552.31554,N,03800.10111,E,0.584,,120625,,,A,V*15
$GNVTG,,T,,M,0.584,N,1.081,K,A*3C

$GNGGA,132624.00,5552.31554,N,03800.10111,E,1,11,0.97,125.7,M,12.9,M,,*4D
$GNGSA,A,3,01,02,32,03,31,,,,,,,,2.01,0.97,1.75,1*0C
$GNGSA,A,3,72,87,71,88,86,80,,,,,,,2.01,0.97,1.75,2*06
$GNGSA,A,3,,,,,,,,,,,,,2.01,0.97,1.75,3*0D
$GPGSV,3,1,12,01,70,247,23,02,54,184,16,03,50,276,13,04,10,220,,0*69
$GPGSV,3,2,12,10,09,094,,12,05,030,,17,28,303,17,19,15,329,,0*69
$GPGSV,3,3,12,25,01,060,,28,38,108,12,31,24,139,19,32,39,061,19,0*6E
$GLGSV,3,1,10,65,13,243,,70,08,059,,71,54,051,17,72,69,252,23,0*76
$GLGSV,3,2,10,73,14,088,,79,06,344,,80,22,033,18,86,26,174,13,0*78
$GLGSV,3,3,10,87,64,217,25,88,34,321,22,0*71
$GAGSV,1,1,00,0*74
$GNGLL,5552.31554,N,03800.10111,E,132624.00,A,A*7D

$GNRMC,132625.00,A,5552.31572,N,03800.10033,E,0.026,,120625,,,A,V*1C
$GNVTG,,T,,M,0.026,N,0.048,K,A*35

$GNGGA,132625.00,5552.31572,N,03800.10033,E,1,10,1.08,124.8,M,12.9,M,,*41
$GNGSA,A,3,01,02,32,03,31,,,,,,,,2.35,1.08,2.09,1*04
$GNGSA,A,3,72,87,71,88,80,,,,,,,,2.35,1.08,2.09,2*00
$GNGSA,A,3,,,,,,,,,,,,,2.35,1.08,2.09,3*05
$GPGSV,3,1,12,01,70,247,22,02,54,184,17,03,50,276,15,04,10,220,,0*6F
$GPGSV,3,2,12,10,09,094,,12,05,030,,17,28,303,16,19,15,329,,0*68
$GPGSV,3,3,12,25,01,060,,28,38,108,15,31,24,139,19,32,39,061,18,0*68
$GLGSV,3,1,10,65,13,243,,70,08,059,,71,54,051,21,72,69,252,20,0*70
$GLGSV,3,2,10,73,14,088,,79,06,344,,80,22,033,18,86,26,174,11,0*7A
$GLGSV,3,3,10,87,64,217,22,88,34,321,23,0*77
$GAGSV,1,1,00,0*74
$GNGLL,5552.31572,N,03800.10033,E,132625.00,A,A*79

$GNRMC,132626.00,A,5552.31558,N,03800.10003,E,0.161,,120625,,,A,V*16
$GNVTG,,T,,M,0.161,N,0.299,K,A*39
$GNGGA,132626.00,5552.31558,N,03800.10003,E,1,11,0.97,123.6,M,12.9,M,,*46
$GNGSA,A,3,01,02,32,03,31,,,,,,,,2.01,0.97,1.75,1*0C
$GNGSA,A,3,72,87,71,88,86,80,,,,,,,2.01,0.97,1.75,2*06
$GNGSA,A,3,,,,,,,,,,,,,2.01,0.97,1.75,3*0D
$GPGSV,3,1,12,01,70,247,21,02,54,184,18,03,50,276,13,04,10,220,,0*65

$GPGSV,3,2,12,10,09,094,,12,05,030,,17,28,303,11,19,15,329,,0*6F
$GPGSV,3,3,12,25,01,060,,28,38,108,14,31,24,139,19,32,39,061,18,0*69
$GLGSV,3,1,10,65,13,243,,70,08,059,,71,54,051,20,72,69,252,20,0*71
$GLGSV,3,2,10,73,14,088,,79,06,344,,80,22,033,16,86,26,174,13,0*76
$GLGSV,3,3,10,87,64,217,21,88,34,321,21,0*76
$GAGSV,1,1,00,0*74
$GNGLL,5552.31558,N,03800.10003,E,132626.00,A,A*71

$GNRMC,132627.00,A,5552.31540,N,03800.10007,E,0.196,,120625,,,A,V*12
$GNVTG,,T,,M,0.196,N,0.362,K,A*34

$GNGGA,132627.00,5552.31540,N,03800.10007,E,1,11,0.97,122.7,M,12.9,M,,*4A
$GNGSA,A,3,01,02,32,03,31,,,,,,,,2.01,0.97,1.75,1*0C
$GNGSA,A,3,72,87,71,88,86,80,,,,,,,2.01,0.97,1.75,2*06
$GNGSA,A,3,,,,,,,,,,,,,2.01,0.97,1.75,3*0D
$GPGSV,3,1,12,01,70,247,21,02,54,184,23,03,50,276,09,04,10,220,,0*66
$GPGSV,3,2,12,10,09,094,,12,05,030,,17,28,303,09,19,15,329,,0*66
$GPGSV,3,3,12,25,01,060,,28,38,108,13,31,24,139,18,32,39,061,16,0*61
$GLGSV,3,1,10,65,13,243,,70,08,059,,71,53,051,21,72,69,252,18,0*7C
$GLGSV,3,2,10,73,14,088,,79,06,344,,80,22,033,19,86,26,174,15,0*7F
$GLGSV,3,3,10,87,64,217,19,88,34,321,20,0*7C
$GAGSV,1,1,00,0*74
$GNGLL,5552.31540,N,03800.10007,E,132627.00,A,A*7D

$GNRMC,132628.00,A,5552.31585,N,03800.09983,E,0.642,,120625,,,A,V*17
$GNVTG,,T,,M,0.642,N,1.189,K,A*3C

$GNGGA,132628.00,5552.31585,N,03800.09983,E,1,12,0.85,121.9,M,12.9,M,,*4C
$GNGSA,A,3,01,02,32,17,03,31,,,,,,,1.74,0.85,1.52,1*0D
$GNGSA,A,3,72,87,71,88,86,80,,,,,,,1.74,0.85,1.52,2*01
$GNGSA,A,3,,,,,,,,,,,,,1.74,0.85,1.52,3*0A
$GPGSV,3,1,12,01,70,247,21,02,54,184,19,03,50,276,14,04,10,220,,0*63
$GPGSV,3,2,12,10,09,094,,12,05,030,,17,28,303,08,19,15,329,,0*67
$GPGSV,3,3,12,25,01,060,,28,38,108,14,31,24,139,18,32,39,061,17,0*67
$GLGSV,3,1,10,65,13,243,,70,08,059,,71,53,051,18,72,69,253,18,0*77
$GLGSV,3,2,10,73,14,088,,79,06,344,,80,22,033,18,86,26,174,16,0*7D
$GLGSV,3,3,10,87,64,217,19,88,34,321,18,0*77
$GAGSV,1,1,00,0*74
$GNGLL,5552.31585,N,03800.09983,E,132628.00,A,A*76

$GNRMC,132629.00,A,5552.31609,N,03800.09938,E,0.879,,120625,,,A,V*17
$GNVTG,,T,,M,0.879,N,1.628,K,A*36

$GNGGA,132629.00,5552.31609,N,03800.09938,E,1,10,1.07,121.5,M,12.9,M,,*4F
$GNGSA,A,3,01,02,32,31,,,,,,,,,2.07,1.07,1.78,1*0C
$GNGSA,A,3,72,87,71,88,86,80,,,,,,,2.07,1.07,1.78,2*05
$GNGSA,A,3,,,,,,,,,,,,,2.07,1.07,1.78,3*0E
$GPGSV,3,1,12,01,70,247,20,02,54,184,19,03,50,276,06,04,10,220,,0*61
$GPGSV,3,2,12,10,09,094,,12,05,030,,17,28,303,08,19,15,329,,0*67
$GPGSV,3,3,12,25,01,060,,28,38,108,13,31,24,139,17,32,39,061,15,0*6D
$GLGSV,3,1,10,65,13,243,,70,08,059,,71,53,051,18,72,69,253,18,0*77
$GLGSV,3,2,10,73,14,087,,79,06,344,,80,22,033,17,86,26,174,16,0*7D
$GLGSV,3,3,10,87,64,217,17,88,34,321,16,0*77
$GAGSV,1,1,00,0*74
$GNGLL,5552.31609,N,03800.09938,E,132629.00,A,A*70

$GNRMC,132630.00,A,5552.31631,N,03800.09940,E,0.856,,120625,,,A,V*16
$GNVTG,,T,,M,0.856,N,1.586,K,A*3C

$GNGGA,132630.00,5552.31631,N,03800.09940,E,1,11,0.97,120.8,M,12.9,M,,*46
$GNGSA,A,3,01,02,32,03,31,,,,,,,,2.01,0.97,1.75,1*0C
$GNGSA,A,3,72,87,71,88,86,80,,,,,,,2.01,0.97,1.75,2*06
$GNGSA,A,3,,,,,,,,,,,,,2.01,0.97,1.75,3*0D
$GPGSV,3,1,12,01,70,247,19,02,54,184,20,03,50,276,16,04,10,220,,0*60
$GPGSV,3,2,12,10,09,094,,12,05,030,,17,28,303,10,19,15,329,,0*6E
$GPGSV,3,3,12,25,01,060,,28,38,108,16,31,24,139,20,32,39,061,19,0*60
$GLGSV,3,1,10,65,13,243,,70,08,059,,71,53,051,16,72,69,253,17,0*76
$GLGSV,3,2,10,73,14,087,,79,06,344,,80,22,033,18,86,26,174,15,0*71
$GLGSV,3,3,10,87,64,217,15,88,34,321,15,0*76
$GAGSV,1,1,00,0*74
$GNGLL,5552.31631,N,03800.09940,E,132630.00,A,A*7C

$GNRMC,132631.00,A,5552.31675,N,03800.09973,E,1.188,,120625,,,A,V*1C
$GNVTG,,T,,M,1.188,N,2.200,K,A*3D

$GNGGA,132631.00,5552.31675,N,03800.09973,E,1,12,0.85,120.3,M,12.9,M,,*4C
$GNGSA,A,3,01,02,32,17,03,31,,,,,,,1.74,0.85,1.52,1*0D
$GNGSA,A,3,72,87,71,88,86,80,,,,,,,1.74,0.85,1.52,2*01
$GNGSA,A,3,,,,,,,,,,,,,1.74,0.85,1.52,3*0A
$GPGSV,3,1,12,01,70,247,18,02,54,184,19,03,50,276,18,04,10,220,,0*65
$GPGSV,3,2,12,10,09,094,,12,05,030,,17,28,303,11,19,15,329,,0*6F
$GPGSV,3,3,12,25,01,060,,28,38,108,17,31,24,139,21,32,39,061,20,0*6A
$GLGSV,3,1,10,65,13,243,,70,08,059,,71,53,051,16,72,69,253,16,0*77
$GLGSV,3,2,10,73,14,087,,79,06,344,,80,22,033,18,86,26,174,16,0*72
$GLGSV,3,3,10,87,64,217,15,88,34,321,15,0*76
$GAGSV,1,1,00,0*74
$GNGLL,5552.31675,N,03800.09973,E,132631.00,A,A*7D

$GNRMC,132632.00,A,5552.31688,N,03800.09938,E,0.939,,120625,,,A,V*11
$GNVTG,,T,,M,0.939,N,1.739,K,A*32
$GNGGA,132632.00,5552.31688,N,03800.09938,E,1,12,0.85,119.3,M,12.9,M,,*48
$GNGSA,A,3,01,02,32,17,03,31,,,,,,,1.74,0.85,1.52,1*0D

$GNGSA,A,3,72,87,71,88,86,80,,,,,,,1.74,0.85,1.52,2*01
$GNGSA,A,3,,,,,,,,,,,,,1.74,0.85,1.52,3*0A
$GPGSV,3,1,12,01,70,247,16,02,54,184,18,03,50,276,18,04,10,220,,0*6A
$GPGSV,3,2,12,10,09,094,,12,05,030,,17,28,303,11,19,15,329,,0*6F
$GPGSV,3,3,12,25,01,060,,28,38,108,19,31,24,139,21,32,39,061,20,0*64
$GLGSV,3,1,10,65,13,243,,70,08,059,,71,53,051,19,72,69,253,12,0*7C
$GLGSV,3,2,10,73,14,087,,79,06,344,,80,22,033,16,86,26,174,17,0*7D
$GLGSV,3,3,10,87,64,217,14,88,34,321,16,0*74
$GAGSV,1,1,00,0*74
$GNGLL,5552.31688,N,03800.09938,E,132632.00,A,A*73

$GNRMC,132633.00,A,5552.31702,N,03800.09896,E,0.724,,120625,,,A,V*14
$GNVTG,,T,,M,0.724,N,1.342,K,A*38

