$GNTXT,01,01,02,u-blox AG - www.u-blox.com*4E
$GNTXT,01,01,02,HW UBX-M8030 00080000*60

$GNTXT,01,01,02,ROM CORE 3.01 (107888)*2B
$GNTXT,01,01,02,FWVER=SPG 3.01*46
$GNTXT,01,01,02,PROTVER=18.00*11
$GNTXT,01,01,02,GPS;GLO;GAL;BDS*77
$GNTXT,01,01,02,SBAS;IMES;QZSS*49
$GNTXT,01,01,02,GNSS OTP=GPS;GLO*37
$GNTXT,01,01,02,LLC=FFFFFFFF-FFFFFFFF-FFFFFFFF-FFFFFFFF-FFFFFFFD*2F

$GNTXT,01,01,02,ANTSUPERV=AC SD PDoS SR*3E
$GNTXT,01,01,02,ANTSTATUS=OK*25
$GNTXT,01,01,02,PF=3FF*4B

$GNRMC,123458.00,A,5552.33493,N,03800.09283,E,2.920,212.54,120625,,,A,V*0A

$GNVTG,212.54,T,,M,2.920,N,5.408,K,A*23
$GNGGA,123458.00,5552.33493,N,03800.09283,E,1,08,1.10,159.1,M,12.9,M,,*47
$GNGSA,A,3,08,02,10,32,,,,,,,,,1.68,1.10,1.27,1*00
$GNGSA,A,3,88,71,87,72,,,,,,,,,1.68,1.10,1.27,2*05
$GNGSA,A,3,,,,,,,,,,,,,1.68,1.10,1.27,3*08
$GPGSV,4,1,13,01,55,289,,02,73,220,20,03,27,264,20,08,19,212,16,0*66
$GPGSV,4,2,13,10,29,083,17,14,02,300,,17,19,323,23,19,00,341,,0*61
$GPGSV,4,3,13,22,08,316,,24,03,018,,28,21,127,,31,04,149,,0*67
$GPGSV,4,4,13,32,58,078,16,0*53

$GLGSV,3,1,10,70,32,049,,71,82,051,15,72,42,227,10,78,01,320,,0*77
$GLGSV,3,2,10,79,17,005,,80,13,057,09,85,01,154,09,86,55,172,08,0*72
$GLGSV,3,3,10,87,68,295,16,88,10,326,21,0*75
$GAGSV,1,1,00,0*74
$GNGLL,5552.33493,N,03800.09283,E,123458.00,A,A*7C

$GNRMC,123459.00,A,5552.33401,N,03800.09043,E,3.665,224.24,120625,,,A,V*03

$GNVTG,224.24,T,,M,3.665,N,6.788,K,A*26
$GNGGA,123459.00,5552.33401,N,03800.09043,E,1,09,1.05,158.9,M,12.9,M,,*4F
$GNGSA,A,3,08,02,10,32,,,,,,,,,1.65,1.05,1.27,1*09
$GNGSA,A,3,88,86,71,87,72,,,,,,,,1.65,1.05,1.27,2*02
$GNGSA,A,3,,,,,,,,,,,,,1.65,1.05,1.27,3*01
$GPGSV,4,1,13,01,55,289,18,02,73,220,21,03,27,264,18,08,19,212,08,0*6A
$GPGSV,4,2,13,10,29,083,15,14,02,300,,17,19,323,21,19,00,341,,0*61
$GPGSV,4,3,13,22,08,316,,24,03,018,,28,21,127,,31,04,149,,0*67
$GPGSV,4,4,13,32,58,078,16,0*53

$GLGSV,3,1,10,70,32,049,,71,82,051,15,72,42,227,09,78,01,320,,0*7F
$GLGSV,3,2,10,79,17,005,,80,13,057,10,85,01,154,09,86,55,172,08,0*7A
$GLGSV,3,3,10,87,68,295,14,88,10,326,22,0*74
$GAGSV,1,1,00,0*74
$GNGLL,5552.33401,N,03800.09043,E,123459.00,A,A*78

$GNRMC,123500.00,A,5552.33328,N,03800.08925,E,3.579,225.51,120625,,,A,V*07
$GNVTG,225.51,T,,M,3.579,N,6.629,K,A*21
$GNGGA,123500.00,5552.33328,N,03800.08925,E,1,09,1.05,158.8,M,12.9,M,,*47
$GNGSA,A,3,08,02,10,32,,,,,,,,,1.65,1.05,1.27,1*09

$GNGSA,A,3,88,86,71,87,72,,,,,,,,1.65,1.05,1.27,2*02
$GNGSA,A,3,,,,,,,,,,,,,1.65,1.05,1.27,3*01
$GPGSV,4,1,13,01,55,289,17,02,73,220,23,03,27,264,16,08,19,212,07,0*66
$GPGSV,4,2,13,10,29,083,15,14,02,300,,17,19,323,20,19,00,341,,0*60
$GPGSV,4,3,13,22,08,316,,24,03,018,,28,21,127,,31,04,149,,0*67
$GPGSV,4,4,13,32,58,078,15,0*50
$GLGSV,3,1,10,70,32,049,,71,82,051,14,72,42,227,11,78,01,320,,0*77

$GLGSV,3,2,10,79,17,005,,80,13,057,,85,01,154,13,86,55,172,09,0*71
$GLGSV,3,3,10,87,68,295,14,88,10,326,23,0*75
$GAGSV,1,1,00,0*74
$GNGLL,5552.33328,N,03800.08925,E,123500.00,A,A*71

$GNRMC,123501.00,A,5552.33286,N,03800.08793,E,3.347,227.81,120625,,,A,V*04

$GNVTG,227.81,T,,M,3.347,N,6.199,K,A*29
$GNGGA,123501.00,5552.33286,N,03800.08793,E,1,09,1.05,158.7,M,12.9,M,,*4F
$GNGSA,A,3,08,02,10,32,,,,,,,,,1.64,1.05,1.27,1*08
$GNGSA,A,3,88,86,71,87,72,,,,,,,,1.64,1.05,1.27,2*03
$GNGSA,A,3,,,,,,,,,,,,,1.64,1.05,1.27,3*00
$GPGSV,4,1,13,01,55,289,18,02,73,220,23,03,27,264,15,08,19,212,10,0*6C
$GPGSV,4,2,13,10,29,083,11,14,02,300,,17,19,323,19,19,00,341,,0*6E
$GPGSV,4,3,13,22,08,316,,24,03,018,,28,21,127,,31,04,149,,0*67
$GPGSV,4,4,13,32,58,078,11,0*54

$GLGSV,3,1,10,70,32,049,,71,82,051,12,72,42,227,15,78,01,320,,0*75
$GLGSV,3,2,10,79,17,005,,80,13,057,,85,01,154,13,86,55,172,13,0*7A
$GLGSV,3,3,10,87,68,295,16,88,10,326,23,0*77
$GAGSV,1,1,00,0*74
$GNGLL,5552.33286,N,03800.08793,E,123501.00,A,A*76

$GNRMC,123502.00,A,5552.33224,N,03800.08777,E,2.781,,120625,,,A,V*1A

$GNVTG,,T,,M,2.781,N,5.151,K,A*31
$GNGGA,123502.00,5552.33224,N,03800.08777,E,1,09,1.05,158.0,M,12.9,M,,*49
$GNGSA,A,3,08,01,02,10,32,,,,,,,,1.61,1.05,1.23,1*08
$GNGSA,A,3,88,71,87,72,,,,,,,,,1.61,1.05,1.23,2*0C
$GNGSA,A,3,,,,,,,,,,,,,1.61,1.05,1.23,3*01
$GPGSV,4,1,13,01,55,289,19,02,73,220,25,03,27,264,18,08,19,212,11,0*67
$GPGSV,4,2,13,10,29,083,10,14,02,300,,17,19,323,22,19,00,341,,0*67
$GPGSV,4,3,13,22,08,316,,24,03,018,,28,21,127,,31,04,149,,0*67
$GPGSV,4,4,13,32,58,078,09,0*5D

$GLGSV,3,1,10,70,32,049,,71,82,051,12,72,42,227,10,78,01,320,,0*70
$GLGSV,3,2,10,79,17,005,,80,13,057,,85,01,154,13,86,55,172,07,0*7F
$GLGSV,3,3,10,87,68,295,16,88,10,326,23,0*77
$GAGSV,1,1,00,0*74
$GNGLL,5552.33224,N,03800.08777,E,123502.00,A,A*77

$GNRMC,123503.00,A,5552.33186,N,03800.08676,E,2.686,,120625,,,A,V*16
$GNVTG,,T,,M,2.686,N,4.974,K,A*39
$GNGGA,123503.00,5552.33186,N,03800.08676,E,1,10,0.99,158.0,M,12.9,M,,*4F
$GNGSA,A,3,08,01,02,10,32,,,,,,,,1.58,0.99,1.22,1*07
$GNGSA,A,3,88,86,71,87,72,,,,,,,,1.58,0.99,1.22,2*0D
$GNGSA,A,3,,,,,,,,,,,,,1.58,0.99,1.22,3*0E
$GPGSV,4,1,13,01,55,289,19,02,73,220,26,03,27,264,19,08,19,212,15,0*61
$GPGSV,4,2,13,10,29,083,12,14,02,300,,17,19,323,23,19,00,341,,0*64
$GPGSV,4,3,13,22,08,316,,24,03,018,,28,21,127,,31,04,149,,0*67
$GPGSV,4,4,13,32,58,078,11,0*54

$GLGSV,3,1,10,70,32,049,,71,82,051,11,72,42,227,11,78,01,320,,0*72
$GLGSV,3,2,10,79,17,005,,80,13,057,,85,01,154,09,86,55,172,09,0*7A
$GLGSV,3,3,10,87,68,295,18,88,10,326,23,0*79
$GAGSV,1,1,00,0*74
$GNGLL,5552.33186,N,03800.08676,E,123503.00,A,A*7D

$GNRMC,123504.00,A,5552.33152,N,03800.08552,E,2.653,,120625,,,A,V*15
$GNVTG,,T,,M,2.653,N,4.913,K,A*30
$GNGGA,123504.00,5552.33152,N,03800.08552,E,1,09,1.04,157.9,M,12.9,M,,*4F

$GNGSA,A,3,08,01,02,10,32,,,,,,,,1.61,1.04,1.22,1*08
$GNGSA,A,3,88,86,71,87,,,,,,,,,1.61,1.04,1.22,2*07
$GNGSA,A,3,,,,,,,,,,,,,1.61,1.04,1.22,3*01
$GPGSV,4,1,13,01,55,289,18,02,73,220,26,03,27,264,17,08,19,212,08,0*62
$GPGSV,4,2,13,10,29,083,11,14,02,300,,17,19,323,22,19,00,341,,0*66
$GPGSV,4,3,13,22,08,316,,24,03,018,,28,21,127,,31,04,149,,0*67
$GPGSV,4,4,13,32,58,078,16,0*53
$GLGSV,3,1,10,70,32,049,,71,82,051,11,72,42,227,07,78,01,320,,0*75
$GLGSV,3,2,10,79,17,005,,80,13,057,,85,01,154,07,86,55,172,12,0*7E
$GLGSV,3,3,10,87,68,295,19,88,10,326,23,0*78
$GAGSV,1,1,00,0*74
$GNGLL,5552.33152,N,03800.08552,E,123504.00,A,A*76

$GNRMC,123505.00,A,5552.33180,N,03800.08447,E,1.973,,120625,,,A,V*10
$GNVTG,,T,,M,1.973,N,3.654,K,A*35
$GNGGA,123505.00,5552.33180,N,03800.08447,E,1,10,0.99,157.9,M,12.9,M,,*49
$GNGSA,A,3,08,01,02,10,32,,,,,,,,1.58,0.99,1.22,1*07
$GNGSA,A,3,88,86,71,87,72,,,,,,,,1.58,0.99,1.22,2*0D

$GNGSA,A,3,,,,,,,,,,,,,1.58,0.99,1.22,3*0E
$GPGSV,4,1,13,01,55,289,17,02,73,220,27,03,27,264,17,08,19,212,15,0*60
$GPGSV,4,2,13,10,29,083,10,14,02,300,,17,19,323,22,19,00,341,,0*67
$GPGSV,4,3,13,22,08,316,,24,03,018,,28,21,127,,31,04,149,,0*67
$GPGSV,4,4,13,32,58,078,15,0*50
$GLGSV,3,1,10,70,32,049,,71,82,051,08,72,42,227,09,78,01,320,,0*73
$GLGSV,3,2,10,79,17,005,,80,13,057,,85,01,154,08,86,55,172,09,0*7B
$GLGSV,3,3,10,87,68,295,19,88,10,326,22,0*79
$GAGSV,1,1,00,0*74
$GNGLL,5552.33180,N,03800.08447,E,123505.00,A,A*7D

$GNRMC,123506.00,A,5552.33200,N,03800.08381,E,1.723,,120625,,,A,V*1E
$GNVTG,,T,,M,1.723,N,3.191,K,A*30

$GNGGA,123506.00,5552.33200,N,03800.08381,E,1,10,0.99,157.8,M,12.9,M,,*4D
$GNGSA,A,3,08,01,02,10,32,,,,,,,,1.58,0.99,1.22,1*07
$GNGSA,A,3,88,86,71,87,72,,,,,,,,1.58,0.99,1.22,2*0D
$GNGSA,A,3,,,,,,,,,,,,,1.58,0.99,1.22,3*0E
$GPGSV,4,1,13,01,55,289,18,02,73,220,27,03,27,264,17,08,19,212,11,0*6B
$GPGSV,4,2,13,10,29,083,09,14,02,300,,17,19,323,23,19,00,341,,0*6E
$GPGSV,4,3,13,22,08,316,,24,03,018,,28,21,127,,31,04,149,,0*67
$GPGSV,4,4,13,32,58,078,19,0*5C
$GLGSV,3,1,10,70,32,049,,71,82,051,08,72,42,227,14,78,01,320,,0*7F
$GLGSV,3,2,10,79,17,005,,80,13,057,,85,01,154,09,86,55,172,10,0*72
$GLGSV,3,3,10,87,68,295,19,88,10,326,21,0*7A
$GAGSV,1,1,00,0*74
$GNGLL,5552.33200,N,03800.08381,E,123506.00,A,A*78

$GNRMC,123507.00,A,5552.33267,N,03800.08285,E,1.903,,120625,,,A,V*17
$GNVTG,,T,,M,1.903,N,3.524,K,A*36

$GNGGA,123507.00,5552.33267,N,03800.08285,E,1,10,0.99,157.8,M,12.9,M,,*48
$GNGSA,A,3,08,01,02,10,32,,,,,,,,1.58,0.99,1.22,1*07
$GNGSA,A,3,88,86,71,87,72,,,,,,,,1.58,0.99,1.22,2*0D
$GNGSA,A,3,,,,,,,,,,,,,1.58,0.99,1.22,3*0E
$GPGSV,4,1,13,01,55,289,21,02,73,220,27,03,27,264,15,08,19,212,11,0*63
$GPGSV,4,2,13,10,29,083,11,14,02,300,,17,19,323,24,19,00,341,,0*60
$GPGSV,4,3,13,22,08,316,,24,03,018,,28,21,127,,31,04,149,,0*67
$GPGSV,4,4,13,32,58,078,21,0*57
$GLGSV,3,1,10,70,32,049,,71,82,051,08,72,42,227,11,78,01,320,,0*7A
$GLGSV,3,2,10,79,17,005,,80,13,057,,85,01,154,08,86,55,172,11,0*72
$GLGSV,3,3,10,87,68,295,18,88,10,326,19,0*70
$GAGSV,1,1,00,0*74
$GNGLL,5552.33267,N,03800.08285,E,123507.00,A,A*7D

$GNRMC,123508.00,A,5552.33359,N,03800.08443,E,0.943,,120625,,,A,V*1D
$GNVTG,,T,,M,0.943,N,1.746,K,A*37
$GNGGA,123508.00,5552.33359,N,03800.08443,E,1,10,0.99,158.3,M,12.9,M,,*43

$GNGSA,A,3,08,01,02,10,32,,,,,,,,1.58,0.99,1.22,1*07
$GNGSA,A,3,88,86,71,87,72,,,,,,,,1.58,0.99,1.22,2*0D
$GNGSA,A,3,,,,,,,,,,,,,1.58,0.99,1.22,3*0E
$GPGSV,4,1,13,01,55,289,23,02,73,220,26,03,27,264,13,08,19,212,10,0*67
$GPGSV,4,2,13,10,29,083,15,14,02,300,,17,19,323,22,19,00,341,,0*62
$GPGSV,4,3,13,22,08,316,,24,03,018,,28,21,127,,31,04,149,,0*67
$GPGSV,4,4,13,32,58,078,22,0*54
$GLGSV,3,1,10,70,32,049,,71,82,051,10,72,42,227,11,78,01,320,,0*73
$GLGSV,3,2,10,79,17,005,,80,13,057,,85,01,154,08,86,55,172,10,0*73
$GLGSV,3,3,10,87,68,295,18,88,10,326,16,0*7F
$GAGSV,1,1,00,0*74
$GNGLL,5552.33359,N,03800.08443,E,123508.00,A,A*72

$GNRMC,123509.00,A,5552.33387,N,03800.08458,E,0.906,,120625,,,A,V*14
$GNVTG,,T,,M,0.906,N,1.677,K,A*35

$GNGGA,123509.00,5552.33387,N,03800.08458,E,1,10,0.99,158.1,M,12.9,M,,*49
$GNGSA,A,3,08,01,02,10,32,,,,,,,,1.58,0.99,1.22,1*07
$GNGSA,A,3,88,86,71,87,72,,,,,,,,1.58,0.99,1.22,2*0D
$GNGSA,A,3,,,,,,,,,,,,,1.58,0.99,1.22,3*0E
$GPGSV,4,1,13,01,55,289,25,02,73,220,26,03,27,264,12,08,19,212,10,0*60
$GPGSV,4,2,13,10,29,083,18,14,02,300,,17,19,323,20,19,00,341,,0*6D
$GPGSV,4,3,13,22,08,316,,24,03,018,,28,21,127,,31,04,149,,0*67
$GPGSV,4,4,13,32,58,078,23,0*55
$GLGSV,3,1,10,70,32,049,,71,82,051,14,72,42,227,11,78,01,320,,0*77
$GLGSV,3,2,10,79,17,005,,80,13,057,,85,01,154,09,86,55,172,14,0*76
$GLGSV,3,3,10,87,68,295,17,88,10,326,15,0*73
$GAGSV,1,1,00,0*74
$GNGLL,5552.33387,N,03800.08458,E,123509.00,A,A*7A

$GNRMC,123510.00,A,5552.33338,N,03800.08451,E,0.412,,120625,,,A,V*19
$GNVTG,,T,,M,0.412,N,0.763,K,A*38

$GNGGA,123510.00,5552.33338,N,03800.08451,E,1,10,0.99,158.0,M,12.9,M,,*4D
$GNGSA,A,3,08,01,02,10,32,,,,,,,,1.58,0.99,1.22,1*07
$GNGSA,A,3,88,86,71,87,72,,,,,,,,1.58,0.99,1.22,2*0D
$GNGSA,A,3,,,,,,,,,,,,,1.58,0.99,1.22,3*0E
$GPGSV,4,1,13,01,55,289,26,02,73,220,25,03,27,264,13,08,19,212,08,0*68
$GPGSV,4,2,13,10,29,083,19,14,02,300,,17,19,323,19,19,00,341,,0*66
$GPGSV,4,3,13,22,08,316,,24,03,018,,28,21,127,,31,04,149,,0*67
$GPGSV,4,4,13,32,58,078,23,0*55
$GLGSV,3,1,10,70,32,049,,71,82,051,16,72,42,227,15,78,01,320,,0*71
$GLGSV,3,2,10,79,17,005,,80,13,057,,85,01,154,05,86,55,172,13,0*7D
$GLGSV,3,3,10,87,68,295,16,88,10,326,15,0*72
$GAGSV,1,1,00,0*74
$GNGLL,5552.33338,N,03800.08451,E,123510.00,A,A*7F

$GNRMC,123511.00,A,5552.33376,N,03800.08592,E,0.490,,120625,,,A,V*16
$GNVTG,,T,,M,0.490,N,0.908,K,A*31

$GNGGA,123511.00,5552.33376,N,03800.08592,E,1,10,0.99,159.2,M,12.9,M,,*4B
$GNGSA,A,3,08,01,02,10,32,,,,,,,,1.58,0.99,1.22,1*07
$GNGSA,A,3,88,86,71,87,72,,,,,,,,1.58,0.99,1.22,2*0D
$GNGSA,A,3,,,,,,,,,,,,,1.58,0.99,1.22,3*0E
$GPGSV,4,1,13,01,55,289,27,02,73,220,25,03,27,264,13,08,19,212,10,0*60
$GPGSV,4,2,13,10,29,083,20,14,02,300,,17,19,323,17,19,00,341,,0*62
$GPGSV,4,3,13,22,08,316,,24,03,018,,28,21,127,,31,04,149,,0*67
$GPGSV,4,4,13,32,58,078,23,0*55
$GLGSV,3,1,10,70,32,049,,71,82,051,09,72,42,227,13,78,01,320,,0*79
$GLGSV,3,2,10,79,17,005,,80,13,057,,85,01,154,09,86,55,172,13,0*71
$GLGSV,3,3,10,87,68,295,16,88,10,326,14,0*73
$GAGSV,1,1,00,0*74
$GNGLL,5552.33376,N,03800.08592,E,123511.00,A,A*7A

$GNRMC,123512.00,A,5552.33399,N,03800.08655,E,0.249,,120625,,,A,V*1E
$GNVTG,,T,,M,0.249,N,0.462,K,A*32

$GNGGA,123512.00,5552.33399,N,03800.08655,E,1,10,0.99,159.3,M,12.9,M,,*40
$GNGSA,A,3,08,01,02,10,32,,,,,,,,1.58,0.99,1.22,1*07
$GNGSA,A,3,88,86,71,87,72,,,,,,,,1.58,0.99,1.22,2*0D
$GNGSA,A,3,,,,,,,,,,,,,1.58,0.99,1.22,3*0E
$GPGSV,4,1,13,01,55,289,26,02,73,220,24,03,27,264,,08,19,212,09,0*6A
$GPGSV,4,2,13,10,29,083,18,14,02,300,,17,19,323,14,19,00,341,,0*6A
$GPGSV,4,3,13,22,08,316,,24,03,018,,28,21,127,,31,04,149,,0*67
$GPGSV,4,4,13,32,58,078,22,0*54
$GLGSV,3,1,10,70,32,049,,71,82,051,10,72,42,227,15,78,01,320,,0*77
$GLGSV,3,2,10,79,17,005,,80,13,057,,85,01,154,10,86,55,172,15,0*7F
$GLGSV,3,3,10,87,68,295,15,88,10,326,13,0*77
$GAGSV,1,1,00,0*74
$GNGLL,5552.33399,N,03800.08655,E,123512.00,A,A*70

$GNRMC,123513.00,A,5552.33402,N,03800.08673,E,0.280,,120625,,,A,V*1B

$GNVTG,,T,,M,0.280,N,0.518,K,A*3B
$GNGGA,123513.00,5552.33402,N,03800.08673,E,1,10,0.99,159.1,M,12.9,M,,*42
$GNGSA,A,3,08,01,02,10,32,,,,,,,,1.58,0.99,1.22,1*07
$GNGSA,A,3,88,86,71,87,72,,,,,,,,1.58,0.99,1.22,2*0D
$GNGSA,A,3,,,,,,,,,,,,,1.58,0.99,1.22,3*0E
$GPGSV,4,1,13,01,55,289,26,02,73,220,24,03,27,264,,08,19,212,11,0*63
$GPGSV,4,2,13,10,29,083,18,14,02,300,,17,19,323,10,19,00,341,,0*6E
$GPGSV,4,3,13,22,08,316,,24,03,018,,28,21,127,,31,04,149,,0*67
$GPGSV,4,4,13,32,58,078,22,0*54
$GLGSV,3,1,10,70,31,050,,71,82,051,08,72,42,227,17,78,01,320,,0*77
$GLGSV,3,2,10,79,17,005,,80,13,057,,85,01,154,09,86,55,172,13,0*71
$GLGSV,3,3,10,87,68,295,14,88,10,326,15,0*70
$GAGSV,1,1,00,0*74
$GNGLL,5552.33402,N,03800.08673,E,123513.00,A,A*70

$GNRMC,123514.00,A,5552.33397,N,03800.08700,E,0.341,,120625,,,A,V*1E
$GNVTG,,T,,M,0.341,N,0.632,K,A*3C

$GNGGA,123514.00,5552.33397,N,03800.08700,E,1,10,0.99,159.1,M,12.9,M,,*4B
$GNGSA,A,3,08,01,02,10,32,,,,,,,,1.58,0.99,1.22,1*07
$GNGSA,A,3,88,86,71,87,72,,,,,,,,1.58,0.99,1.22,2*0D
$GNGSA,A,3,,,,,,,,,,,,,1.58,0.99,1.22,3*0E
$GPGSV,4,1,13,01,55,289,26,02,73,220,24,03,27,264,,08,19,212,08,0*6B
$GPGSV,4,2,13,10,29,083,17,14,02,300,,17,19,323,11,19,00,341,,0*60
$GPGSV,4,3,13,22,08,316,,24,03,018,,28,21,127,,31,04,149,,0*67
$GPGSV,4,4,13,32,58,078,22,0*54
$GLGSV,3,1,10,70,31,050,,71,82,050,11,72,42,227,16,78,01,320,,0*7F
$GLGSV,3,2,10,79,17,005,,80,13,057,,85,01,154,07,86,55,172,09,0*74
$GLGSV,3,3,10,87,68,295,11,88,10,326,16,0*76
$GAGSV,1,1,00,0*74
$GNGLL,5552.33397,N,03800.08700,E,123514.00,A,A*79

$GNRMC,123515.00,A,5552.33378,N,03800.08686,E,0.725,,120625,,,A,V*17
$GNVTG,,T,,M,0.725,N,1.342,K,A*39
$GNGGA,123515.00,5552.33378,N,03800.08686,E,1,10,0.99,158.9,M,12.9,M,,*4D
$GNGSA,A,3,08,01,02,10,32,,,,,,,,1.58,0.99,1.22,1*07
$GNGSA,A,3,88,86,71,87,72,,,,,,,,1.58,0.99,1.22,2*0D
$GNGSA,A,3,,,,,,,,,,,,,1.58,0.99,1.22,3*0E
$GPGSV,4,1,13,01,55,289,25,02,73,220,25,03,27,264,,08,19,212,08,0*69

$GPGSV,4,2,13,10,29,083,17,14,02,300,,17,19,323,15,19,00,341,,0*64
$GPGSV,4,3,13,22,08,316,,24,03,018,,28,21,127,,31,04,149,,0*67
$GPGSV,4,4,13,32,58,078,23,0*55
$GLGSV,3,1,10,70,31,050,,71,82,050,13,72,43,228,17,78,01,320,,0*72
$GLGSV,3,2,10,79,17,005,,80,13,057,,85,01,154,08,86,55,172,10,0*73
$GLGSV,3,3,10,87,68,295,10,88,10,326,18,0*79
$GAGSV,1,1,00,0*74
$GNGLL,5552.33378,N,03800.08686,E,123515.00,A,A*76

$GNRMC,123516.00,A,5552.33437,N,03800.08779,E,0.272,,120625,,,A,V*1E
$GNVTG,,T,,M,0.272,N,0.503,K,A*3C

$GNGGA,123516.00,5552.33437,N,03800.08779,E,1,09,1.02,158.6,M,12.9,M,,*47
$GNGSA,A,3,08,01,02,10,32,,,,,,,,1.66,1.02,1.31,1*0B
$GNGSA,A,3,88,86,71,72,,,,,,,,,1.66,1.02,1.31,2*0E
$GNGSA,A,3,,,,,,,,,,,,,1.66,1.02,1.31,3*02
$GPGSV,4,1,13,01,55,289,25,02,73,220,24,03,27,264,,08,19,212,10,0*61
$GPGSV,4,2,13,10,29,083,16,14,02,300,,17,19,323,17,19,00,341,,0*67
$GPGSV,4,3,13,22,08,316,,24,03,018,,28,21,127,,31,04,149,,0*67
$GPGSV,4,4,13,32,58,078,24,0*52
$GLGSV,3,1,10,70,31,050,,71,82,050,10,72,43,228,18,78,01,320,,0*7E
$GLGSV,3,2,10,79,17,005,,80,13,057,,85,01,154,10,86,55,172,13,0*79
$GLGSV,3,3,10,87,68,295,09,88,10,326,17,0*7E
$GAGSV,1,1,00,0*74
$GNGLL,5552.33437,N,03800.08779,E,123516.00,A,A*78

$GNRMC,123517.00,A,5552.33405,N,03800.08775,E,0.142,,120625,,,A,V*12
$GNVTG,,T,,M,0.142,N,0.263,K,A*3D

$GNGGA,123517.00,5552.33405,N,03800.08775,E,1,10,0.99,157.6,M,12.9,M,,*4F
$GNGSA,A,3,08,01,02,10,32,,,,,,,,1.58,0.99,1.22,1*07
$GNGSA,A,3,88,86,71,87,72,,,,,,,,1.58,0.99,1.22,2*0D
$GNGSA,A,3,,,,,,,,,,,,,1.58,0.99,1.22,3*0E
$GPGSV,4,1,13,01,55,289,24,02,73,220,24,03,27,264,,08,19,212,10,0*60
$GPGSV,4,2,13,10,29,083,15,14,02,300,,17,19,323,18,19,00,341,,0*6B
$GPGSV,4,3,13,22,08,316,,24,03,018,,28,21,127,,31,04,149,,0*67
$GPGSV,4,4,13,32,58,078,24,0*52
$GLGSV,3,1,10,70,31,050,,71,82,050,08,72,43,228,18,78,01,320,,0*77
$GLGSV,3,2,10,79,17,005,,80,13,057,,85,01,154,10,86,55,172,09,0*72
$GLGSV,3,3,10,87,68,295,12,88,10,326,18,0*7B
$GAGSV,1,1,00,0*74
$GNGLL,5552.33405,N,03800.08775,E,123517.00,A,A*74

$GNRMC,123518.00,A,5552.33425,N,03800.08832,E,0.226,,120625,,,A,V*12
$GNVTG,,T,,M,0.226,N,0.418,K,A*36

$GNGGA,123518.00,5552.33425,N,03800.08832,E,1,09,1.05,157.8,M,12.9,M,,*4C
$GNGSA,A,3,08,01,02,10,32,,,,,,,,1.61,1.05,1.23,1*08
$GNGSA,A,3,88,71,87,72,,,,,,,,,1.61,1.05,1.23,2*0C
$GNGSA,A,3,,,,,,,,,,,,,1.61,1.05,1.23,3*01
$GPGSV,4,1,13,01,55,289,24,02,73,220,25,03,27,264,,08,19,212,09,0*69
$GPGSV,4,2,13,10,29,083,13,14,02,300,,17,19,323,18,19,00,341,,0*6D
$GPGSV,4,3,13,22,08,316,,24,03,018,,28,21,127,,31,04,149,,0*67
$GPGSV,4,4,13,32,58,078,24,0*52
$GLGSV,3,1,10,70,31,050,,71,82,050,12,72,43,228,14,78,01,320,,0*70
$GLGSV,3,2,10,79,17,005,,80,13,057,,85,01,154,09,86,55,172,07,0*74
$GLGSV,3,3,10,87,68,295,14,88,10,326,18,0*7D
$GAGSV,1,1,00,0*74
$GNGLL,5552.33425,N,03800.08832,E,123518.00,A,A*75

$GNRMC,123519.00,A,5552.33435,N,03800.08854,E,0.134,,120625,,,A,V*12
$GNVTG,,T,,M,0.134,N,0.248,K,A*35

$GNGGA,123519.00,5552.33435,N,03800.08854,E,1,10,0.99,157.6,M,12.9,M,,*4E
$GNGSA,A,3,08,01,02,10,32,,,,,,,,1.58,0.99,1.22,1*07
$GNGSA,A,3,88,86,71,87,72,,,,,,,,1.58,0.99,1.22,2*0D
$GNGSA,A,3,,,,,,,,,,,,,1.58,0.99,1.22,3*0E
$GPGSV,4,1,13,01,55,289,24,02,73,220,24,03,27,264,,08,19,212,12,0*62
$GPGSV,4,2,13,10,29,083,13,14,02,300,,17,19,323,19,19,00,341,,0*6C
$GPGSV,4,3,13,22,08,316,,24,03,018,,28,21,127,,31,04,149,,0*67
$GPGSV,4,4,13,32,58,078,25,0*53
$GLGSV,3,1,10,70,31,050,,71,82,050,09,72,43,228,14,78,01,320,,0*7A
$GLGSV,3,2,10,79,17,005,,80,13,057,,85,01,154,09,86,55,172,12,0*70
$GLGSV,3,3,10,87,68,295,16,88,10,326,18,0*7F
$GAGSV,1,1,00,0*74
$GNGLL,5552.33435,N,03800.08854,E,123519.00,A,A*75

$GNRMC,123520.00,A,5552.33468,N,03800.08967,E,0.805,,120625,,,A,V*1A
$GNVTG,,T,,M,0.805,N,1.492,K,A*3E
$GNGGA,123520.00,5552.33468,N,03800.08967,E,1,10,0.99,157.9,M,12.9,M,,*42

$GNGSA,A,3,08,01,02,10,32,,,,,,,,1.58,0.99,1.22,1*07
$GNGSA,A,3,88,86,71,87,72,,,,,,,,1.58,0.99,1.22,2*0D
$GNGSA,A,3,,,,,,,,,,,,,1.58,0.99,1.22,3*0E
$GPGSV,4,1,13,01,55,289,24,02,73,220,24,03,27,264,,08,19,212,12,0*62
$GPGSV,4,2,13,10,29,083,12,14,02,300,,17,19,323,21,19,00,341,,0*66
$GPGSV,4,3,13,22,08,316,,24,03,018,,28,21,127,,31,04,149,,0*67
$GPGSV,4,4,13,32,58,078,24,0*52
$GLGSV,3,1,10,70,31,050,,71,82,050,11,72,43,228,10,78,01,320,,0*77
$GLGSV,3,2,10,79,17,005,,80,13,057,,85,01,154,09,86,55,172,13,0*71
$GLGSV,3,3,10,87,68,295,17,88,10,326,18,0*7E
$GAGSV,1,1,00,0*74
$GNGLL,5552.33468,N,03800.08967,E,123520.00,A,A*76

$GNRMC,123521.00,A,5552.33472,N,03800.09064,E,1.116,,120625,,,A,V*11

$GNVTG,,T,,M,1.116,N,2.067,K,A*39
$GNGGA,123521.00,5552.33472,N,03800.09064,E,1,10,0.99,157.9,M,12.9,M,,*43
$GNGSA,A,3,08,01,02,10,32,,,,,,,,1.58,0.99,1.22,1*07
$GNGSA,A,3,88,86,71,87,72,,,,,,,,1.58,0.99,1.22,2*0D
$GNGSA,A,3,,,,,,,,,,,,,1.58,0.99,1.22,3*0E
$GPGSV,4,1,13,01,55,289,25,02,73,220,24,03,27,264,,08,19,212,11,0*60
$GPGSV,4,2,13,10,29,083,11,14,02,300,,17,19,323,20,19,00,341,,0*64
$GPGSV,4,3,13,22,08,316,,24,03,018,,28,21,127,,31,04,149,,0*67
$GPGSV,4,4,13,32,58,078,23,0*55
$GLGSV,3,1,10,70,31,050,,71,82,050,09,72,43,228,11,78,00,319,,0*74
$GLGSV,3,2,10,79,17,005,,80,13,057,,85,01,154,11,86,55,172,12,0*79
$GLGSV,3,3,10,87,68,295,19,88,10,326,19,0*71
$GAGSV,1,1,00,0*74
$GNGLL,5552.33472,N,03800.09064,E,123521.00,A,A*77

$GNRMC,123522.00,A,5552.33519,N,03800.09065,E,0.879,,120625,,,A,V*1E
$GNVTG,,T,,M,0.879,N,1.628,K,A*36

$GNGGA,123522.00,5552.33519,N,03800.09065,E,1,09,1.31,157.8,M,12.9,M,,*47
$GNGSA,A,3,08,01,02,32,,,,,,,,,1.97,1.31,1.48,1*0A
$GNGSA,A,3,88,86,71,87,72,,,,,,,,1.97,1.31,1.48,2*01
$GNGSA,A,3,,,,,,,,,,,,,1.97,1.31,1.48,3*02
$GPGSV,4,1,13,01,55,289,25,02,73,220,24,03,27,264,,08,19,212,09,0*69
$GPGSV,4,2,13,10,29,083,10,14,02,300,,17,19,323,20,19,00,341,,0*65
$GPGSV,4,3,13,22,08,316,,24,03,018,,28,21,127,,31,04,149,,0*67
$GPGSV,4,4,13,32,58,078,23,0*55
$GLGSV,3,1,10,70,31,050,,71,82,050,14,72,43,228,09,78,00,319,,0*71
$GLGSV,3,2,10,79,16,005,,80,13,057,,85,01,154,09,86,55,172,08,0*7A
$GLGSV,3,3,10,87,68,295,20,88,10,326,18,0*7A
$GAGSV,1,1,00,0*74
$GNGLL,5552.33519,N,03800.09065,E,123522.00,A,A*79

$GNRMC,123523.00,A,5552.33606,N,03800.09115,E,1.019,,120625,,,A,V*1B
$GNVTG,,T,,M,1.019,N,1.886,K,A*33

$GNGGA,123523.00,5552.33606,N,03800.09115,E,1,10,0.99,158.6,M,12.9,M,,*47
$GNGSA,A,3,08,01,02,10,32,,,,,,,,1.58,0.99,1.22,1*07
$GNGSA,A,3,88,86,71,87,72,,,,,,,,1.58,0.99,1.22,2*0D
$GNGSA,A,3,,,,,,,,,,,,,1.58,0.99,1.22,3*0E
$GPGSV,4,1,13,01,55,289,25,02,73,220,25,03,27,264,,08,19,212,08,0*69
$GPGSV,4,2,13,10,29,083,11,14,02,300,,17,19,323,20,19,00,341,,0*64
$GPGSV,4,3,13,22,08,316,,24,03,018,,28,21,127,,31,04,149,,0*67
$GPGSV,4,4,13,32,58,078,22,0*54
$GLGSV,3,1,10,70,31,050,,71,82,050,11,72,43,228,10,78,00,319,,0*7C
$GLGSV,3,2,10,79,16,005,,80,13,057,,85,01,154,07,86,55,172,08,0*74
$GLGSV,3,3,10,87,68,295,21,88,10,326,17,0*74
$GAGSV,1,1,00,0*74
$GNGLL,5552.33606,N,03800.09115,E,123523.00,A,A*73

$GNRMC,123524.00,A,5552.33645,N,03800.09200,E,1.241,,120625,,,A,V*13
$GNVTG,,T,,M,1.241,N,2.299,K,A*3B

$GNGGA,123524.00,5552.33645,N,03800.09200,E,1,09,1.23,158.8,M,12.9,M,,*46
$GNGSA,A,3,01,02,10,32,,,,,,,,,2.02,1.23,1.60,1*05
$GNGSA,A,3,88,86,71,87,72,,,,,,,,2.02,1.23,1.60,2*07
$GNGSA,A,3,,,,,,,,,,,,,2.02,1.23,1.60,3*04
$GPGSV,4,1,13,01,55,289,25,02,73,220,24,03,27,264,,08,19,212,07,0*67
$GPGSV,4,2,13,10,29,083,12,14,02,300,,17,19,323,20,19,00,341,,0*67
$GPGSV,4,3,13,22,08,316,,24,03,018,,28,21,127,,31,04,149,,0*67
$GPGSV,4,4,13,32,58,078,22,0*54
$GLGSV,3,1,10,70,31,050,,71,82,050,10,72,43,228,10,78,00,319,,0*7D
$GLGSV,3,2,10,79,16,005,,80,13,057,,85,01,154,07,86,55,172,08,0*74
$GLGSV,3,3,10,87,68,295,20,88,10,326,18,0*7A
$GAGSV,1,1,00,0*74
$GNGLL,5552.33645,N,03800.09200,E,123524.00,A,A*74

$GNRMC,123525.00,A,5552.33661,N,03800.09218,E,1.027,,120625,,,A,V*1F
$GNVTG,,T,,M,1.027,N,1.902,K,A*33

$GNGGA,123525.00,5552.33661,N,03800.09218,E,1,10,0.99,158.9,M,12.9,M,,*41
$GNGSA,A,3,08,01,02,10,32,,,,,,,,1.57,0.99,1.22,1*08
$GNGSA,A,3,88,86,71,87,72,,,,,,,,1.57,0.99,1.22,2*02
$GNGSA,A,3,,,,,,,,,,,,,1.57,0.99,1.22,3*01
$GPGSV,4,1,13,01,55,289,25,02,73,220,23,03,27,264,,08,19,212,07,0*60
$GPGSV,4,2,13,10,29,083,11,14,02,300,,17,19,323,21,19,00,341,,0*65
$GPGSV,4,3,13,22,08,316,,24,03,018,,28,21,127,,31,04,149,,0*67
$GPGSV,4,4,13,32,58,078,21,0*57
$GLGSV,3,1,10,70,31,050,,71,82,050,17,72,43,228,17,78,00,319,,0*7D
$GLGSV,3,2,10,79,16,005,,80,13,057,,85,01,154,10,86,55,172,09,0*73
$GLGSV,3,3,10,87,68,295,20,88,10,326,18,0*7A
$GAGSV,1,1,00,0*74
$GNGLL,5552.33661,N,03800.09218,E,123525.00,A,A*7A

$GNRMC,123526.00,A,5552.33726,N,03800.09287,E,1.315,,120625,,,A,V*1A
$GNVTG,,T,,M,1.315,N,2.436,K,A*38
$GNGGA,123526.00,5552.33726,N,03800.09287,E,1,10,0.99,159.5,M,12.9,M,,*4B

$GNGSA,A,3,08,01,02,10,32,,,,,,,,1.57,0.99,1.22,1*08
$GNGSA,A,3,88,86,71,87,72,,,,,,,,1.57,0.99,1.22,2*02
$GNGSA,A,3,,,,,,,,,,,,,1.57,0.99,1.22,3*01
$GPGSV,4,1,13,01,55,289,24,02,73,220,23,03,27,264,,08,19,212,10,0*67
$GPGSV,4,2,13,10,29,083,09,14,02,300,,17,19,323,22,19,00,341,,0*6F
$GPGSV,4,3,13,22,08,316,,24,03,018,,28,21,127,,31,04,149,,0*67
$GPGSV,4,4,13,32,58,078,22,0*54
$GLGSV,3,1,10,70,31,050,,71,82,050,13,72,43,228,17,78,00,319,,0*79
$GLGSV,3,2,10,79,16,005,,80,13,057,,85,01,154,08,86,55,172,10,0*72
$GLGSV,3,3,10,87,68,295,20,88,10,326,18,0*7A
$GAGSV,1,1,00,0*74
$GNGLL,5552.33726,N,03800.09287,E,123526.00,A,A*7D

$GNRMC,123527.00,A,5552.33730,N,03800.09281,E,0.961,,120625,,,A,V*12
$GNVTG,,T,,M,0.961,N,1.780,K,A*3D

$GNGGA,123527.00,5552.33730,N,03800.09281,E,1,10,0.99,159.7,M,12.9,M,,*49
$GNGSA,A,3,08,01,02,10,32,,,,,,,,1.57,0.99,1.22,1*08
$GNGSA,A,3,88,86,71,87,72,,,,,,,,1.57,0.99,1.22,2*02
$GNGSA,A,3,,,,,,,,,,,,,1.57,0.99,1.22,3*01
$GPGSV,4,1,13,01,55,289,24,02,73,220,23,03,27,264,,08,19,212,11,0*66
$GPGSV,4,2,13,10,29,083,12,14,02,300,,17,19,323,23,19,00,341,,0*64
$GPGSV,4,3,13,22,08,316,,24,03,018,,28,21,127,,31,04,149,,0*67
$GPGSV,4,4,13,32,58,078,22,0*54
$GLGSV,3,1,10,70,31,050,,71,82,050,12,72,43,228,16,78,00,319,,0*79
$GLGSV,3,2,10,79,16,005,,80,13,057,,85,01,154,09,86,55,172,10,0*73
$GLGSV,3,3,10,87,68,295,19,88,10,326,17,0*7F
$GAGSV,1,1,00,0*74
$GNGLL,5552.33730,N,03800.09281,E,123527.00,A,A*7D

$GNRMC,123528.00,A,5552.33668,N,03800.09341,E,0.900,,120625,,,A,V*1B
$GNVTG,,T,,M,0.900,N,1.666,K,A*33
$GNGGA,123528.00,5552.33668,N,03800.09341,E,1,10,0.99,160.0,M,12.9,M,,*4A

$GNGSA,A,3,08,01,02,10,32,,,,,,,,1.57,0.99,1.22,1*08
$GNGSA,A,3,88,86,71,87,72,,,,,,,,1.57,0.99,1.22,2*02
$GNGSA,A,3,,,,,,,,,,,,,1.57,0.99,1.22,3*01
$GPGSV,4,1,13,01,55,289,22,02,73,220,22,03,27,264,,08,19,212,09,0*68
$GPGSV,4,2,13,10,29,083,11,14,02,300,,17,19,323,22,19,00,341,,0*66
$GPGSV,4,3,13,22,08,316,,24,03,018,,28,21,127,,31,04,149,,0*67
$GPGSV,4,4,13,32,58,078,20,0*56
$GLGSV,3,1,10,70,31,050,,71,82,050,11,72,43,228,11,78,00,319,,0*7D
$GLGSV,3,2,10,79,16,005,,80,13,057,,85,00,154,06,86,55,172,11,0*7C
$GLGSV,3,3,10,87,68,295,18,88,10,326,16,0*7F
$GAGSV,1,1,00,0*74
$GNGLL,5552.33668,N,03800.09341,E,123528.00,A,A*73

$GNRMC,123529.00,A,5552.33539,N,03800.09292,E,1.142,,120625,,,A,V*1D
$GNVTG,,T,,M,1.142,N,2.116,K,A*3F

$GNGGA,123529.00,5552.33539,N,03800.09292,E,1,10,0.99,159.8,M,12.9,M,,*41
$GNGSA,A,3,08,01,02,10,32,,,,,,,,1.57,0.99,1.22,1*08
$GNGSA,A,3,88,86,71,87,72,,,,,,,,1.57,0.99,1.22,2*02
$GNGSA,A,3,,,,,,,,,,,,,1.57,0.99,1.22,3*01
$GPGSV,4,1,13,01,55,289,20,02,73,220,21,03,27,264,,08,19,212,11,0*60
$GPGSV,4,2,13,10,29,083,10,14,02,300,,17,19,323,20,19,00,341,,0*65
$GPGSV,4,3,13,22,08,316,,24,03,018,,28,21,127,,31,04,149,,0*67
$GPGSV,4,4,13,32,58,078,18,0*5D
$GLGSV,3,1,10,70,31,050,,71,82,050,09,72,43,228,10,78,00,319,,0*75
$GLGSV,3,2,10,79,16,005,,80,13,057,,85,00,154,10,86,54,172,10,0*7B
$GLGSV,3,3,10,87,68,295,15,88,10,326,14,0*70
$GAGSV,1,1,00,0*74
$GNGLL,5552.33539,N,03800.09292,E,123529.00,A,A*7A

$GNRMC,123530.00,A,5552.33547,N,03800.09219,E,0.469,,120625,,,A,V*12
$GNVTG,,T,,M,0.469,N,0.868,K,A*30
$GNGGA,123530.00,5552.33547,N,03800.09219,E,1,10,0.99,159.8,M,12.9,M,,*43

$GNGSA,A,3,08,01,02,10,32,,,,,,,,1.57,0.99,1.22,1*08
$GNGSA,A,3,88,86,71,87,72,,,,,,,,1.57,0.99,1.22,2*02
$GNGSA,A,3,,,,,,,,,,,,,1.57,0.99,1.22,3*01
$GPGSV,4,1,13,01,55,289,18,02,73,220,19,03,27,264,,08,19,212,09,0*69
$GPGSV,4,2,13,10,29,083,11,14,02,300,,17,19,323,17,19,00,341,,0*60
$GPGSV,4,3,13,22,08,316,,24,03,018,,28,21,127,,31,04,149,,0*67
$GPGSV,4,4,13,32,58,078,15,0*50
$GLGSV,3,1,10,70,31,050,,71,82,050,12,72,43,228,12,78,00,319,,0*7D
$GLGSV,3,2,10,79,16,005,,80,13,057,,85,00,154,09,86,54,172,11,0*72
$GLGSV,3,3,10,87,68,293,11,88,10,326,11,0*77
$GAGSV,1,1,00,0*74
$GNGLL,5552.33547,N,03800.09219,E,123530.00,A,A*78

$GNRMC,123531.00,A,5552.33516,N,03800.09075,E,0.870,,120625,,,A,V*1B
$GNVTG,,T,,M,0.870,N,1.612,K,A*36

$GNGGA,123531.00,5552.33516,N,03800.09075,E,1,10,0.99,159.9,M,12.9,M,,*4F
$GNGSA,A,3,08,01,02,10,32,,,,,,,,1.57,0.99,1.22,1*08
$GNGSA,A,3,88,86,71,87,72,,,,,,,,1.57,0.99,1.22,2*02
$GNGSA,A,3,,,,,,,,,,,,,1.57,0.99,1.22,3*01
$GPGSV,4,1,13,01,55,289,18,02,73,220,18,03,27,264,,08,19,212,08,0*69
$GPGSV,4,2,13,10,29,083,09,14,02,300,,17,19,323,16,19,00,341,,0*68
$GPGSV,4,3,13,22,08,316,,24,03,018,,28,21,127,,31,04,149,,0*67
$GPGSV,4,4,13,32,58,078,13,0*56
$GLGSV,3,1,10,70,31,050,,71,82,050,19,72,43,228,11,78,00,319,,0*75
$GLGSV,3,2,10,79,16,005,,80,13,057,,85,00,154,09,86,54,172,19,0*7A
$GLGSV,3,3,10,87,68,293,14,88,11,326,14,0*76
$GAGSV,1,1,00,0*74
$GNGLL,5552.33516,N,03800.09075,E,123531.00,A,A*75

$GNRMC,123532.00,A,5552.33553,N,03800.09206,E,0.345,,120625,,,A,V*12
$GNVTG,,T,,M,0.345,N,0.638,K,A*32

$GNGGA,123532.00,5552.33553,N,03800.09206,E,1,10,0.99,159.7,M,12.9,M,,*45
$GNGSA,A,3,08,01,02,10,32,,,,,,,,1.57,0.99,1.22,1*08
$GNGSA,A,3,88,86,71,87,72,,,,,,,,1.57,0.99,1.22,2*02
$GNGSA,A,3,,,,,,,,,,,,,1.57,0.99,1.22,3*01
$GPGSV,4,1,13,01,56,288,17,02,73,220,19,03,27,264,,08,19,212,09,0*64
$GPGSV,4,2,13,10,29,083,15,14,02,300,,17,19,323,14,19,00,341,,0*67
$GPGSV,4,3,13,22,08,316,,24,03,018,,28,21,127,,31,04,149,,0*67
$GPGSV,4,4,13,32,58,078,14,0*51
$GLGSV,3,1,10,70,31,050,,71,82,050,18,72,43,228,19,78,00,319,,0*7C
$GLGSV,3,2,10,79,16,005,,80,13,057,,85,00,154,09,86,54,172,22,0*72
$GLGSV,3,3,10,87,68,293,17,88,11,326,16,0*77
$GAGSV,1,1,00,0*74
$GNGLL,5552.33553,N,03800.09206,E,123532.00,A,A*71

$GNRMC,123533.00,A,5552.33547,N,03800.09196,E,0.300,,120625,,,A,V*1D
$GNVTG,,T,,M,0.300,N,0.556,K,A*38
$GNGGA,123533.00,5552.33547,N,03800.09196,E,1,10,0.99,160.0,M,12.9,M,,*46

$GNGSA,A,3,08,01,02,10,32,,,,,,,,1.57,0.99,1.22,1*08
$GNGSA,A,3,88,86,71,87,72,,,,,,,,1.57,0.99,1.22,2*02
$GNGSA,A,3,,,,,,,,,,,,,1.57,0.99,1.22,3*01
$GPGSV,4,1,13,01,56,288,14,02,73,218,20,03,27,264,,08,19,212,11,0*6F
$GPGSV,4,2,13,10,29,083,21,14,02,300,,17,19,323,15,19,00,341,,0*61
$GPGSV,4,3,13,22,08,316,,24,03,018,,28,21,127,,31,04,149,,0*67
$GPGSV,4,4,13,32,58,078,19,0*5C
$GLGSV,3,1,10,70,31,050,,71,82,050,23,72,43,228,28,78,00,319,,0*76
$GLGSV,3,2,10,79,16,005,,80,13,057,,85,00,154,07,86,54,172,26,0*78
$GLGSV,3,3,10,87,68,293,22,88,11,326,20,0*74
$GAGSV,1,1,00,0*74
$GNGLL,5552.33547,N,03800.09196,E,123533.00,A,A*7F

$GNRMC,123534.00,A,5552.33528,N,03800.09236,E,0.332,,120625,,,A,V*1B
$GNVTG,,T,,M,0.332,N,0.616,K,A*3E

$GNGGA,123534.00,5552.33528,N,03800.09236,E,1,10,0.99,160.0,M,12.9,M,,*41
$GNGSA,A,3,08,01,02,10,32,,,,,,,,1.57,0.99,1.22,1*08
$GNGSA,A,3,88,86,71,87,72,,,,,,,,1.57,0.99,1.22,2*02
$GNGSA,A,3,,,,,,,,,,,,,1.57,0.99,1.22,3*01
$GPGSV,4,1,13,01,56,288,12,02,73,218,19,03,28,265,,08,19,212,10,0*6C
$GPGSV,4,2,13,10,29,083,17,14,02,300,,17,19,323,17,19,00,341,,0*66
$GPGSV,4,3,13,22,08,316,,24,03,018,,28,21,127,,31,04,149,,0*67
$GPGSV,4,4,13,32,58,078,21,0*57
$GLGSV,3,1,10,70,31,050,,71,82,050,25,72,43,228,27,78,00,319,,0*7F
$GLGSV,3,2,10,79,16,005,,80,13,057,,85,00,154,10,86,54,172,27,0*7F
$GLGSV,3,3,10,87,68,293,24,88,11,326,20,0*72
$GAGSV,1,1,00,0*74
$GNGLL,5552.33528,N,03800.09236,E,123534.00,A,A*78

$GNRMC,123535.00,A,5552.33507,N,03800.09230,E,0.243,,120625,,,A,V*16
$GNVTG,,T,,M,0.243,N,0.450,K,A*39

$GNGGA,123535.00,5552.33507,N,03800.09230,E,1,10,0.99,159.7,M,12.9,M,,*46
$GNGSA,A,3,08,01,02,10,32,,,,,,,,1.57,0.99,1.22,1*08
$GNGSA,A,3,88,86,71,87,72,,,,,,,,1.57,0.99,1.22,2*02
$GNGSA,A,3,,,,,,,,,,,,,1.57,0.99,1.22,3*01
$GPGSV,4,1,13,01,56,288,11,02,73,218,18,03,28,265,,08,19,212,11,0*6F
$GPGSV,4,2,13,10,29,083,18,14,02,300,,17,19,323,20,19,00,341,,0*6D
$GPGSV,4,3,13,22,08,316,,24,03,018,,28,21,127,,31,04,149,,0*67
$GPGSV,4,4,13,32,58,078,22,0*54
$GLGSV,3,1,10,70,31,050,,71,82,050,25,72,43,228,27,78,00,319,,0*7F
$GLGSV,3,2,10,79,16,005,,80,13,057,,85,00,154,10,86,54,172,27,0*7F
$GLGSV,3,3,10,87,68,293,25,88,11,326,20,0*73
$GAGSV,1,1,00,0*74
$GNGLL,5552.33507,N,03800.09230,E,123535.00,A,A*72

$GNRMC,123536.00,A,5552.33496,N,03800.09208,E,0.306,,120625,,,A,V*17
$GNVTG,,T,,M,0.306,N,0.568,K,A*33
$GNGGA,123536.00,5552.33496,N,03800.09208,E,1,10,0.99,159.7,M,12.9,M,,*47
$GNGSA,A,3,08,01,02,10,32,,,,,,,,1.57,0.99,1.22,1*08
$GNGSA,A,3,88,86,71,87,72,,,,,,,,1.57,0.99,1.22,2*02
$GNGSA,A,3,,,,,,,,,,,,,1.57,0.99,1.22,3*01

$GPGSV,4,1,13,01,56,288,10,02,73,218,16,03,28,265,,08,19,212,14,0*65
$GPGSV,4,2,13,10,29,083,18,14,02,300,,17,19,323,21,19,00,341,,0*6C
$GPGSV,4,3,13,22,08,316,,24,03,018,,28,21,127,,31,04,149,,0*67
$GPGSV,4,4,13,32,58,078,22,0*54
$GLGSV,3,1,10,70,31,050,,71,82,050,25,72,43,228,27,78,00,319,,0*7F
$GLGSV,3,2,10,79,16,005,,80,13,057,,85,00,154,09,86,54,172,27,0*77
$GLGSV,3,3,10,87,68,293,25,88,11,326,18,0*78
$GAGSV,1,1,00,0*74
$GNGLL,5552.33496,N,03800.09208,E,123536.00,A,A*73

$GNRMC,123537.00,A,5552.33514,N,03800.09227,E,0.318,,120625,,,A,V*1F

$GNVTG,,T,,M,0.318,N,0.589,K,A*33
$GNGGA,123537.00,5552.33514,N,03800.09227,E,1,10,0.99,159.1,M,12.9,M,,*46
$GNGSA,A,3,08,01,02,10,32,,,,,,,,1.57,0.99,1.22,1*08
$GNGSA,A,3,88,86,71,87,72,,,,,,,,1.57,0.99,1.22,2*02
$GNGSA,A,3,,,,,,,,,,,,,1.57,0.99,1.22,3*01
0*63
$GPGSV,4,2,13,10,29,083,19,14,02,300,,17,19,323,21,19,00,341,,0*6D
$GPGSV,4,3,13,22,08,316,,24,03,018,,28,21,127,,31,04,149,,0*67
$GPGSV,4,4,13,32,58,078,22,0*54
$GLGSV,3,1,10,70,31,050,,71,82,050,23,72,43,228,26,78,00,319,,0*78
$GLGSV,3,2,10,79,16,005,,80,13,057,,85,00,154,09,86,54,172,27,0*77
$GLGSV,3,3,10,87,68,293,25,88,11,326,16,0*76
$GAGSV,1,1,00,0*74
$GNGLL,5552.33514,N,03800.09227,E,123537.00,A,A*74

$GNRMC,123538.00,A,5552.33489,N,03800.09181,E,0.400,,120625,,,A,V*14
$GNVTG,,T,,M,0.400,N,0.741,K,A*3B
$GNGGA,123538.00,5552.33489,N,03800.09181,E,1,10,0.99,159.2,M,12.9,M,,*40
$GNGSA,A,3,08,01,02,10,32,,,,,,,,1.57,0.99,1.22,1*08
$GNGSA,A,3,88,86,71,87,72,,,,,,,,1.57,0.99,1.22,2*02

$GNGSA,A,3,,,,,,,,,,,,,1.57,0.99,1.22,3*01
$GPGSV,4,1,13,01,56,288,11,02,73,218,14,03,28,265,,08,19,212,09,0*6A
$GPGSV,4,2,13,10,29,083,19,14,02,300,,17,19,323,20,19,00,341,,0*6C
$GPGSV,4,3,13,22,08,316,,24,03,018,,28,21,127,,31,04,149,,0*67
$GPGSV,4,4,13,32,58,078,22,0*54
$GLGSV,3,1,10,70,31,050,,71,82,050,23,72,43,228,26,78,00,319,,0*78
$GLGSV,3,2,10,79,16,005,,80,13,057,,85,00,154,13,86,54,172,26,0*7D
$GLGSV,3,3,10,87,68,293,24,88,11,326,17,0*76
$GAGSV,1,1,00,0*74
$GNGLL,5552.33489,N,03800.09181,E,123538.00,A,A*71

$GNRMC,123539.00,A,5552.33467,N,03800.09240,E,0.148,,120625,,,A,V*12
$GNVTG,,T,,M,0.148,N,0.274,K,A*31
$GNGGA,123539.00,5552.33467,N,03800.09240,E,1,10,0.99,159.1,M,12.9,M,,*4C
$GNGSA,A,3,08,01,02,10,32,,,,,,,,1.57,0.99,1.22,1*08
$GNGSA,A,3,88,86,71,87,72,,,,,,,,1.57,0.99,1.22,2*02
$GNGSA,A,3,,,,,,,,,,,,,1.57,0.99,1.22,3*01
$GPGSV,4,1,13,01,56,288,11,02,73,218,13,03,28,265,,08,19,212,13,0*66
$GPGSV,4,2,13,10,29,083,21,14,02,300,,17,19,323,21,19,00,341,,0*66

$GPGSV,4,3,13,22,08,316,,24,03,018,,28,21,127,,31,04,149,,0*67
$GPGSV,4,4,13,32,58,078,20,0*56
$GLGSV,3,1,10,70,31,050,,71,82,050,22,72,43,228,26,78,00,319,,0*79
$GLGSV,3,2,10,79,16,005,,80,13,057,,85,00,154,10,86,54,172,25,0*7D
$GLGSV,3,3,10,87,68,293,24,88,11,326,17,0*76
$GAGSV,1,1,00,0*74
$GNGLL,5552.33467,N,03800.09240,E,123539.00,A,A*7E

$GNRMC,123540.00,A,5552.33422,N,03800.09246,E,0.539,,120625,,,A,V*19
$GNVTG,,T,,M,0.539,N,0.998,K,A*3A
$GNGGA,123540.00,5552.33422,N,03800.09246,E,1,10,0.99,159.2,M,12.9,M,,*46

$GNGSA,A,3,08,01,02,10,32,,,,,,,,1.57,0.99,1.22,1*08
$GNGSA,A,3,88,86,71,87,72,,,,,,,,1.57,0.99,1.22,2*02
$GNGSA,A,3,,,,,,,,,,,,,1.57,0.99,1.22,3*01
$GPGSV,4,1,13,01,56,288,11,02,73,218,13,03,28,265,,08,19,212,10,0*65
$GPGSV,4,2,13,10,29,083,20,14,02,300,,17,19,323,19,19,00,341,,0*6C
$GPGSV,4,3,13,22,08,316,,24,03,018,,28,21,127,,31,04,149,,0*67
$GPGSV,4,4,13,32,58,078,19,0*5C
$GLGSV,3,1,10,70,31,050,,71,82,050,22,72,43,228,25,78,00,319,,0*7A
$GLGSV,3,2,10,79,16,005,,80,13,057,,85,00,154,07,86,54,172,24,0*7A
$GLGSV,3,3,10,87,68,293,22,88,11,326,18,0*7F
$GAGSV,1,1,00,0*74
$GNGLL,5552.33422,N,03800.09246,E,123540.00,A,A*77

$GNRMC,123541.00,A,5552.33354,N,03800.09141,E,0.965,,120625,,,A,V*1F
$GNVTG,,T,,M,0.965,N,1.787,K,A*3E

$GNGGA,123541.00,5552.33354,N,03800.09141,E,1,10,0.99,158.2,M,12.9,M,,*44
$GNGSA,A,3,08,01,02,10,32,,,,,,,,1.57,0.99,1.22,1*08
$GNGSA,A,3,88,86,71,87,72,,,,,,,,1.57,0.99,1.22,2*02
$GNGSA,A,3,,,,,,,,,,,,,1.57,0.99,1.22,3*01
$GPGSV,4,1,13,01,56,288,15,02,73,218,11,03,28,265,,08,19,212,11,0*62
$GPGSV,4,2,13,10,28,083,18,14,02,300,,17,19,323,20,19,00,341,,0*6C
$GPGSV,4,3,13,22,08,316,,24,03,018,,28,21,127,,31,04,149,,0*67
$GPGSV,4,4,13,32,58,078,18,0*5D
$GLGSV,3,1,10,70,31,050,,71,82,050,22,72,43,228,23,78,00,319,,0*7C
$GLGSV,3,2,10,79,16,005,,80,13,057,,85,00,154,10,86,54,172,23,0*7B
$GLGSV,3,3,10,87,68,293,18,88,11,326,21,0*7C
$GAGSV,1,1,00,0*74
$GNGLL,5552.33354,N,03800.09141,E,123541.00,A,A*74

$GNRMC,123542.00,A,5552.33324,N,03800.09155,E,0.684,,120625,,,A,V*1E
$GNVTG,,T,,M,0.684,N,1.267,K,A*35

$GNGGA,123542.00,5552.33324,N,03800.09155,E,1,10,0.99,157.8,M,12.9,M,,*40
$GNGSA,A,3,08,01,02,10,32,,,,,,,,1.57,0.99,1.22,1*08
$GNGSA,A,3,88,86,71,87,72,,,,,,,,1.57,0.99,1.22,2*02
$GNGSA,A,3,,,,,,,,,,,,,1.57,0.99,1.22,3*01
$GPGSV,4,1,13,01,56,288,17,02,73,218,14,03,28,265,,08,19,212,08,0*6D
$GPGSV,4,2,13,10,28,083,16,14,02,300,,17,19,323,19,19,00,341,,0*68
$GPGSV,4,3,13,22,08,316,,24,03,018,,28,21,127,,31,04,149,,0*67
$GPGSV,4,4,13,32,58,078,16,0*53
$GLGSV,3,1,10,70,31,050,,71,82,050,22,72,43,228,23,78,00,319,,0*7C
$GLGSV,3,2,10,79,16,005,,80,13,057,,85,00,154,09,86,54,172,23,0*73
$GLGSV,3,3,10,87,68,293,15,88,11,326,20,0*70
$GAGSV,1,1,00,0*74
$GNGLL,5552.33324,N,03800.09155,E,123542.00,A,A*75

$GNRMC,123543.00,A,5552.33280,N,03800.09249,E,1.121,,120625,,,A,V*17
$GNVTG,,T,,M,1.121,N,2.076,K,A*3D

$GNGGA,123543.00,5552.33280,N,03800.09249,E,1,10,0.99,157.7,M,12.9,M,,*4F
$GNGSA,A,3,08,01,02,10,32,,,,,,,,1.57,0.99,1.22,1*08
$GNGSA,A,3,88,86,71,87,72,,,,,,,,1.57,0.99,1.22,2*02
$GNGSA,A,3,,,,,,,,,,,,,1.57,0.99,1.22,3*01
$GPGSV,4,1,13,01,56,288,17,02,73,218,19,03,28,265,,08,19,212,09,0*61
$GPGSV,4,2,13,10,28,083,14,14,02,300,,17,19,323,17,19,00,341,,0*64
$GPGSV,4,3,13,22,08,316,,24,03,018,,28,21,127,,31,04,149,,0*67
$GPGSV,4,4,13,32,58,078,15,0*50
$GLGSV,3,1,10,70,31,050,,71,82,050,21,72,43,228,24,78,00,319,,0*78
$GLGSV,3,2,10,79,16,005,,80,13,057,,85,00,154,10,86,54,172,22,0*7A
$GLGSV,3,3,10,87,68,293,17,88,11,326,19,0*78
$GAGSV,1,1,00,0*74
$GNGLL,5552.33280,N,03800.09249,E,123543.00,A,A*75

$GNRMC,123544.00,A,5552.33234,N,03800.09310,E,1.535,,120625,,,A,V*13
$GNVTG,,T,,M,1.535,N,2.843,K,A*32
$GNGGA,123544.00,5552.33234,N,03800.09310,E,1,09,1.31,157.9,M,12.9,M,,*4F
$GNGSA,A,3,08,01,02,32,,,,,,,,,1.97,1.31,1.47,1*05

$GNGSA,A,3,88,86,71,87,72,,,,,,,,1.97,1.31,1.47,2*0E
$GNGSA,A,3,,,,,,,,,,,,,1.97,1.31,1.47,3*0D
$GPGSV,4,1,13,01,56,288,17,02,73,218,17,03,28,265,,08,19,212,08,0*6E
$GPGSV,4,2,13,10,28,083,08,14,02,300,,17,19,323,14,19,00,341,,0*6A
$GPGSV,4,3,13,22,08,316,,24,03,018,,28,21,127,,31,04,149,,0*67
$GPGSV,4,4,13,32,58,078,14,0*51
$GLGSV,3,1,10,70,31,050,,71,82,050,20,72,43,228,21,78,00,319,,0*7C
$GLGSV,3,2,10,79,16,005,,80,13,057,,85,00,154,14,86,54,172,19,0*76
$GLGSV,3,3,10,87,68,293,18,88,11,326,18,0*76
$GAGSV,1,1,00,0*74
$GNGLL,5552.33234,N,03800.09310,E,123544.00,A,A*70

$GNRMC,123545.00,A,5552.33183,N,03800.09392,E,1.908,,120625,,,A,V*15
$GNVTG,,T,,M,1.908,N,3.533,K,A*3B
$GNGGA,123545.00,5552.33183,N,03800.09392,E,1,06,1.91,158.1,M,12.9,M,,*49
$GNGSA,A,3,08,02,32,,,,,,,,,,2.85,1.91,2.12,1*0D
$GNGSA,A,3,88,86,71,,,,,,,,,,2.85,1.91,2.12,2*0D

$GNGSA,A,3,,,,,,,,,,,,,2.85,1.91,2.12,3*04
$GPGSV,4,1,13,01,56,288,06,02,73,218,16,03,28,265,,08,19,212,08,0*6F
$GPGSV,4,2,13,10,28,083,07,14,02,300,,17,19,323,,19,00,341,,0*60
$GPGSV,4,3,13,22,08,316,,24,03,018,,28,21,127,,31,04,149,,0*67
$GPGSV,4,4,13,32,58,078,12,0*57
$GLGSV,3,1,10,70,31,050,,71,82,050,17,72,43,228,,78,00,319,,0*7B
$GLGSV,3,2,10,79,16,005,,80,13,057,,85,00,154,12,86,54,172,16,0*7F
$GLGSV,3,3,10,87,68,293,16,88,11,326,15,0*75
$GAGSV,1,1,00,0*74
$GNGLL,5552.33183,N,03800.09392,E,123545.00,A,A*74

$GNRMC,123546.00,A,5552.33184,N,03800.09439,E,1.530,,120625,,,A,V*10
$GNVTG,,T,,M,1.530,N,2.834,K,A*37

$GNGGA,123546.00,5552.33184,N,03800.09439,E,1,09,1.04,158.4,M,12.9,M,,*4D
$GNGSA,A,3,08,01,02,10,32,,,,,,,,1.60,1.04,1.22,1*09
$GNGSA,A,3,88,86,71,87,,,,,,,,,1.60,1.04,1.22,2*06
$GNGSA,A,3,,,,,,,,,,,,,1.60,1.04,1.22,3*00
$GPGSV,4,1,13,01,56,288,11,02,73,218,16,03,28,265,,08,19,212,09,0*68
$GPGSV,4,2,13,10,28,083,10,14,02,300,,17,19,323,,19,00,341,,0*66
$GPGSV,4,3,13,22,08,316,,24,03,018,,28,21,127,,31,04,149,,0*67
$GPGSV,4,4,13,32,58,078,12,0*57
$GLGSV,3,1,10,70,31,050,,71,82,050,19,72,43,228,,78,00,319,,0*75
$GLGSV,3,2,10,79,16,005,,80,13,057,,85,00,154,08,86,54,172,15,0*77
$GLGSV,3,3,10,87,68,293,15,88,11,326,16,0*75
$GAGSV,1,1,00,0*74
$GNGLL,5552.33184,N,03800.09439,E,123546.00,A,A*76

$GNRMC,123547.00,A,5552.33138,N,03800.09305,E,0.965,,120625,,,A,V*13
$GNVTG,,T,,M,0.965,N,1.787,K,A*3E

$GNGGA,123547.00,5552.33138,N,03800.09305,E,1,09,1.04,158.5,M,12.9,M,,*42
$GNGSA,A,3,08,01,02,10,32,,,,,,,,1.60,1.04,1.22,1*09
$GNGSA,A,3,88,86,71,87,,,,,,,,,1.60,1.04,1.22,2*06
$GNGSA,A,3,,,,,,,,,,,,,1.60,1.04,1.22,3*00
$GPGSV,4,1,13,01,56,288,17,02,73,218,16,03,28,265,,08,19,212,09,0*6E
$GPGSV,4,2,13,10,28,083,18,14,02,300,,17,19,323,,19,00,341,,0*6E
$GPGSV,4,3,13,22,08,316,,24,03,018,,28,21,127,,31,04,149,,0*67
$GPGSV,4,4,13,32,58,078,12,0*57
$GLGSV,3,1,10,70,31,050,,71,82,050,21,72,43,228,,78,00,319,,0*7E
$GLGSV,3,2,10,79,16,005,,80,13,057,,85,00,154,10,86,54,172,19,0*72
$GLGSV,3,3,10,87,68,293,19,88,11,326,17,0*78
$GAGSV,1,1,00,0*74
$GNGLL,5552.33138,N,03800.09305,E,123547.00,A,A*78

$GNRMC,123548.00,A,5552.33088,N,03800.09179,E,1.126,,120625,,,A,V*11
$GNVTG,,T,,M,1.126,N,2.086,K,A*35

$GNGGA,123548.00,5552.33088,N,03800.09179,E,1,08,1.39,158.6,M,12.9,M,,*42
$GNGSA,A,3,08,01,02,32,,,,,,,,,2.03,1.39,1.48,1*0C
$GNGSA,A,3,88,86,71,87,,,,,,,,,2.03,1.39,1.48,2*02
$GNGSA,A,3,,,,,,,,,,,,,2.03,1.39,1.48,3*04
$GPGSV,4,1,13,01,56,288,08,02,73,218,16,03,28,265,,08,19,212,09,0*60
$GPGSV,4,2,13,10,28,083,06,14,02,300,,17,20,322,,19,00,341,,0*6A
$GPGSV,4,3,13,22,08,316,,24,03,018,,28,21,127,,31,04,149,,0*67
$GPGSV,4,4,13,32,58,078,13,0*56
$GLGSV,3,1,10,70,31,050,,71,82,050,21,72,43,228,18,78,00,319,,0*77
$GLGSV,3,2,10,79,16,005,,80,13,057,,85,00,154,07,86,54,172,21,0*7F
$GLGSV,3,3,10,87,68,293,22,88,11,326,17,0*70
$GAGSV,1,1,00,0*74
$GNGLL,5552.33088,N,03800.09179,E,123548.00,A,A*74

$GNRMC,123549.00,A,5552.33086,N,03800.09134,E,0.852,,120625,,,A,V*1C
$GNVTG,,T,,M,0.852,N,1.577,K,A*36

$GNGGA,123549.00,5552.33086,N,03800.09134,E,1,09,1.04,158.8,M,12.9,M,,*45
$GNGSA,A,3,08,01,02,10,32,,,,,,,,1.60,1.04,1.22,1*09
$GNGSA,A,3,88,86,71,87,,,,,,,,,1.60,1.04,1.22,2*06
$GNGSA,A,3,,,,,,,,,,,,,1.60,1.04,1.22,3*00
$GPGSV,4,1,13,01,56,288,14,02,73,218,18,03,28,265,,08,19,212,07,0*6D
$GPGSV,4,2,13,10,28,083,10,14,02,300,,17,20,322,,19,00,341,,0*6D
$GPGSV,4,3,13,22,08,316,,24,03,018,,28,21,127,,31,04,149,,0*67
$GPGSV,4,4,13,32,58,078,14,0*51
$GLGSV,3,1,10,70,31,050,,71,82,050,20,72,43,228,22,78,00,319,,0*7F
$GLGSV,3,2,10,79,16,005,,80,13,057,,85,00,154,08,86,54,172,20,0*71
$GLGSV,3,3,10,87,68,293,23,88,11,326,15,0*73
$GAGSV,1,1,00,0*74
$GNGLL,5552.33086,N,03800.09134,E,123549.00,A,A*72

$GNRMC,123550.00,A,5552.33058,N,03800.09018,E,0.739,,120625,,,A,V*1A
$GNVTG,,T,,M,0.739,N,1.369,K,A*3D

$GNGGA,123550.00,5552.33058,N,03800.09018,E,1,10,0.99,158.3,M,12.9,M,,*47
$GNGSA,A,3,08,01,02,10,32,,,,,,,,1.57,0.99,1.22,1*08
$GNGSA,A,3,88,86,71,87,72,,,,,,,,1.57,0.99,1.22,2*02
$GNGSA,A,3,,,,,,,,,,,,,1.57,0.99,1.22,3*01
$GPGSV,4,1,13,01,56,288,09,02,73,218,18,03,28,265,,08,19,212,09,0*6F
$GPGSV,4,2,13,10,28,083,08,14,02,300,,17,20,322,,19,00,341,,0*64
$GPGSV,4,3,13,22,08,316,,24,03,018,,28,21,127,,31,04,149,,0*67
$GPGSV,4,4,13,32,58,078,14,0*51
$GLGSV,3,1,10,70,31,050,,71,82,050,19,72,43,228,23,78,00,319,,0*74
$GLGSV,3,2,10,79,16,005,,80,13,057,,85,00,154,08,86,54,172,22,0*73
$GLGSV,3,3,10,87,68,293,22,88,11,326,16,0*71
$GAGSV,1,1,00,0*74
$GNGLL,5552.33058,N,03800.09018,E,123550.00,A,A*76

$GNRMC,123551.00,A,5552.33050,N,03800.09005,E,0.764,,120625,,,A,V*17
$GNVTG,,T,,M,0.764,N,1.415,K,A*39

$GNGGA,123551.00,5552.33050,N,03800.09005,E,1,10,0.99,158.6,M,12.9,M,,*47
$GNGSA,A,3,08,01,02,10,32,,,,,,,,1.57,0.99,1.22,1*08
$GNGSA,A,3,88,86,71,87,72,,,,,,,,1.57,0.99,1.22,2*02
$GNGSA,A,3,,,,,,,,,,,,,1.57,0.99,1.22,3*01
$GPGSV,4,1,13,01,56,288,12,02,73,218,17,03,28,265,,08,19,212,10,0*62
$GPGSV,4,2,13,10,28,083,09,14,02,300,,17,20,322,,19,00,341,,0*65
$GPGSV,4,3,13,22,08,316,,24,03,018,,28,21,127,,31,04,149,,0*67
$GPGSV,4,4,13,32,58,078,13,0*56
$GLGSV,3,1,10,70,31,050,,71,82,050,18,72,43,228,24,78,00,319,,0*72
$GLGSV,3,2,10,79,16,005,,80,13,057,,85,00,154,09,86,54,172,23,0*73
$GLGSV,3,3,10,87,68,293,21,88,11,326,19,0*7D
$GAGSV,1,1,00,0*74
$GNGLL,5552.33050,N,03800.09005,E,123551.00,A,A*73

$GNRMC,123552.00,A,5552.33064,N,03800.09074,E,0.406,,120625,,,A,V*12
$GNVTG,,T,,M,0.406,N,0.752,K,A*3F

$GNGGA,123552.00,5552.33064,N,03800.09074,E,1,10,0.99,158.8,M,12.9,M,,*4B
$GNGSA,A,3,08,01,02,10,32,,,,,,,,1.57,0.99,1.22,1*08
$GNGSA,A,3,88,86,71,87,72,,,,,,,,1.57,0.99,1.22,2*02
$GNGSA,A,3,,,,,,,,,,,,,1.57,0.99,1.22,3*01
$GPGSV,4,1,13,01,56,288,14,02,73,218,14,03,28,265,,08,19,212,11,0*66
$GPGSV,4,2,13,10,28,083,09,14,02,300,,17,20,322,,19,00,341,,0*65
$GPGSV,4,3,13,22,08,316,,24,03,018,,28,21,127,,31,04,149,,0*67
$GPGSV,4,4,13,32,58,078,11,0*54
$GLGSV,3,1,10,70,31,050,,71,82,050,18,72,43,228,24,78,00,319,,0*72
$GLGSV,3,2,10,79,16,005,,80,13,057,,85,00,154,09,86,54,172,25,0*75
$GLGSV,3,3,10,87,68,293,21,88,11,326,20,0*77
$GAGSV,1,1,00,0*74
$GNGLL,5552.33064,N,03800.09074,E,123552.00,A,A*71

$GNRMC,123553.00,A,5552.33123,N,03800.09176,E,0.049,,120625,,,A,V*1D
$GNVTG,,T,,M,0.049,N,0.091,K,A*38

$GNGGA,123553.00,5552.33123,N,03800.09176,E,1,10,0.99,159.1,M,12.9,M,,*43
$GNGSA,A,3,08,01,02,10,32,,,,,,,,1.57,0.99,1.22,1*08
$GNGSA,A,3,88,86,71,87,72,,,,,,,,1.57,0.99,1.22,2*02
$GNGSA,A,3,,,,,,,,,,,,,1.57,0.99,1.22,3*01
$GPGSV,4,1,13,01,56,288,12,02,73,218,11,03,28,265,,08,19,212,11,0*65
$GPGSV,4,2,13,10,28,083,09,14,02,300,,17,20,322,,19,00,341,,0*65
$GPGSV,4,3,13,22,08,316,,24,03,018,,28,21,127,,31,04,149,,0*67
$GPGSV,4,4,13,32,58,078,15,0*50
$GLGSV,3,1,10,70,31,050,,71,82,050,18,72,43,228,22,78,00,319,,0*74
$GLGSV,3,2,10,79,16,005,,80,13,057,,85,00,154,09,86,54,172,25,0*75
$GLGSV,3,3,10,87,68,293,20,88,11,326,19,0*7C
$GAGSV,1,1,00,0*74
$GNGLL,5552.33123,N,03800.09176,E,123553.00,A,A*71

$GNRMC,123554.00,A,5552.33122,N,03800.09157,E,0.055,,120625,,,A,V*15
$GNVTG,,T,,M,0.055,N,0.102,K,A*3E

$GNGGA,123554.00,5552.33122,N,03800.09157,E,1,10,0.99,159.1,M,12.9,M,,*46
$GNGSA,A,3,08,01,02,10,32,,,,,,,,1.57,0.99,1.22,1*08
$GNGSA,A,3,88,86,71,87,72,,,,,,,,1.57,0.99,1.22,2*02
$GNGSA,A,3,,,,,,,,,,,,,1.57,0.99,1.22,3*01
$GPGSV,4,1,13,01,56,288,09,02,73,218,14,03,28,265,,08,19,212,14,0*6F
$GPGSV,4,2,13,10,28,083,12,14,02,300,,17,20,322,,19,00,341,,0*6F
$GPGSV,4,3,13,22,08,316,,24,03,018,,28,21,127,,31,04,149,,0*67
$GPGSV,4,4,13,32,58,078,17,0*52
$GLGSV,3,1,10,70,31,050,,71,82,050,19,72,43,228,22,78,00,319,,0*75
$GLGSV,3,2,10,79,16,005,,80,13,057,,85,00,154,06,86,54,172,24,0*7B
$GLGSV,3,3,10,87,68,293,19,88,11,326,18,0*77
$GAGSV,1,1,00,0*74
$GNGLL,5552.33122,N,03800.09157,E,123554.00,A,A*74

$GNRMC,123555.00,A,5552.33125,N,03800.09121,E,0.076,,120625,,,A,V*13
$GNVTG,,T,,M,0.076,N,0.141,K,A*38
$GNGGA,123555.00,5552.33125,N,03800.09121,E,1,10,0.99,159.2,M,12.9,M,,*42

$GNGSA,A,3,08,01,02,10,32,,,,,,,,1.57,0.99,1.22,1*08
$GNGSA,A,3,88,86,71,87,72,,,,,,,,1.57,0.99,1.22,2*02
$GNGSA,A,3,,,,,,,,,,,,,1.57,0.99,1.22,3*01
$GPGSV,4,1,13,01,56,288,08,02,73,218,16,03,28,265,,08,19,212,09,0*60
$GPGSV,4,2,13,10,28,083,10,14,02,300,,17,20,322,,19,00,341,,0*6D
$GPGSV,4,3,13,22,08,316,,24,03,018,,28,21,127,,31,04,149,,0*67
$GPGSV,4,4,13,32,58,078,18,0*5D
$GLGSV,3,1,10,70,31,050,,71,82,050,20,72,43,228,23,78,00,319,,0*7E
$GLGSV,3,2,10,79,16,005,,80,13,057,,85,00,154,09,86,54,172,23,0*73
$GLGSV,3,3,10,87,68,293,19,88,11,326,18,0*77
$GAGSV,1,1,00,0*74
$GNGLL,5552.33125,N,03800.09121,E,123555.00,A,A*73

$GNRMC,123556.00,A,5552.33162,N,03800.09104,E,0.203,,120625,,,A,V*14

$GNVTG,,T,,M,0.203,N,0.376,K,A*3E
$GNGGA,123556.00,5552.33162,N,03800.09104,E,1,09,1.05,159.9,M,12.9,M,,*42
$GNGSA,A,3,08,02,10,32,,,,,,,,,1.64,1.05,1.26,1*09
$GNGSA,A,3,88,86,71,87,72,,,,,,,,1.64,1.05,1.26,2*02
$GNGSA,A,3,,,,,,,,,,,,,1.64,1.05,1.26,3*01
$GPGSV,4,1,13,01,56,288,06,02,73,218,11,03,28,265,,08,19,212,10,0*61
$GPGSV,4,2,13,10,28,083,09,14,02,300,,17,20,322,,19,00,341,,0*65
$GPGSV,4,3,13,22,08,316,,24,03,018,,28,21,127,,31,04,149,,0*67
$GPGSV,4,4,13,32,58,078,18,0*5D
$GLGSV,3,1,10,70,31,050,,71,82,050,22,72,43,228,24,78,00,319,,0*7B
$GLGSV,3,2,10,79,16,005,,80,13,057,,85,00,154,08,86,54,172,23,0*72
$GLGSV,3,3,10,87,68,293,20,88,11,326,16,0*73
$GAGSV,1,1,00,0*74
$GNGLL,5552.33162,N,03800.09104,E,123556.00,A,A*74

$GNRMC,123557.00,A,5552.33175,N,03800.09122,E,0.213,,120625,,,A,V*16
$GNVTG,,T,,M,0.213,N,0.394,K,A*33
$GNGGA,123557.00,5552.33175,N,03800.09122,E,1,10,0.99,160.2,M,12.9,M,,*4C

$GNGSA,A,3,08,01,02,10,32,,,,,,,,1.57,0.99,1.22,1*08
$GNGSA,A,3,88,86,71,87,72,,,,,,,,1.57,0.99,1.22,2*02
$GNGSA,A,3,,,,,,,,,,,,,1.57,0.99,1.22,3*01
$GPGSV,4,1,13,01,56,288,11,02,73,218,12,03,28,265,,08,19,212,10,0*64
$GPGSV,4,2,13,10,28,083,08,14,02,300,,17,20,322,,19,00,341,,0*64
$GPGSV,4,3,13,22,08,316,,24,03,018,,28,21,127,,31,04,149,,0*67
$GPGSV,4,4,13,32,58,078,18,0*5D
$GLGSV,3,1,10,70,31,050,,71,82,050,24,72,43,228,24,78,00,319,,0*7D
$GLGSV,3,2,10,79,16,005,,80,13,057,,85,00,154,11,86,54,172,22,0*7B
$GLGSV,3,3,10,87,68,293,23,88,11,326,12,0*74
$GAGSV,1,1,00,0*74
$GNGLL,5552.33175,N,03800.09122,E,123557.00,A,A*77

$GNRMC,123558.00,A,5552.33221,N,03800.09148,E,0.503,,120625,,,A,V*11
$GNVTG,,T,,M,0.503,N,0.931,K,A*30

$GNGGA,123558.00,5552.33221,N,03800.09148,E,1,10,0.99,160.6,M,12.9,M,,*49
$GNGSA,A,3,08,01,02,10,32,,,,,,,,1.57,0.99,1.22,1*08
$GNGSA,A,3,88,86,71,87,72,,,,,,,,1.57,0.99,1.22,2*02
$GNGSA,A,3,,,,,,,,,,,,,1.57,0.99,1.22,3*01
$GPGSV,4,1,13,01,56,288,17,02,73,218,11,03,28,265,,08,19,212,10,0*61
$GPGSV,4,2,13,10,28,083,13,14,02,300,,17,20,322,,19,00,341,,0*6E
$GPGSV,4,3,13,22,08,316,,24,03,018,,28,21,127,,31,04,149,,0*67
$GPGSV,4,4,13,32,58,078,16,0*53
$GLGSV,3,1,10,70,31,050,,71,82,050,23,72,43,228,25,78,00,319,,0*7B
$GLGSV,3,2,10,79,16,005,,80,13,057,,85,00,154,08,86,54,172,24,0*75
$GLGSV,3,3,10,87,68,293,23,88,11,326,10,0*76
$GAGSV,1,1,00,0*74
$GNGLL,5552.33221,N,03800.09148,E,123558.00,A,A*76

$GNRMC,123559.00,A,5552.33224,N,03800.09064,E,0.485,,120625,,,A,V*15
$GNVTG,,T,,M,0.485,N,0.899,K,A*3C
$GNGGA,123559.00,5552.33224,N,03800.09064,E,1,09,1.00,160.6,M,12.9,M,,*4B

$GNGSA,A,3,08,01,10,32,,,,,,,,,1.63,1.00,1.29,1*07
$GNGSA,A,3,88,86,71,87,72,,,,,,,,1.63,1.00,1.29,2*0F
$GNGSA,A,3,,,,,,,,,,,,,1.63,1.00,1.29,3*0C
$GPGSV,4,1,13,01,56,288,13,02,73,218,09,03,28,265,,08,19,212,09,0*64
$GPGSV,4,2,13,10,28,083,14,14,02,300,,17,20,322,,19,00,341,,0*69
$GPGSV,4,3,13,22,08,316,,24,03,018,,28,21,127,,31,04,149,,0*67
$GPGSV,4,4,13,32,58,078,17,0*52
$GLGSV,3,1,10,70,31,050,,71,82,050,23,72,43,228,27,78,00,319,,0*79
$GLGSV,3,2,10,79,16,005,,80,13,057,,85,00,154,08,86,54,172,27,0*76
$GLGSV,3,3,10,87,68,293,21,88,11,326,14,0*70
$GAGSV,1,1,00,0*74
$GNGLL,5552.33224,N,03800.09064,E,123559.00,A,A*7D

$GNRMC,123600.00,A,5552.33226,N,03800.09121,E,0.544,,120625,,,A,V*14
$GNVTG,,T,,M,0.544,N,1.008,K,A*31

$GNGGA,123600.00,5552.33226,N,03800.09121,E,1,08,1.32,160.9,M,12.9,M,,*49
$GNGSA,A,3,08,01,32,,,,,,,,,,2.04,1.32,1.56,1*0D
$GNGSA,A,3,88,86,71,87,72,,,,,,,,2.04,1.32,1.56,2*04
$GNGSA,A,3,,,,,,,,,,,,,2.04,1.32,1.56,3*07
$GPGSV,4,1,13,01,56,288,15,02,73,218,08,03,28,265,,08,19,212,09,0*63
$GPGSV,4,2,13,10,28,083,06,14,02,300,,17,20,322,,19,00,341,,0*6A
$GPGSV,4,3,13,22,08,316,,24,03,018,,28,21,127,,31,04,149,,0*67
$GPGSV,4,4,13,32,58,078,15,0*50
$GLGSV,3,1,10,70,31,050,,71,82,050,22,72,43,228,27,78,00,319,,0*78
$GLGSV,3,2,10,79,16,005,,80,13,057,,85,00,154,09,86,54,172,27,0*77
$GLGSV,3,3,10,87,68,293,19,88,11,326,16,0*79
$GAGSV,1,1,00,0*74
$GNGLL,5552.33226,N,03800.09121,E,123600.00,A,A*70

$GNRMC,123601.00,A,5552.33186,N,03800.09128,E,0.799,,120625,,,A,V*17
$GNVTG,,T,,M,0.799,N,1.480,K,A*37

$GNGGA,123601.00,5552.33186,N,03800.09128,E,1,09,1.00,161.8,M,12.9,M,,*48
$GNGSA,A,3,08,01,10,32,,,,,,,,,1.63,1.00,1.29,1*07
$GNGSA,A,3,88,86,71,87,72,,,,,,,,1.63,1.00,1.29,2*0F
$GNGSA,A,3,,,,,,,,,,,,,1.63,1.00,1.29,3*0C
$GPGSV,4,1,13,01,56,288,15,02,73,218,09,03,28,265,,08,19,212,10,0*6A
$GPGSV,4,2,13,10,28,083,12,14,02,300,,17,20,322,16,19,00,341,,0*68
$GPGSV,4,3,13,22,08,316,,24,03,018,,28,21,127,,31,04,149,,0*67
$GPGSV,4,4,13,32,58,078,15,0*50
$GLGSV,3,1,10,70,31,050,,71,82,050,20,72,43,228,26,78,00,319,,0*7B
$GLGSV,3,2,10,79,16,005,,80,13,057,,85,00,154,09,86,54,172,25,0*75
$GLGSV,3,3,10,87,68,293,18,88,11,326,14,0*7A
$GAGSV,1,1,00,0*74
$GNGLL,5552.33186,N,03800.09128,E,123601.00,A,A*71

$GNRMC,123602.00,A,5552.33209,N,03800.09199,E,0.707,,120625,,,A,V*1D
$GNVTG,,T,,M,0.707,N,1.310,K,A*3E

$GNGGA,123602.00,5552.33209,N,03800.09199,E,1,10,0.99,161.1,M,12.9,M,,*45
$GNGSA,A,3,08,01,02,10,32,,,,,,,,1.57,0.99,1.22,1*08
$GNGSA,A,3,88,86,71,87,72,,,,,,,,1.57,0.99,1.22,2*02
$GNGSA,A,3,,,,,,,,,,,,,1.57,0.99,1.22,3*01
$GPGSV,4,1,13,01,56,288,16,02,73,218,11,03,28,265,,08,19,212,14,0*64
$GPGSV,4,2,13,10,28,083,12,14,02,300,,17,20,322,13,19,00,341,,0*6D
$GPGSV,4,3,13,22,08,316,,24,03,018,,28,21,127,,31,04,149,,0*67
$GPGSV,4,4,13,32,58,078,16,0*53
$GLGSV,3,1,10,70,31,050,,71,82,050,18,72,43,228,25,78,00,319,,0*73
$GLGSV,3,2,10,79,16,005,,80,13,057,,85,00,154,09,86,54,172,24,0*74
$GLGSV,3,3,10,87,68,293,19,88,11,326,18,0*77
$GAGSV,1,1,00,0*74
$GNGLL,5552.33209,N,03800.09199,E,123602.00,A,A*7C

$GNRMC,123603.00,A,5552.33217,N,03800.09266,E,1.088,,120625,,,A,V*11
$GNVTG,,T,,M,1.088,N,2.016,K,A*39
$GNGGA,123603.00,5552.33217,N,03800.09266,E,1,10,0.99,161.3,M,12.9,M,,*4A

$GNGSA,A,3,08,01,02,10,32,,,,,,,,1.57,0.99,1.22,1*08
$GNGSA,A,3,88,86,71,87,72,,,,,,,,1.57,0.99,1.22,2*02
$GNGSA,A,3,,,,,,,,,,,,,1.57,0.99,1.22,3*01
$GPGSV,4,1,13,01,56,288,16,02,73,218,11,03,28,265,,08,19,212,11,0*61
$GPGSV,4,2,13,10,28,083,09,14,02,300,,17,20,322,11,19,00,341,,0*65
$GPGSV,4,3,13,22,08,316,,24,03,018,,28,21,127,,31,04,149,,0*67
$GPGSV,4,4,13,32,58,077,16,0*5C
$GLGSV,3,1,10,70,31,050,,71,82,050,18,72,43,228,23,78,00,319,,0*75
$GLGSV,3,2,10,79,16,005,,80,13,057,,85,00,154,10,86,54,172,22,0*7A
$GLGSV,3,3,10,87,68,293,20,88,11,326,21,0*77
$GAGSV,1,1,00,0*74
$GNGLL,5552.33217,N,03800.09266,E,123603.00,A,A*71

$GNRMC,123604.00,A,5552.33267,N,03800.09448,E,1.993,,120625,,,A,V*18
$GNVTG,,T,,M,1.993,N,3.692,K,A*31

$GNGGA,123604.00,5552.33267,N,03800.09448,E,1,10,0.99,161.4,M,12.9,M,,*47
$GNGSA,A,3,08,01,02,10,32,,,,,,,,1.57,0.99,1.22,1*08
$GNGSA,A,3,88,86,71,87,72,,,,,,,,1.57,0.99,1.22,2*02
$GNGSA,A,3,,,,,,,,,,,,,1.57,0.99,1.22,3*01
$GPGSV,4,1,13,01,56,288,17,02,73,218,11,03,28,265,,08,19,212,11,0*60
$GPGSV,4,2,13,10,28,083,18,14,02,300,,17,20,322,09,19,00,341,,0*6C
$GPGSV,4,3,13,22,08,316,,24,03,018,,28,21,127,,31,04,149,,0*67
$GPGSV,4,4,13,32,58,077,15,0*5F
$GLGSV,3,1,10,70,31,050,,71,82,050,19,72,43,228,23,78,00,319,,0*74
$GLGSV,3,2,10,79,16,005,,80,13,057,,85,00,154,13,86,54,172,22,0*79
$GLGSV,3,3,10,87,68,293,20,88,11,326,22,0*74
$GAGSV,1,1,00,0*74
$GNGLL,5552.33267,N,03800.09448,E,123604.00,A,A*7B

$GNRMC,123605.00,A,5552.33233,N,03800.09451,E,1.411,,120625,,,A,V*17

$GNVTG,,T,,M,1.411,N,2.614,K,A*39
$GNGGA,123605.00,5552.33233,N,03800.09451,E,1,09,1.31,161.2,M,12.9,M,,*42
$GNGSA,A,3,08,01,02,32,,,,,,,,,1.97,1.31,1.47,1*05
$GNGSA,A,3,88,86,71,87,72,,,,,,,,1.97,1.31,1.47,2*0E
$GNGSA,A,3,,,,,,,,,,,,,1.97,1.31,1.47,3*0D
$GPGSV,4,1,13,01,56,288,17,02,73,218,11,03,28,265,,08,19,212,10,0*61
$GPGSV,4,2,13,10,28,083,09,14,02,300,,17,20,322,08,19,00,341,,0*6D
$GPGSV,4,3,13,22,08,316,,24,03,018,,28,21,127,,31,04,149,,0*67
$GPGSV,4,4,13,32,58,077,14,0*5E
$GLGSV,3,1,10,70,31,050,,71,82,050,19,72,43,228,23,78,00,319,,0*74
$GLGSV,3,2,10,79,16,005,,80,13,057,,85,00,154,11,86,54,172,21,0*78
$GLGSV,3,3,10,87,68,293,18,88,11,326,23,0*7E
$GAGSV,1,1,00,0*74
$GNGLL,5552.33233,N,03800.09451,E,123605.00,A,A*73

$GNRMC,123606.00,A,5552.33208,N,03800.09499,E,1.271,,120625,,,A,V*18
$GNVTG,,T,,M,1.271,N,2.354,K,A*38

$GNGGA,123606.00,5552.33208,N,03800.09499,E,1,10,0.99,161.4,M,12.9,M,,*40
$GNGSA,A,3,08,01,02,10,32,,,,,,,,1.57,0.99,1.22,1*08
$GNGSA,A,3,88,86,71,87,72,,,,,,,,1.57,0.99,1.22,2*02
$GNGSA,A,3,,,,,,,,,,,,,1.57,0.99,1.22,3*01
$GPGSV,4,1,13,01,56,288,16,02,73,218,12,03,28,265,,08,19,212,11,0*62
$GPGSV,4,2,13,10,28,083,14,14,02,300,,17,20,322,08,19,00,341,,0*61
$GPGSV,4,3,13,22,08,316,,24,03,018,,28,21,127,,31,04,149,,0*67
$GPGSV,4,4,13,32,58,077,12,0*58
$GLGSV,3,1,10,70,31,050,,71,82,050,20,72,43,228,23,78,00,319,,0*7E
$GLGSV,3,2,10,79,16,005,,80,13,057,,85,00,154,09,86,54,172,19,0*7A
$GLGSV,3,3,10,87,68,293,17,88,11,326,23,0*71
$GAGSV,1,1,00,0*74
$GNGLL,5552.33208,N,03800.09499,E,123606.00,A,A*7C

$GNRMC,123607.00,A,5552.33199,N,03800.09531,E,0.935,,120625,,,A,V*1B
$GNVTG,,T,,M,0.935,N,1.731,K,A*36

$GNGGA,123607.00,5552.33199,N,03800.09531,E,1,10,0.99,161.4,M,12.9,M,,*49
$GNGSA,A,3,08,01,02,10,32,,,,,,,,1.57,0.99,1.22,1*08
$GNGSA,A,3,88,86,71,87,72,,,,,,,,1.57,0.99,1.22,2*02
$GNGSA,A,3,,,,,,,,,,,,,1.57,0.99,1.22,3*01
$GPGSV,4,1,13,01,56,288,15,02,73,218,11,03,28,265,,08,19,212,08,0*6A
$GPGSV,4,2,13,10,28,083,17,14,02,300,,17,20,322,08,19,00,341,,0*62
$GPGSV,4,3,13,22,08,316,,24,03,018,,28,21,127,,31,04,149,,0*67
$GPGSV,4,4,13,32,58,077,10,0*5A
$GLGSV,3,1,10,70,31,050,,71,82,050,21,72,43,228,23,78,00,319,,0*7F
$GLGSV,3,2,10,79,16,005,,80,13,057,,85,00,154,10,86,54,172,19,0*72
$GLGSV,3,3,10,87,68,293,18,88,11,326,23,0*7E
$GAGSV,1,1,00,0*74
$GNGLL,5552.33199,N,03800.09531,E,123607.00,A,A*75

$GNRMC,123608.00,A,5552.33179,N,03800.09486,E,0.408,,120625,,,A,V*14
$GNVTG,,T,,M,0.408,N,0.756,K,A*35
$GNGGA,123608.00,5552.33179,N,03800.09486,E,1,10,0.99,161.3,M,12.9,M,,*42
$GNGSA,A,3,08,01,02,10,32,,,,,,,,1.57,0.99,1.22,1*08
$GNGSA,A,3,88,86,71,87,72,,,,,,,,1.57,0.99,1.22,2*02
$GNGSA,A,3,,,,,,,,,,,,,1.57,0.99,1.22,3*01

$GPGSV,4,1,13,01,56,288,15,02,73,218,08,03,28,265,,08,19,212,10,0*6B
$GPGSV,4,2,13,10,28,083,16,14,02,300,,17,20,322,08,19,00,341,,0*63
$GPGSV,4,3,13,22,08,316,,24,03,018,,28,21,127,,31,04,149,,0*67
$GPGSV,4,4,13,32,58,077,09,0*52
$GLGSV,3,1,10,70,31,050,,71,82,050,21,72,43,228,24,78,00,319,,0*78
$GLGSV,3,2,10,79,16,005,,80,13,057,,85,00,154,08,86,54,172,18,0*7A
$GLGSV,3,3,10,87,68,293,19,88,11,326,22,0*7E
$GAGSV,1,1,00,0*74
$GNGLL,5552.33179,N,03800.09486,E,123608.00,A,A*79

$GNRMC,123609.00,A,5552.33197,N,03800.09499,E,0.052,,120625,,,A,V*10
$GNVTG,,T,,M,0.052,N,0.097,K,A*34

$GNGGA,123609.00,5552.33197,N,03800.09499,E,1,10,0.99,161.1,M,12.9,M,,*4F
$GNGSA,A,3,08,01,02,10,32,,,,,,,,1.57,0.99,1.22,1*08
$GNGSA,A,3,88,86,71,87,72,,,,,,,,1.57,0.99,1.22,2*02
$GNGSA,A,3,,,,,,,,,,,,,1.57,0.99,1.22,3*01
$GPGSV,4,1,13,01,56,288,13,02,73,218,09,03,28,265,,08,19,212,13,0*6F
$GPGSV,4,2,13,10,28,083,14,14,02,300,,17,20,322,08,19,00,341,,0*61
$GPGSV,4,3,13,22,08,316,,24,03,018,,28,21,127,,31,04,149,,0*67
$GPGSV,4,4,13,32,58,077,10,0*5A
$GLGSV,3,1,10,70,31,050,,71,82,050,22,72,43,228,24,78,00,319,,0*7B
$GLGSV,3,2,10,79,16,005,,80,13,057,,85,00,154,10,86,54,172,18,0*73
$GLGSV,3,3,10,87,68,293,19,88,11,326,23,0*7F
$GAGSV,1,1,00,0*74
$GNGLL,5552.33197,N,03800.09499,E,123609.00,A,A*76

$GNRMC,123610.00,A,5552.33209,N,03800.09510,E,0.179,,120625,,,A,V*14
$GNVTG,,T,,M,0.179,N,0.331,K,A*33

$GNGGA,123610.00,5552.33209,N,03800.09510,E,1,10,0.99,161.1,M,12.9,M,,*43
$GNGSA,A,3,08,01,02,10,32,,,,,,,,1.57,0.99,1.22,1*08
$GNGSA,A,3,88,86,71,87,72,,,,,,,,1.57,0.99,1.22,2*02
