$GNTXT,01,01,02,u-blox AG - www.u-blox.com*4E
$GNTXT,01,01,02,HW UBX-M8030 00080000*60

$GNTXT,01,01,02,ROM CORE 3.01 (107888)*2B
$GNTXT,01,01,02,FWVER=SPG 3.01*46
$GNTXT,01,01,02,PROTVER=18.00*11
$GNTXT,01,01,02,GPS;GLO;GAL;BDS*77
$GNTXT,01,01,02,SBAS;IMES;QZSS*49
$GNTXT,01,01,02,GNSS OTP=GPS;GLO*37

$GNTXT,01,01,02,LLC=FFFFFFFF-FFFFFFFF-FFFFFFFF-FFFFFFFF-FFFFFFFD*2F
$GNTXT,01,01,02,ANTSUPERV=AC SD PDoS SR*3E
$GNTXT,01,01,02,ANTSTATUS=OK*25
$GNTXT,01,01,02,PF=3FF*4B

$GNRMC,124022.00,A,5552.35393,N,03800.05791,E,1.281,,120625,,,A,V*12
$GNVTG,,T,,M,1.281,N,2.373,K,A*32

$GNGGA,124022.00,5552.35393,N,03800.05791,E,1,10,0.98,145.3,M,12.9,M,,*45
$GNGSA,A,3,08,01,02,10,32,,,,,,,,1.56,0.98,1.21,1*0B
$GNGSA,A,3,88,86,71,87,72,,,,,,,,1.56,0.98,1.21,2*01
$GNGSA,A,3,,,,,,,,,,,,,1.56,0.98,1.21,3*02
$GPGSV,4,1,13,01,58,287,26,02,72,212,22,03,30,266,,08,17,212,10,0*6D
$GPGSV,4,2,13,10,27,084,17,14,01,299,15,17,21,321,21,19,01,340,18,0*6C
$GPGSV,4,3,13,22,07,315,,24,02,017,,28,22,126,,31,06,149,,0*65
$GPGSV,4,4,13,32,56,075,19,0*5F
$GLGSV,2,1,08,70,29,050,,71,79,048,19,72,45,229,25,79,16,002,,0*76
$GLGSV,2,2,08,80,15,055,21,86,51,172,23,87,70,287,20,88,13,326,17,0*75
$GAGSV,1,1,00,0*74
$GNGLL,5552.35393,N,03800.05791,E,124022.00,A,A*79

$GNRMC,124023.00,A,5552.35391,N,03800.06045,E,1.256,,120625,,,A,V*16
$GNVTG,,T,,M,1.256,N,2.325,K,A*3B

$GNGGA,124023.00,5552.35391,N,03800.06045,E,1,10,0.98,145.1,M,12.9,M,,*49
$GNGSA,A,3,08,01,02,10,32,,,,,,,,1.56,0.98,1.21,1*0B
$GNGSA,A,3,88,86,71,87,72,,,,,,,,1.56,0.98,1.21,2*01
$GNGSA,A,3,,,,,,,,,,,,,1.56,0.98,1.21,3*02
$GPGSV,4,1,13,01,58,287,25,02,72,212,24,03,30,266,,08,17,212,09,0*60
$GPGSV,4,2,13,10,27,084,18,14,01,299,10,17,21,321,19,19,01,340,16,0*63
$GPGSV,4,3,13,22,07,315,,24,02,017,,28,22,126,,31,06,149,,0*65
$GPGSV,4,4,13,32,56,075,16,0*50
$GLGSV,2,1,08,70,29,050,,71,79,048,20,72,45,229,24,79,16,002,,0*7D
$GLGSV,2,2,08,80,15,055,23,86,51,172,30,87,70,287,18,88,13,326,18,0*71

$GAGSV,1,1,00,0*74
$GNGLL,5552.35391,N,03800.06045,E,124023.00,A,A*77

$GNRMC,124024.00,A,5552.35362,N,03800.06374,E,2.368,,120625,,,A,V*13

$GNVTG,,T,,M,2.368,N,4.386,K,A*3B
$GNGGA,124024.00,5552.35362,N,03800.06374,E,1,10,1.00,144.0,M,12.9,M,,*43
$GNGSA,A,3,08,01,02,10,32,,,,,,,,1.63,1.00,1.29,1*05
$GNGSA,A,3,88,86,71,87,72,,,,,,,,1.63,1.00,1.29,2*0F
$GNGSA,A,3,,,,,,,,,,,,,1.63,1.00,1.29,3*0C
$GPGSV,4,1,13,01,58,287,25,02,72,212,24,03,30,266,21,08,17,212,11,0*6A
$GPGSV,4,2,13,10,27,084,17,14,01,299,09,17,21,321,18,19,01,340,14,0*67
$GPGSV,4,3,13,22,07,315,20,24,02,017,,28,22,126,,31,06,149,,0*67
$GPGSV,4,4,13,32,56,075,14,0*52
$GLGSV,2,1,08,70,29,050,,71,79,048,19,72,45,229,25,79,16,002,,0*76
$GLGSV,2,2,08,80,15,055,22,86,51,172,23,87,70,287,18,88,13,326,19,0*73

$GAGSV,1,1,00,0*74
$GNGLL,5552.35362,N,03800.06374,E,124024.00,A,A*7D

$GNRMC,124025.00,A,5552.35354,N,03800.06767,E,3.687,12.05,120625,,,A,V*3C
$GNVTG,12.05,T,,M,3.687,N,6.828,K,A*1B

$GNGGA,124025.00,5552.35354,N,03800.06767,E,1,09,1.21,142.1,M,12.9,M,,*4D
$GNGSA,A,3,01,02,10,32,,,,,,,,,2.03,1.21,1.63,1*05
$GNGSA,A,3,88,86,71,87,72,,,,,,,,2.03,1.21,1.63,2*07
$GNGSA,A,3,,,,,,,,,,,,,2.03,1.21,1.63,3*04
$GPGSV,4,1,13,01,58,287,22,02,72,212,22,03,30,266,18,08,17,212,06,0*67
$GPGSV,4,2,13,10,27,084,15,14,01,299,08,17,21,321,19,19,01,340,12,0*63
$GPGSV,4,3,13,22,07,315,18,24,02,017,,28,22,126,,31,06,149,,0*6C
$GPGSV,4,4,13,32,56,075,15,0*53
$GLGSV,2,1,08,70,29,050,,71,79,048,18,72,45,229,21,79,16,002,,0*73
$GLGSV,2,2,08,80,15,055,20,86,51,172,22,87,70,287,21,88,13,326,16,0*75
$GAGSV,1,1,00,0*74
$GNGLL,5552.35354,N,03800.06767,E,124025.00,A,A*7F

$GNRMC,124026.00,A,5552.35245,N,03800.06979,E,3.192,43.00,120625,,,A,V*3D
$GNVTG,43.00,T,,M,3.192,N,5.912,K,A*12

$GNGGA,124026.00,5552.35245,N,03800.06979,E,1,09,1.28,140.2,M,12.9,M,,*46
$GNGSA,A,3,08,01,02,32,,,,,,,,,1.94,1.28,1.46,1*0F
$GNGSA,A,3,88,86,71,87,72,,,,,,,,1.94,1.28,1.46,2*04
$GNGSA,A,3,,,,,,,,,,,,,1.94,1.28,1.46,3*07
$GPGSV,4,1,13,01,58,287,20,02,72,212,21,03,30,266,16,08,17,212,09,0*67
$GPGSV,4,2,13,10,27,084,11,14,01,299,08,17,21,321,19,19,01,340,08,0*6C
$GPGSV,4,3,13,22,07,315,16,24,02,017,,28,22,126,,31,06,149,,0*62
$GPGSV,4,4,13,32,56,075,17,0*51
$GLGSV,2,1,08,70,29,050,,71,79,048,19,72,45,229,23,79,16,002,,0*70

$GLGSV,2,2,08,80,15,055,18,86,51,172,20,87,70,287,21,88,13,326,16,0*7C
$GAGSV,1,1,00,0*74
$GNGLL,5552.35245,N,03800.06979,E,124026.00,A,A*7C

$GNRMC,124027.00,A,5552.35163,N,03800.07040,E,1.614,,120625,,,A,V*1B
$GNVTG,,T,,M,1.614,N,2.988,K,A*34
$GNGGA,124027.00,5552.35163,N,03800.07040,E,1,10,0.98,139.1,M,12.9,M,,*4D

$GNGSA,A,3,08,01,02,10,32,,,,,,,,1.56,0.98,1.21,1*0B
$GNGSA,A,3,88,86,71,87,72,,,,,,,,1.56,0.98,1.21,2*01
$GNGSA,A,3,,,,,,,,,,,,,1.56,0.98,1.21,3*02
$GPGSV,4,1,13,01,58,287,18,02,72,212,20,03,30,266,15,08,17,211,07,0*63
$GPGSV,4,2,13,10,27,084,11,14,01,299,08,17,21,321,18,19,01,340,08,0*6D
$GPGSV,4,3,13,22,07,315,14,24,02,017,,28,22,126,,31,06,149,,0*60
$GPGSV,4,4,13,32,56,075,17,0*51
$GLGSV,2,1,08,70,29,050,,71,79,048,18,72,45,229,23,79,16,002,,0*71
$GLGSV,2,2,08,80,15,055,14,86,51,172,20,87,70,287,21,88,13,326,13,0*75
$GAGSV,1,1,00,0*74
$GNGLL,5552.35163,N,03800.07040,E,124027.00,A,A*78

$GNRMC,124028.00,A,5552.35090,N,03800.07082,E,0.628,,120625,,,A,V*19
$GNVTG,,T,,M,0.628,N,1.164,K,A*33

$GNGGA,124028.00,5552.35090,N,03800.07082,E,1,10,0.98,138.3,M,12.9,M,,*42
$GNGSA,A,3,08,01,02,10,32,,,,,,,,1.56,0.98,1.21,1*0B
$GNGSA,A,3,88,86,71,87,72,,,,,,,,1.56,0.98,1.21,2*01
$GNGSA,A,3,,,,,,,,,,,,,1.56,0.98,1.21,3*02
$GPGSV,4,1,13,01,58,287,20,02,72,212,21,03,30,266,17,08,17,211,10,0*6D
$GPGSV,4,2,13,10,27,084,13,14,01,299,08,17,21,321,17,19,01,340,08,0*60
$GPGSV,4,3,13,22,07,315,12,24,02,017,,28,22,126,,31,06,149,,0*66
$GPGSV,4,4,13,32,56,075,16,0*50
$GLGSV,2,1,08,70,29,050,,71,79,048,18,72,45,229,25,79,16,002,,0*77
$GLGSV,2,2,08,80,15,055,15,86,51,172,20,87,70,287,20,88,13,326,13,0*75
$GAGSV,1,1,00,0*74
$GNGLL,5552.35090,N,03800.07082,E,124028.00,A,A*74

