$GNRMC,123951.00,A,5552.35728,N,03800.03302,E,6.072,279.59,120625,,,A,V*03

$GNVTG,279.59,T,,M,6.072,N,11.245,K,A*13
$GNGGA,123951.00,5552.35728,N,03800.03302,E,1,08,1.05,157.1,M,12.9,M,,*4E
$GNGSA,A,3,08,01,02,10,32,,,,,,,,1.67,1.05,1.30,1*0C
$GNGSA,A,3,88,86,71,,,,,,,,,,1.67,1.05,1.30,2*0C
$GNGSA,A,3,,,,,,,,,,,,,1.67,1.05,1.30,3*05
$GPGSV,4,1,13,01,57,287,07,02,72,213,08,03,29,265,,08,17,212,11,0*62
$GPGSV,4,2,13,10,27,084,08,14,01,299,,17,21,321,,19,01,340,,0*6C
$GPGSV,4,3,13,22,07,315,,24,02,017,,28,22,126,,31,06,149,,0*65
$GPGSV,4,4,13,32,56,075,09,0*5E
$GLGSV,2,1,08,70,29,050,,71,80,048,09,72,45,229,,79,16,003,,0*77
$GLGSV,2,2,08,80,14,055,,86,52,172,08,87,70,289,,88,13,326,10,0*76
$GAGSV,1,1,00,0*74
$GNGLL,5552.35728,N,03800.03302,E,123951.00,A,A*7F

$GNTXT,01,01,02,u-blox AG - www.u-blox.com*4E

$GNTXT,01,01,02,HW UBX-M8030 00080000*60
$GNTXT,01,01,02,ROM CORE 3.01 (107888)*2B
$GNTXT,01,01,02,FWVER=SPG 3.01*46
$GNTXT,01,01,02,PROTVER=18.00*11

$GNTXT,01,01,02,GPS;GLO;GAL;BDS*77
$GNTXT,01,01,02,SBAS;IMES;QZSS*49
$GNTXT,01,01,02,GNSS OTP=GPS;GLO*37
$GNTXT,01,01,02,LLC=FFFFFFFF-FFFFFFFF-FFFFFFFF-FFFFFFFF-FFFFFFFD*2F
$GNTXT,01,01,02,ANTSUPERV=AC SD PDoS SR*3E
$GNTXT,01,01,02,ANTSTATUS=OK*25
$GNTXT,01,01,02,PF=3FF*4B

$GNRMC,123952.00,A,5552.35789,N,03800.03022,E,6.072,285.04,120625,,,A,V*01
$GNVTG,285.04,T,,M,6.072,N,11.245,K,A*18

$GNGGA,123952.00,5552.35789,N,03800.03022,E,1,08,1.05,157.1,M,12.9,M,,*47
$GNGSA,A,3,08,01,02,10,32,,,,,,,,1.67,1.05,1.30,1*0C
$GNGSA,A,3,88,86,71,,,,,,,,,,1.67,1.05,1.30,2*0C
$GNGSA,A,3,,,,,,,,,,,,,1.67,1.05,1.30,3*05
$GPGSV,4,1,13,01,57,287,10,02,72,213,10,03,29,265,,08,17,212,11,0*6D
$GPGSV,4,2,13,10,27,084,09,14,01,299,,17,21,321,,19,01,340,,0*6D
$GPGSV,4,3,13,22,07,315,,24,02,017,,28,22,126,,31,06,149,,0*65
$GPGSV,4,4,13,32,56,075,12,0*54
$GLGSV,2,1,08,70,29,050,,71,80,048,08,72,45,229,,79,16,003,,0*76
$GLGSV,2,2,08,80,14,055,,86,52,172,09,87,70,289,,88,13,326,10,0*77
$GAGSV,1,1,00,0*74
$GNGLL,5552.35789,N,03800.03022,E,123952.00,A,A*76

$GNRMC,123953.00,A,5552.35589,N,03800.02736,E,6.212,284.04,120625,,,A,V*04
$GNVTG,284.04,T,,M,6.212,N,11.504,K,A*1F

$GNGGA,123953.00,5552.35589,N,03800.02736,E,1,08,1.05,157.3,M,12.9,M,,*45
$GNGSA,A,3,08,01,02,10,32,,,,,,,,1.67,1.05,1.30,1*0C
$GNGSA,A,3,88,86,71,,,,,,,,,,1.67,1.05,1.30,2*0C
$GNGSA,A,3,,,,,,,,,,,,,1.67,1.05,1.30,3*05

$GPGSV,4,1,13,01,57,287,11,02,72,213,07,03,29,265,,08,17,212,08,0*62
$GPGSV,4,2,13,10,27,084,09,14,01,299,,17,21,321,,19,01,340,,0*6D
$GPGSV,4,3,13,22,07,315,,24,02,017,,28,22,126,,31,06,149,,0*65
$GPGSV,4,4,13,32,56,075,09,0*5E
$GLGSV,2,1,08,70,29,050,,71,80,048,11,72,45,229,,79,16,003,,0*7E
$GLGSV,2,2,08,80,14,055,,86,52,172,11,87,70,289,,88,13,326,10,0*7E
$GAGSV,1,1,00,0*74
$GNGLL,5552.35589,N,03800.02736,E,123953.00,A,A*76

$GNRMC,123954.00,A,5552.35629,N,03800.02438,E,6.212,283.68,120625,,,A,V*0A

$GNVTG,283.68,T,,M,6.212,N,11.504,K,A*12
$GNGGA,123954.00,5552.35629,N,03800.02438,E,1,07,1.07,157.3,M,12.9,M,,*4B
$GNGSA,A,3,08,01,10,32,,,,,,,,,1.77,1.07,1.42,1*08
$GNGSA,A,3,88,86,71,,,,,,,,,,1.77,1.07,1.42,2*0A
$GNGSA,A,3,,,,,,,,,,,,,1.77,1.07,1.42,3*03
$GPGSV,4,1,13,01,57,287,08,02,72,213,07,03,29,265,,08,17,212,09,0*6B
$GPGSV,4,2,13,10,27,084,10,14,01,299,,17,21,321,,19,01,340,,0*65
$GPGSV,4,3,13,22,07,315,,24,02,017,,28,22,126,,31,06,149,,0*65
$GPGSV,4,4,13,32,56,075,10,0*56

$GLGSV,2,1,08,70,29,050,,71,80,048,09,72,45,229,,79,16,003,,0*77
$GLGSV,2,2,08,80,14,055,,86,52,172,12,87,70,289,,88,13,326,08,0*74
$GAGSV,1,1,00,0*74
$GNGLL,5552.35629,N,03800.02438,E,123954.00,A,A*75

$GNRMC,123955.00,A,5552.35668,N,03800.02140,E,6.212,283.50,120625,,,A,V*0F

$GNVTG,283.50,T,,M,6.212,N,11.504,K,A*19
$GNGGA,123955.00,5552.35668,N,03800.02140,E,1,08,1.05,157.4,M,12.9,M,,*4F
$GNGSA,A,3,08,01,02,10,32,,,,,,,,1.67,1.05,1.30,1*0C
$GNGSA,A,3,88,86,71,,,,,,,,,,1.67,1.05,1.30,2*0C
$GNGSA,A,3,,,,,,,,,,,,,1.67,1.05,1.30,3*05
$GPGSV,4,1,13,01,57,287,08,02,72,213,08,03,29,265,,08,17,212,10,0*6C
$GPGSV,4,2,13,10,27,084,08,14,01,299,,17,21,321,,19,01,340,,0*6C
$GPGSV,4,3,13,22,07,315,,24,02,017,,28,22,126,,31,06,149,,0*65
$GPGSV,4,4,13,32,56,075,10,0*56

$GLGSV,2,1,08,70,29,050,,71,80,048,09,72,45,229,,79,16,003,,0*77
$GLGSV,2,2,08,80,14,055,,86,52,172,09,87,70,289,,88,13,326,12,0*75
$GAGSV,1,1,00,0*74
$GNGLL,5552.35668,N,03800.02140,E,123955.00,A,A*7B

$GNRMC,123956.00,A,5552.35443,N,03800.01651,E,6.311,277.97,120625,,,A,V*01
$GNVTG,277.97,T,,M,6.311,N,11.688,K,A*1C

$GNGGA,123956.00,5552.35443,N,03800.01651,E,1,07,1.45,158.0,M,12.9,M,,*43
$GNGSA,A,3,08,01,02,32,,,,,,,,,2.20,1.45,1.66,1*0A
$GNGSA,A,3,88,86,71,,,,,,,,,,2.20,1.45,1.66,2*0B
$GNGSA,A,3,,,,,,,,,,,,,2.20,1.45,1.66,3*02
$GPGSV,4,1,13,01,57,287,10,02,72,213,09,03,29,265,,08,17,212,09,0*6C
$GPGSV,4,2,13,10,27,084,06,14,01,299,,17,21,321,,19,01,340,,0*62
$GPGSV,4,3,13,22,07,315,,24,02,017,,28,22,126,,31,06,149,,0*65
$GPGSV,4,4,13,32,56,075,10,0*56
$GLGSV,2,1,08,70,29,050,,71,80,048,09,72,45,229,,79,16,003,,0*77
$GLGSV,2,2,08,80,14,055,,86,52,172,09,87,70,289,,88,13,326,08,0*7E
$GAGSV,1,1,00,0*74
$GNGLL,5552.35443,N,03800.01651,E,123956.00,A,A*77

$GNRMC,123957.00,A,5552.35453,N,03800.01341,E,6.311,275.84,120625,,,A,V*05

$GNVTG,275.84,T,,M,6.311,N,11.688,K,A*1C
$GNGGA,123957.00,5552.35453,N,03800.01341,E,1,07,1.07,158.0,M,12.9,M,,*41
$GNGSA,A,3,08,01,10,32,,,,,,,,,1.77,1.07,1.42,1*08
$GNGSA,A,3,88,86,71,,,,,,,,,,1.77,1.07,1.42,2*0A
$GNGSA,A,3,,,,,,,,,,,,,1.77,1.07,1.42,3*03
$GPGSV,4,1,13,01,57,287,12,02,72,213,06,03,29,265,,08,17,212,08,0*60
$GPGSV,4,2,13,10,27,084,07,14,01,299,,17,21,321,,19,01,340,,0*63
$GPGSV,4,3,13,22,07,315,,24,02,017,,28,22,126,,31,06,149,,0*65
$GPGSV,4,4,13,32,56,075,08,0*5F
$GLGSV,2,1,08,70,29,050,,71,80,048,09,72,45,229,,79,16,003,,0*77
$GLGSV,2,2,08,80,14,055,,86,52,172,08,87,70,289,,88,13,326,11,0*77
$GAGSV,1,1,00,0*74
$GNGLL,5552.35453,N,03800.01341,E,123957.00,A,A*73

$GNRMC,123958.00,A,5552.35464,N,03800.01030,E,6.311,274.72,120625,,,A,V*03
$GNVTG,274.72,T,,M,6.311,N,11.688,K,A*14
$GNGGA,123958.00,5552.35464,N,03800.01030,E,1,08,1.05,158.1,M,12.9,M,,*43

$GNGSA,A,3,08,01,02,10,32,,,,,,,,1.67,1.05,1.30,1*0C
$GNGSA,A,3,88,86,71,,,,,,,,,,1.67,1.05,1.30,2*0C
$GNGSA,A,3,,,,,,,,,,,,,1.67,1.05,1.30,3*05
$GPGSV,4,1,13,01,57,287,13,02,72,213,11,03,29,265,,08,17,212,10,0*6E
$GPGSV,4,2,13,10,27,084,11,14,01,299,,17,21,321,,19,01,340,,0*64
$GPGSV,4,3,13,22,07,315,17,24,02,017,,28,22,126,,31,06,149,,0*63
$GPGSV,4,4,13,32,56,075,08,0*5F
$GLGSV,2,1,08,70,29,050,,71,80,048,09,72,45,229,,79,16,003,,0*77
$GLGSV,2,2,08,80,14,055,,86,52,172,08,87,70,289,,88,13,326,09,0*7E
$GAGSV,1,1,00,0*74
$GNGLL,5552.35464,N,03800.01030,E,123958.00,A,A*7D

$GNRMC,123959.00,A,5552.35669,N,03800.00587,E,6.967,274.46,120625,,,A,V*09
$GNVTG,274.46,T,,M,6.967,N,12.904,K,A*10
$GNGGA,123959.00,5552.35669,N,03800.00587,E,1,08,1.05,157.9,M,12.9,M,,*42
$GNGSA,A,3,08,01,02,10,32,,,,,,,,1.67,1.05,1.30,1*0C
$GNGSA,A,3,88,86,71,,,,,,,,,,1.67,1.05,1.30,2*0C
$GNGSA,A,3,,,,,,,,,,,,,1.67,1.05,1.30,3*05
$GPGSV,4,1,13,01,57,287,12,02,72,213,12,03,29,265,,08,17,212,10,0*6C
$GPGSV,4,2,13,10,27,084,12,14,01,299,,17,21,321,,19,01,340,,0*67
$GPGSV,4,3,13,22,07,315,15,24,02,017,,28,22,126,15,31,06,149,,0*65
$GPGSV,4,4,13,32,56,075,11,0*57

$GLGSV,2,1,08,70,29,050,,71,80,048,08,72,45,229,,79,16,003,,0*76
$GLGSV,2,2,08,80,14,055,,86,52,172,11,87,70,289,,88,13,326,11,0*7F
$GAGSV,1,1,00,0*74
$GNGLL,5552.35669,N,03800.00587,E,123959.00,A,A*7B

$GNRMC,124000.00,A,5552.35684,N,03800.00244,E,6.967,274.39,120625,,,A,V*08
$GNVTG,274.39,T,,M,6.967,N,12.904,K,A*18

$GNGGA,124000.00,5552.35684,N,03800.00244,E,1,08,1.05,158.0,M,12.9,M,,*4D
$GNGSA,A,3,08,01,02,10,32,,,,,,,,1.67,1.05,1.30,1*0C
$GNGSA,A,3,88,86,71,,,,,,,,,,1.67,1.05,1.30,2*0C
$GNGSA,A,3,,,,,,,,,,,,,1.67,1.05,1.30,3*05
$GPGSV,4,1,13,01,57,287,12,02,72,213,09,03,29,265,,08,17,212,10,0*66
$GPGSV,4,2,13,10,27,084,12,14,01,299,,17,21,321,,19,01,340,,0*67
$GPGSV,4,3,13,22,07,315,13,24,02,017,,28,22,126,14,31,06,149,,0*62
$GPGSV,4,4,13,32,56,075,12,0*54
$GLGSV,2,1,08,70,29,050,,71,80,048,11,72,45,229,,79,16,003,,0*7E
$GLGSV,2,2,08,80,14,055,,86,52,172,10,87,70,289,,88,13,326,11,0*7E
$GAGSV,1,1,00,0*74
$GNGLL,5552.35684,N,03800.00244,E,124000.00,A,A*72

$GNRMC,124001.00,A,5552.35698,N,03759.99902,E,6.967,274.35,120625,,,A,V*02
$GNVTG,274.35,T,,M,6.967,N,12.904,K,A*14

$GNGGA,124001.00,5552.35698,N,03759.99902,E,1,08,1.05,158.0,M,12.9,M,,*4B
$GNGSA,A,3,08,01,02,10,32,,,,,,,,1.67,1.05,1.30,1*0C
$GNGSA,A,3,88,86,71,,,,,,,,,,1.67,1.05,1.30,2*0C
$GNGSA,A,3,,,,,,,,,,,,,1.67,1.05,1.30,3*05
$GPGSV,4,1,13,01,57,287,10,02,72,213,11,03,29,265,,08,17,212,08,0*64
$GPGSV,4,2,13,10,27,084,11,14,01,299,,17,21,321,,19,01,340,,0*64
$GPGSV,4,3,13,22,07,315,11,24,02,017,,28,22,126,12,31,06,149,,0*66
$GPGSV,4,4,13,32,56,075,09,0*5E
$GLGSV,2,1,08,70,29,050,,71,80,048,09,72,45,229,,79,16,003,,0*77
$GLGSV,2,2,08,80,14,055,,86,52,172,10,87,70,289,,88,13,326,11,0*7E
$GAGSV,1,1,00,0*74
$GNGLL,5552.35698,N,03759.99902,E,124001.00,A,A*74

$GNRMC,124002.00,A,5552.35831,N,03800.00173,E,6.542,275.07,120625,,,A,V*0A
$GNVTG,275.07,T,,M,6.542,N,12.116,K,A*14

$GNGGA,124002.00,5552.35831,N,03800.00173,E,1,07,1.66,159.3,M,12.9,M,,*40
$GNGSA,A,3,08,01,02,10,32,,,,,,,,2.53,1.66,1.90,1*07
$GNGSA,A,3,86,71,,,,,,,,,,,2.53,1.66,1.90,2*07
$GNGSA,A,3,,,,,,,,,,,,,2.53,1.66,1.90,3*0E
$GPGSV,4,1,13,01,57,287,11,02,72,213,10,03,29,265,,08,17,212,10,0*6D
$GPGSV,4,2,13,10,27,084,08,14,01,299,,17,21,321,,19,01,340,,0*6C
$GPGSV,4,3,13,22,07,315,09,24,02,017,,28,22,126,12,31,06,149,,0*6F
$GPGSV,4,4,13,32,56,075,11,0*57
$GLGSV,2,1,08,70,29,050,,71,79,048,14,72,45,229,,79,16,003,,0*7D
$GLGSV,2,2,08,80,14,055,,86,52,172,11,87,70,289,,88,13,326,06,0*79
$GAGSV,1,1,00,0*74
$GNGLL,5552.35831,N,03800.00173,E,124002.00,A,A*77

$GNRMC,124003.00,A,5552.35850,N,03759.99852,E,6.542,275.44,120625,,,A,V*02
$GNVTG,275.44,T,,M,6.542,N,12.116,K,A*13

$GNGGA,124003.00,5552.35850,N,03759.99852,E,1,08,1.05,159.3,M,12.9,M,,*45
$GNGSA,A,3,08,01,02,10,32,,,,,,,,1.67,1.05,1.30,1*0C
$GNGSA,A,3,88,86,71,,,,,,,,,,1.67,1.05,1.30,2*0C
$GNGSA,A,3,,,,,,,,,,,,,1.67,1.05,1.30,3*05
$GPGSV,4,1,13,01,57,287,08,02,72,213,09,03,29,265,,08,17,212,07,0*6B
$GPGSV,4,2,13,10,27,084,09,14,01,299,,17,21,321,,19,01,340,,0*6D
$GPGSV,4,3,13,22,07,315,08,24,02,017,,28,22,126,12,31,06,149,,0*6E
$GPGSV,4,4,13,32,56,075,08,0*5F
$GLGSV,2,1,08,70,29,050,,71,79,048,10,72,45,229,,79,16,003,,0*79
$GLGSV,2,2,08,80,14,055,,86,52,172,08,87,70,289,,88,13,326,08,0*7F
$GAGSV,1,1,00,0*74
$GNGLL,5552.35850,N,03759.99852,E,124003.00,A,A*78

$GNRMC,124004.00,A,5552.35868,N,03759.99531,E,6.542,275.64,120625,,,A,V*04
$GNVTG,275.64,T,,M,6.542,N,12.116,K,A*11

$GNGGA,124004.00,5552.35868,N,03759.99531,E,1,08,1.05,159.4,M,12.9,M,,*46
$GNGSA,A,3,08,01,02,10,32,,,,,,,,1.67,1.05,1.30,1*0C
$GNGSA,A,3,88,86,71,,,,,,,,,,1.67,1.05,1.30,2*0C
$GNGSA,A,3,,,,,,,,,,,,,1.67,1.05,1.30,3*05
$GPGSV,4,1,13,01,57,287,08,02,72,213,10,03,29,265,,08,17,212,10,0*65
$GPGSV,4,2,13,10,27,084,09,14,01,299,,17,21,321,,19,01,340,,0*6D
$GPGSV,4,3,13,22,07,315,07,24,02,017,,28,22,126,09,31,06,149,,0*6B
$GPGSV,4,4,13,32,56,075,09,0*5E
$GLGSV,2,1,08,70,29,050,,71,79,048,09,72,45,229,,79,16,003,,0*71
$GLGSV,2,2,08,80,14,055,,86,52,172,09,87,70,289,,88,13,326,08,0*7E
$GAGSV,1,1,00,0*74
$GNGLL,5552.35868,N,03759.99531,E,124004.00,A,A*7C

$GNRMC,124005.00,A,5552.35466,N,03759.98765,E,6.697,272.92,120625,,,A,V*00
$GNVTG,272.92,T,,M,6.697,N,12.402,K,A*14
$GNGGA,124005.00,5552.35466,N,03759.98765,E,1,06,1.87,159.2,M,12.9,M,,*45
$GNGSA,A,3,08,02,32,,,,,,,,,,2.84,1.87,2.14,1*0D

$GNGSA,A,3,88,86,71,,,,,,,,,,2.84,1.87,2.14,2*0D
$GNGSA,A,3,,,,,,,,,,,,,2.84,1.87,2.14,3*04
$GPGSV,4,1,13,01,57,287,09,02,72,213,14,03,29,265,,08,17,212,11,0*61
$GPGSV,4,2,13,10,27,084,06,14,01,299,,17,21,321,,19,01,340,,0*62
$GPGSV,4,3,13,22,07,315,06,24,02,017,,28,22,126,08,31,06,149,,0*6B
$GPGSV,4,4,13,32,56,075,12,0*54
$GLGSV,2,1,08,70,29,050,,71,79,048,12,72,45,229,,79,16,003,,0*7B
$GLGSV,2,2,08,80,14,055,,86,52,172,10,87,70,289,,88,13,326,10,0*7F
$GAGSV,1,1,00,0*74
$GNGLL,5552.35466,N,03759.98765,E,124005.00,A,A*7D

$GNRMC,124006.00,A,5552.35469,N,03759.98435,E,6.697,271.95,120625,,,A,V*0E
$GNVTG,271.95,T,,M,6.697,N,12.402,K,A*10

$GNGGA,124006.00,5552.35469,N,03759.98435,E,1,06,1.87,159.2,M,12.9,M,,*4F
$GNGSA,A,3,08,02,32,,,,,,,,,,2.84,1.87,2.14,1*0D
$GNGSA,A,3,88,86,71,,,,,,,,,,2.84,1.87,2.14,2*0D
$GNGSA,A,3,,,,,,,,,,,,,2.84,1.87,2.14,3*04
$GPGSV,4,1,13,01,57,287,12,02,72,213,11,03,29,265,,08,17,212,08,0*66
$GPGSV,4,2,13,10,27,084,08,14,01,299,,17,21,321,,19,01,340,,0*6C
$GPGSV,4,3,13,22,07,315,06,24,02,017,,28,22,126,08,31,06,149,,0*6B
$GPGSV,4,4,13,32,56,075,11,0*57
$GLGSV,2,1,08,70,29,050,,71,79,048,18,72,45,229,,79,16,003,,0*71
$GLGSV,2,2,08,80,14,055,,86,52,172,12,87,70,289,24,88,13,326,14,0*7F
$GAGSV,1,1,00,0*74
$GNGLL,5552.35469,N,03759.98435,E,124006.00,A,A*77

$GNRMC,124007.00,A,5552.35472,N,03759.98105,E,6.697,271.45,120625,,,A,V*0E

$GNVTG,271.45,T,,M,6.697,N,12.402,K,A*1D
$GNGGA,124007.00,5552.35472,N,03759.98105,E,1,05,3.58,159.3,M,12.9,M,,*40
$GNGSA,A,3,08,02,,,,,,,,,,,4.71,3.58,3.07,1*03
$GNGSA,A,3,88,86,71,,,,,,,,,,4.71,3.58,3.07,2*02
$GNGSA,A,3,,,,,,,,,,,,,4.71,3.58,3.07,3*0B
$GPGSV,4,1,13,01,57,287,12,02,72,213,09,03,29,265,,08,17,212,10,0*66
$GPGSV,4,2,13,10,27,084,08,14,01,299,,17,21,321,,19,01,340,,0*6C
$GPGSV,4,3,13,22,07,315,08,24,02,017,,28,22,126,09,31,06,149,,0*64
$GPGSV,4,4,13,32,56,075,06,0*51
$GLGSV,2,1,08,70,29,050,,71,79,048,09,72,45,229,,79,16,003,,0*71
$GLGSV,2,2,08,80,14,055,,86,52,172,09,87,70,289,20,88,13,326,14,0*71
$GAGSV,1,1,00,0*74
$GNGLL,5552.35472,N,03759.98105,E,124007.00,A,A*7A

$GNRMC,124008.00,A,5552.35266,N,03759.99467,E,4.385,,120625,,,A,V*1D

$GNVTG,,T,,M,4.385,N,8.122,K,A*3E
$GNGGA,124008.00,5552.35266,N,03759.99467,E,1,07,1.50,157.6,M,12.9,M,,*4F
$GNGSA,A,3,01,02,10,32,,,,,,,,,2.42,1.50,1.89,1*02
$GNGSA,A,3,88,86,71,,,,,,,,,,2.42,1.50,1.89,2*0A
$GNGSA,A,3,,,,,,,,,,,,,2.42,1.50,1.89,3*03
$GPGSV,4,1,13,01,57,287,18,02,72,213,15,03,29,265,,08,17,212,07,0*67
$GPGSV,4,2,13,10,27,084,10,14,01,299,,17,21,321,,19,01,340,,0*65
$GPGSV,4,3,13,22,07,315,07,24,02,017,,28,22,126,07,31,06,149,,0*65
$GPGSV,4,4,13,32,56,075,12,0*54
$GLGSV,2,1,08,70,29,050,,71,79,048,13,72,45,229,,79,16,003,,0*7A
$GLGSV,2,2,08,80,14,055,,86,52,172,08,87,70,289,18,88,13,326,14,0*7B
$GAGSV,1,1,00,0*74
$GNGLL,5552.35266,N,03759.99467,E,124008.00,A,A*76

$GNRMC,124009.00,A,5552.35112,N,03759.99801,E,4.140,,120625,,,A,V*1B
$GNVTG,,T,,M,4.140,N,7.667,K,A*3C

$GNGGA,124009.00,5552.35112,N,03759.99801,E,1,08,1.48,155.6,M,12.9,M,,*46
$GNGSA,A,3,01,02,10,32,,,,,,,,,2.32,1.48,1.79,1*03
$GNGSA,A,3,88,86,71,87,,,,,,,,,2.32,1.48,1.79,2*04
$GNGSA,A,3,,,,,,,,,,,,,2.32,1.48,1.79,3*02
$GPGSV,4,1,13,01,57,287,13,02,72,213,17,03,29,265,,08,17,212,08,0*61
$GPGSV,4,2,13,10,27,084,11,14,01,299,,17,21,321,,19,01,340,,0*64
$GPGSV,4,3,13,22,07,315,07,24,02,017,,28,22,126,08,31,06,149,,0*6A
$GPGSV,4,4,13,32,56,075,21,0*54
$GLGSV,2,1,08,70,29,050,,71,79,048,16,72,45,229,19,79,16,003,,0*77
$GLGSV,2,2,08,80,14,055,,86,52,172,21,87,70,289,19,88,13,326,21,0*77
$GAGSV,1,1,00,0*74

$GNGLL,5552.35112,N,03759.99801,E,124009.00,A,A*7B

$GNRMC,124010.00,A,5552.34991,N,03800.00718,E,2.484,,120625,,,A,V*1E

$GNVTG,,T,,M,2.484,N,4.601,K,A*34
$GNGGA,124010.00,5552.34991,N,03800.00718,E,1,08,1.48,154.4,M,12.9,M,,*4B
$GNGSA,A,3,01,02,10,32,,,,,,,,,2.32,1.48,1.79,1*03
$GNGSA,A,3,88,86,71,87,,,,,,,,,2.32,1.48,1.79,2*04
$GNGSA,A,3,,,,,,,,,,,,,2.32,1.48,1.79,3*02
$GPGSV,4,1,13,01,57,287,18,02,72,213,18,03,29,265,,08,17,212,10,0*6C
$GPGSV,4,2,13,10,27,084,14,14,01,299,,17,21,321,,19,01,340,,0*61
$GPGSV,4,3,13,22,07,315,07,24,02,017,,28,22,126,08,31,06,149,,0*6A
$GPGSV,4,4,13,32,56,075,21,0*54

$GLGSV,2,1,08,70,29,050,,71,79,048,24,72,45,229,19,79,16,002,,0*77
$GLGSV,2,2,08,80,14,055,,86,52,172,16,87,70,289,19,88,13,326,21,0*73
$GAGSV,1,1,00,0*74
$GNGLL,5552.34991,N,03800.00718,E,124010.00,A,A*75

$GNRMC,124011.00,A,5552.35161,N,03800.01976,E,0.691,,120625,,,A,V*1A
$GNVTG,,T,,M,0.691,N,1.280,K,A*38

$GNGGA,124011.00,5552.35161,N,03800.01976,E,1,09,1.02,152.7,M,12.9,M,,*41
$GNGSA,A,3,08,01,02,10,32,,,,,,,,1.59,1.02,1.21,1*06
$GNGSA,A,3,88,86,71,87,,,,,,,,,1.59,1.02,1.21,2*09
$GNGSA,A,3,,,,,,,,,,,,,1.59,1.02,1.21,3*0F
$GPGSV,4,1,13,01,57,287,17,02,72,213,22,03,29,265,,08,17,212,11,0*6B
$GPGSV,4,2,13,10,27,084,16,14,01,299,,17,21,321,,19,01,340,,0*63
$GPGSV,4,3,13,22,07,315,08,24,02,017,19,28,22,126,08,31,06,149,,0*6D
$GPGSV,4,4,13,32,56,075,23,0*56
$GLGSV,2,1,08,70,29,050,,71,79,048,21,72,45,229,19,79,16,002,,0*72
$GLGSV,2,2,08,80,15,055,,86,52,172,16,87,70,289,17,88,13,326,21,0*7C
$GAGSV,1,1,00,0*74
$GNGLL,5552.35161,N,03800.01976,E,124011.00,A,A*75

$GNRMC,124012.00,A,5552.35399,N,03800.02566,E,0.645,,120625,,,A,V*1B
$GNVTG,,T,,M,0.645,N,1.194,K,A*37

$GNGGA,124012.00,5552.35399,N,03800.02566,E,1,10,0.98,152.0,M,12.9,M,,*44
$GNGSA,A,3,08,01,02,10,32,,,,,,,,1.56,0.98,1.21,1*0B
$GNGSA,A,3,88,86,71,87,72,,,,,,,,1.56,0.98,1.21,2*01
$GNGSA,A,3,,,,,,,,,,,,,1.56,0.98,1.21,3*02
$GPGSV,4,1,13,01,57,287,17,02,72,213,20,03,29,265,,08,17,212,11,0*69
$GPGSV,4,2,13,10,27,084,19,14,01,299,,17,21,321,,19,01,340,,0*6C
$GPGSV,4,3,13,22,07,315,,24,02,017,,28,22,126,08,31,06,149,,0*6D
$GPGSV,4,4,13,32,56,075,22,0*57
$GLGSV,2,1,08,70,29,050,,71,79,048,21,72,45,229,20,79,16,002,,0*78
$GLGSV,2,2,08,80,15,055,,86,52,172,17,87,70,289,17,88,13,326,21,0*7D
$GAGSV,1,1,00,0*74
$GNGLL,5552.35399,N,03800.02566,E,124012.00,A,A*7D

$GNRMC,124013.00,A,5552.35616,N,03800.03094,E,0.579,,120625,,,A,V*1D
$GNVTG,,T,,M,0.579,N,1.073,K,A*33

$GNGGA,124013.00,5552.35616,N,03800.03094,E,1,10,0.98,151.2,M,12.9,M,,*4F
$GNGSA,A,3,08,01,02,10,32,,,,,,,,1.56,0.98,1.21,1*0B
$GNGSA,A,3,88,86,71,87,72,,,,,,,,1.56,0.98,1.21,2*01
$GNGSA,A,3,,,,,,,,,,,,,1.56,0.98,1.21,3*02
$GPGSV,4,1,13,01,57,287,15,02,72,213,19,03,29,265,,08,17,212,11,0*61
$GPGSV,4,2,13,10,27,084,14,14,01,299,,17,21,321,,19,01,340,,0*61
$GPGSV,4,3,13,22,07,315,,24,02,017,,28,22,126,08,31,06,149,,0*6D
$GPGSV,4,4,13,32,56,075,22,0*57
$GLGSV,2,1,08,70,29,050,,71,79,048,19,72,45,229,20,79,16,002,,0*73
$GLGSV,2,2,08,80,15,055,,86,52,172,15,87,70,289,17,88,13,326,20,0*7E
$GAGSV,1,1,00,0*74
$GNGLL,5552.35616,N,03800.03094,E,124013.00,A,A*77

$GNRMC,124014.00,A,5552.35595,N,03800.03619,E,0.763,,120625,,,A,V*18
$GNVTG,,T,,M,0.763,N,1.413,K,A*38

$GNGGA,124014.00,5552.35595,N,03800.03619,E,1,09,1.21,150.1,M,12.9,M,,*4A
$GNGSA,A,3,01,02,10,32,,,,,,,,,2.03,1.21,1.63,1*05
$GNGSA,A,3,88,86,71,87,72,,,,,,,,2.03,1.21,1.63,2*07
$GNGSA,A,3,,,,,,,,,,,,,2.03,1.21,1.63,3*04
$GPGSV,4,1,13,01,57,287,16,02,72,213,16,03,29,265,,08,17,212,07,0*6A
$GPGSV,4,2,13,10,27,084,15,14,01,299,,17,21,321,,19,01,340,,0*60
$GPGSV,4,3,13,22,07,315,,24,02,017,,28,22,126,,31,06,149,,0*65
$GPGSV,4,4,13,32,56,075,21,0*54
$GLGSV,2,1,08,70,29,050,,71,79,048,19,72,45,229,18,79,16,002,,0*78
$GLGSV,2,2,08,80,15,055,25,86,52,172,14,87,70,289,18,88,13,326,18,0*7C
$GAGSV,1,1,00,0*74
$GNGLL,5552.35595,N,03800.03619,E,124014.00,A,A*7B

$GNRMC,124015.00,A,5552.35633,N,03800.03962,E,0.913,,120625,,,A,V*1C
$GNVTG,,T,,M,0.913,N,1.691,K,A*39
$GNGGA,124015.00,5552.35633,N,03800.03962,E,1,10,0.98,149.2,M,12.9,M,,*47
$GNGSA,A,3,08,01,02,10,32,,,,,,,,1.56,0.98,1.21,1*0B
$GNGSA,A,3,88,86,71,87,72,,,,,,,,1.56,0.98,1.21,2*01
$GNGSA,A,3,,,,,,,,,,,,,1.56,0.98,1.21,3*02

$GPGSV,4,1,13,01,57,287,17,02,72,213,16,03,29,265,,08,17,212,10,0*6D
$GPGSV,4,2,13,10,27,084,16,14,01,299,,17,21,321,,19,01,340,,0*63
$GPGSV,4,3,13,22,07,315,,24,02,017,,28,22,126,,31,06,149,,0*65
$GPGSV,4,4,13,32,56,075,23,0*56
$GLGSV,2,1,08,70,29,050,,71,79,048,21,72,45,229,18,79,16,002,,0*73
$GLGSV,2,2,08,80,15,055,22,86,52,172,16,87,70,289,19,88,13,326,16,0*76
$GAGSV,1,1,00,0*74
$GNGLL,5552.35633,N,03800.03962,E,124015.00,A,A*76

$GNRMC,124016.00,A,5552.35570,N,03800.04207,E,1.411,,120625,,,A,V*1A
$GNVTG,,T,,M,1.411,N,2.613,K,A*3E

$GNGGA,124016.00,5552.35570,N,03800.04207,E,1,10,0.98,147.7,M,12.9,M,,*44
$GNGSA,A,3,08,01,02,10,32,,,,,,,,1.56,0.98,1.21,1*0B
$GNGSA,A,3,88,86,71,87,72,,,,,,,,1.56,0.98,1.21,2*01
$GNGSA,A,3,,,,,,,,,,,,,1.56,0.98,1.21,3*02
$GPGSV,4,1,13,01,57,287,11,02,72,213,14,03,29,265,,08,17,212,09,0*61
$GPGSV,4,2,13,10,27,084,19,14,01,299,,17,21,321,,19,01,340,,0*6C
$GPGSV,4,3,13,22,07,315,,24,02,017,,28,22,126,,31,06,149,,0*65
$GPGSV,4,4,13,32,56,075,23,0*56
$GLGSV,2,1,08,70,29,050,,71,79,048,22,72,45,229,18,79,16,002,,0*70
$GLGSV,2,2,08,80,15,055,20,86,52,172,17,87,70,289,20,88,13,326,18,0*71
$GAGSV,1,1,00,0*74
$GNGLL,5552.35570,N,03800.04207,E,124016.00,A,A*7E

