$GNTXT,01,01,02,u-blox AG - www.u-blox.com*4E
$GNTXT,01,01,02,HW UBX-M8030 00080000*60
$GNTXT,01,01,02,ROM CORE 3.01 (107888)*2B
$GNTXT,01,01,02,FWVER=SPG 3.01*46
$GNTXT,01,01,02,PROTVER=18.00*11
$GNTXT,01,01,02,GPS;GLO;GAL;BDS*77

$GNTXT,01,01,02,SBAS;IMES;QZSS*49
$GNTXT,01,01,02,GNSS OTP=GPS;GLO*37
$GNTXT,01,01,02,LLC=FFFFFFFF-FFFFFFFF-FFFFFFFF-FFFFFFFF-FFFFFFFD*2F
$GNTXT,01,01,02,ANTSUPERV=AC SD PDoS SR*3E
$GNTXT,01,01,02,ANTSTATUS=OK*25
$GNTXT,01,01,02,PF=3FF*4B

$GNRMC,130450.00,A,5552.32881,N,03800.09658,E,0.562,,120625,,,A,V*1A
$GNVTG,,T,,M,0.562,N,1.041,K,A*38

$GNGGA,130450.00,5552.32881,N,03800.09658,E,1,11,0.91,148.7,M,12.9,M,,*47
$GNGSA,A,3,08,01,02,10,32,,,,,,,,1.42,0.91,1.09,1*0D
$GNGSA,A,3,88,86,71,87,72,80,,,,,,,1.42,0.91,1.09,2*0F
$GNGSA,A,3,,,,,,,,,,,,,1.42,0.91,1.09,3*04
$GPGSV,4,1,13,01,66,272,12,02,63,192,24,03,40,271,14,04,02,217,,0*68
$GPGSV,4,2,13,08,07,207,12,10,17,090,09,12,01,038,,17,26,312,18,0*6D
$GPGSV,4,3,13,19,09,335,20,22,02,306,,28,31,117,,31,16,144,,0*6A
$GPGSV,4,4,13,32,48,065,17,0*5F
$GLGSV,3,1,10,65,03,237,,70,18,054,,71,65,047,27,72,58,239,20,0*72
$GLGSV,3,2,10,73,05,095,,79,12,352,,80,20,044,25,86,38,173,10,0*71
$GLGSV,3,3,10,87,72,244,08,88,24,325,23,0*7B
$GAGSV,1,1,00,0*74
$GNGLL,5552.32881,N,03800.09658,E,130450.00,A,A*7A

$GNRMC,130451.00,A,5552.32874,N,03800.09687,E,0.581,,120625,,,A,V*1E

$GNVTG,,T,,M,0.581,N,1.076,K,A*31
$GNGGA,130451.00,5552.32874,N,03800.09687,E,1,10,0.98,148.5,M,12.9,M,,*44
$GNGSA,A,3,08,01,02,10,32,,,,,,,,1.47,0.98,1.09,1*01
$GNGSA,A,3,88,71,87,72,80,,,,,,,,1.47,0.98,1.09,2*0D
$GNGSA,A,3,,,,,,,,,,,,,1.47,0.98,1.09,3*08
$GPGSV,4,1,13,01,66,272,15,02,63,192,22,03,40,271,10,04,02,217,,0*6D
$GPGSV,4,2,13,08,07,207,10,10,17,090,10,12,01,038,,17,26,312,17,0*68
$GPGSV,4,3,13,19,09,335,19,22,02,306,,28,31,117,,31,16,144,,0*60
$GPGSV,4,4,13,32,47,065,17,0*50

$GLGSV,3,1,10,65,03,237,,70,18,054,,71,65,047,26,72,58,239,20,0*73
$GLGSV,3,2,10,73,05,095,,79,12,352,,80,20,044,24,86,38,173,09,0*78
$GLGSV,3,3,10,87,72,244,13,88,24,325,24,0*76
$GAGSV,1,1,00,0*74
$GNGLL,5552.32874,N,03800.09687,E,130451.00,A,A*73

$GNRMC,130452.00,A,5552.32888,N,03800.09678,E,0.317,,120625,,,A,V*17
$GNVTG,,T,,M,0.317,N,0.588,K,A*3D

$GNGGA,130452.00,5552.32888,N,03800.09678,E,1,10,0.98,148.4,M,12.9,M,,*45
$GNGSA,A,3,08,01,02,10,32,,,,,,,,1.47,0.98,1.09,1*01
$GNGSA,A,3,88,71,87,72,80,,,,,,,,1.47,0.98,1.09,2*0D
$GNGSA,A,3,,,,,,,,,,,,,1.47,0.98,1.09,3*08
$GPGSV,4,1,13,01,66,272,14,02,63,192,22,03,40,271,12,04,02,217,,0*6E
$GPGSV,4,2,13,08,07,207,08,10,17,090,11,12,01,038,,17,26,312,16,0*61
$GPGSV,4,3,13,19,09,335,18,22,02,306,,28,31,117,,31,16,144,,0*61
$GPGSV,4,4,13,32,47,065,17,0*50
$GLGSV,3,1,10,65,03,237,,70,18,054,,71,65,047,25,72,58,239,18,0*7B
$GLGSV,3,2,10,73,05,095,,79,12,352,21,80,20,044,20,86,38,173,08,0*7E
$GLGSV,3,3,10,87,72,244,11,88,24,325,25,0*75

$GAGSV,1,1,00,0*74
$GNGLL,5552.32888,N,03800.09678,E,130452.00,A,A*73

$GNRMC,130453.00,A,5552.32890,N,03800.09632,E,0.255,,120625,,,A,V*16
$GNVTG,,T,,M,0.255,N,0.472,K,A*3E

$GNGGA,130453.00,5552.32890,N,03800.09632,E,1,10,1.00,148.7,M,12.9,M,,*40
$GNGSA,A,3,08,02,10,32,,,,,,,,,1.51,1.00,1.13,1*0C
$GNGSA,A,3,88,86,71,87,72,80,,,,,,,1.51,1.00,1.13,2*0F
$GNGSA,A,3,,,,,,,,,,,,,1.51,1.00,1.13,3*04
$GPGSV,4,1,13,01,66,272,07,02,63,192,20,03,40,271,14,04,02,217,,0*68
$GPGSV,4,2,13,08,07,207,10,10,17,090,12,12,01,038,,17,26,312,15,0*68
$GPGSV,4,3,13,19,09,335,16,22,02,306,,28,31,117,,31,16,144,,0*6F
$GPGSV,4,4,13,32,47,065,17,0*50
$GLGSV,3,1,10,65,03,237,,70,18,054,,71,65,047,23,72,58,239,15,0*70
$GLGSV,3,2,10,73,05,095,,79,12,352,21,80,20,044,15,86,38,173,12,0*73
$GLGSV,3,3,10,87,72,244,12,88,24,325,26,0*75
$GAGSV,1,1,00,0*74

$GNGLL,5552.32890,N,03800.09632,E,130453.00,A,A*75

$GNRMC,130454.00,A,5552.32866,N,03800.09639,E,0.082,,120625,,,A,V*1B

$GNVTG,,T,,M,0.082,N,0.151,K,A*32
$GNGGA,130454.00,5552.32866,N,03800.09639,E,1,10,0.96,148.2,M,12.9,M,,*4E
$GNGSA,A,3,08,01,02,10,32,,,,,,,,1.50,0.96,1.16,1*07
$GNGSA,A,3,88,86,71,87,72,,,,,,,,1.50,0.96,1.16,2*0D
$GNGSA,A,3,,,,,,,,,,,,,1.50,0.96,1.16,3*0E
$GPGSV,4,1,13,01,66,272,07,02,63,192,18,03,40,271,,04,02,217,,0*66
$GPGSV,4,2,13,08,07,207,11,10,17,090,09,12,01,038,,17,26,312,13,0*65
$GPGSV,4,3,13,19,09,335,14,22,02,306,,28,31,117,,31,16,144,,0*6D
$GPGSV,4,4,13,32,47,065,14,0*53
$GLGSV,3,1,10,65,03,237,,70,18,054,,71,65,047,20,72,58,239,10,0*76
$GLGSV,3,2,10,73,05,095,,79,12,352,21,80,20,044,09,86,38,173,18,0*74
$GLGSV,3,3,10,87,72,244,08,88,24,325,27,0*7F
$GAGSV,1,1,00,0*74
$GNGLL,5552.32866,N,03800.09639,E,130454.00,A,A*70

$GNRMC,130455.00,A,5552.32809,N,03800.09600,E,0.511,,120625,,,A,V*16
$GNVTG,,T,,M,0.511,N,0.947,K,A*32

$GNGGA,130455.00,5552.32809,N,03800.09600,E,1,09,1.08,147.6,M,12.9,M,,*49
$GNGSA,A,3,02,10,32,,,,,,,,,,2.00,1.08,1.68,1*07
$GNGSA,A,3,88,86,71,87,72,80,,,,,,,2.00,1.08,1.68,2*0C
$GNGSA,A,3,,,,,,,,,,,,,2.00,1.08,1.68,3*07
$GPGSV,4,1,13,01,66,272,06,02,63,192,16,03,40,271,,04,02,217,,0*69
$GPGSV,4,2,13,08,07,207,06,10,17,090,11,12,01,038,,17,26,312,12,0*6B
$GPGSV,4,3,13,19,09,335,12,22,02,306,,28,31,117,,31,16,144,,0*6B
$GPGSV,4,4,13,32,47,065,14,0*53
$GLGSV,3,1,10,65,03,237,,70,18,054,,71,65,047,20,72,58,239,19,0*7F
$GLGSV,3,2,10,73,05,095,,79,12,352,21,80,20,044,14,86,38,173,19,0*79
$GLGSV,3,3,10,87,72,244,11,88,24,325,27,0*77
$GAGSV,1,1,00,0*74
$GNGLL,5552.32809,N,03800.09600,E,130455.00,A,A*72

$GNRMC,130456.00,A,5552.32770,N,03800.09516,E,1.181,,120625,,,A,V*1C
$GNVTG,,T,,M,1.181,N,2.187,K,A*38

$GNGGA,130456.00,5552.32770,N,03800.09516,E,1,11,0.91,147.7,M,12.9,M,,*46
$GNGSA,A,3,08,01,02,10,32,,,,,,,,1.42,0.91,1.09,1*0D
$GNGSA,A,3,88,86,71,87,72,80,,,,,,,1.42,0.91,1.09,2*0F
$GNGSA,A,3,,,,,,,,,,,,,1.42,0.91,1.09,3*04
$GPGSV,4,1,13,01,66,272,09,02,63,192,15,03,40,271,,04,02,217,,0*65
$GPGSV,4,2,13,08,07,207,11,10,17,090,08,12,01,038,,17,26,312,12,0*65
$GPGSV,4,3,13,19,09,335,09,22,02,306,,28,31,117,,31,16,144,,0*61
$GPGSV,4,4,13,32,47,065,11,0*56
$GLGSV,3,1,10,65,03,237,,70,18,054,,71,65,047,21,72,58,239,18,0*7F
$GLGSV,3,2,10,73,05,095,,79,12,352,20,80,20,044,14,86,38,173,17,0*76
$GLGSV,3,3,10,87,72,244,11,88,24,325,27,0*77
$GAGSV,1,1,00,0*74
$GNGLL,5552.32770,N,03800.09516,E,130456.00,A,A*74

$GNRMC,130457.00,A,5552.32756,N,03800.09486,E,1.064,,120625,,,A,V*1B
$GNVTG,,T,,M,1.064,N,1.970,K,A*31
$GNGGA,130457.00,5552.32756,N,03800.09486,E,1,10,0.94,147.6,M,12.9,M,,*4E
$GNGSA,A,3,08,01,02,10,,,,,,,,,1.46,0.94,1.12,1*07
$GNGSA,A,3,88,86,71,87,72,80,,,,,,,1.46,0.94,1.12,2*04
$GNGSA,A,3,,,,,,,,,,,,,1.46,0.94,1.12,3*0F
$GPGSV,4,1,13,01,66,272,09,02,63,192,15,03,40,271,18,04,02,217,,0*6C
$GPGSV,4,2,13,08,07,207,08,10,17,090,12,12,01,038,,17,26,312,12,0*66

$GPGSV,4,3,13,19,09,335,,22,02,306,,28,31,117,21,31,16,144,,0*6B
$GPGSV,4,4,13,32,47,065,09,0*5F
$GLGSV,3,1,10,65,03,237,,70,18,054,,71,65,047,21,72,58,239,20,0*74
$GLGSV,3,2,10,73,05,095,,79,12,352,20,80,20,044,12,86,38,173,14,0*73
$GLGSV,3,3,10,87,72,244,10,88,24,325,26,0*77
$GAGSV,1,1,00,0*74
$GNGLL,5552.32756,N,03800.09486,E,130457.00,A,A*79

$GNRMC,130458.00,A,5552.32740,N,03800.09442,E,1.059,,120625,,,A,V*15
$GNVTG,,T,,M,1.059,N,1.962,K,A*3C
$GNGGA,130458.00,5552.32740,N,03800.09442,E,1,11,0.91,147.5,M,12.9,M,,*49
$GNGSA,A,3,08,01,02,10,32,,,,,,,,1.42,0.91,1.09,1*0D
$GNGSA,A,3,88,86,71,87,72,80,,,,,,,1.42,0.91,1.09,2*0F
$GNGSA,A,3,,,,,,,,,,,,,1.42,0.91,1.09,3*04

$GPGSV,4,1,13,01,66,272,12,02,63,192,17,03,40,271,16,04,02,217,,0*6A
$GPGSV,4,2,13,08,07,207,09,10,17,090,12,12,01,038,,17,26,312,11,0*64
$GPGSV,4,3,13,19,09,335,,22,02,306,,28,31,117,19,31,16,144,18,0*69
$GPGSV,4,4,13,32,47,065,10,0*57
$GLGSV,3,1,10,65,03,237,,70,18,054,,71,65,047,19,72,58,239,20,0*7F
$GLGSV,3,2,10,73,05,095,,79,12,352,20,80,20,044,08,86,38,173,18,0*74
$GLGSV,3,3,10,87,72,244,08,88,24,325,27,0*7F
$GAGSV,1,1,00,0*74
$GNGLL,5552.32740,N,03800.09442,E,130458.00,A,A*79

$GNRMC,130459.00,A,5552.32714,N,03800.09447,E,0.893,,120625,,,A,V*1F
$GNVTG,,T,,M,0.893,N,1.655,K,A*38

$GNGGA,130459.00,5552.32714,N,03800.09447,E,1,11,0.91,146.4,M,12.9,M,,*4C
$GNGSA,A,3,08,01,02,10,32,,,,,,,,1.42,0.91,1.09,1*0D
$GNGSA,A,3,88,86,71,87,72,80,,,,,,,1.42,0.91,1.09,2*0F
$GNGSA,A,3,,,,,,,,,,,,,1.42,0.91,1.09,3*04
$GPGSV,4,1,13,01,66,272,07,02,63,192,18,03,40,271,16,04,02,217,,0*61
$GPGSV,4,2,13,08,07,207,08,10,17,090,14,12,01,038,,17,26,312,11,0*63
$GPGSV,4,3,13,19,09,335,,22,02,306,,28,31,117,18,31,16,144,16,0*66
$GPGSV,4,4,13,32,47,065,15,0*52
$GLGSV,3,1,10,65,03,237,,70,18,054,,71,65,047,19,72,58,239,22,0*7D
$GLGSV,3,2,10,73,05,095,,79,12,352,20,80,20,044,10,86,38,173,17,0*72
$GLGSV,3,3,10,87,72,244,09,88,24,325,26,0*7F

$GAGSV,1,1,00,0*74
$GNGLL,5552.32714,N,03800.09447,E,130459.00,A,A*7C

$GNRMC,130500.00,A,5552.32663,N,03800.09429,E,1.024,,120625,,,A,V*1E
$GNVTG,,T,,M,1.024,N,1.896,K,A*3C
$GNGGA,130500.00,5552.32663,N,03800.09429,E,1,11,0.91,145.9,M,12.9,M,,*46

$GNGSA,A,3,08,01,02,10,32,,,,,,,,1.42,0.91,1.09,1*0D
$GNGSA,A,3,88,86,71,87,72,80,,,,,,,1.42,0.91,1.09,2*0F
$GNGSA,A,3,,,,,,,,,,,,,1.42,0.91,1.09,3*04
$GPGSV,4,1,13,01,66,272,14,02,63,192,19,03,40,271,15,04,02,217,,0*61
$GPGSV,4,2,13,08,07,207,09,10,17,090,10,12,01,038,,17,26,312,11,0*66
$GPGSV,4,3,13,19,09,335,,22,02,306,,28,31,117,17,31,16,144,15,0*6A
$GPGSV,4,4,13,32,47,065,11,0*56
$GLGSV,3,1,10,65,03,237,,70,18,054,,71,65,047,19,72,58,239,23,0*7C
$GLGSV,3,2,10,73,05,095,,79,12,352,18,80,20,044,16,86,38,173,17,0*7F
$GLGSV,3,3,10,87,72,244,12,88,24,325,26,0*75
$GAGSV,1,1,00,0*74
$GNGLL,5552.32663,N,03800.09429,E,130500.00,A,A*78

$GNRMC,130501.00,A,5552.32645,N,03800.09505,E,0.844,,120625,,,A,V*1B
$GNVTG,,T,,M,0.844,N,1.563,K,A*34
$GNGGA,130501.00,5552.32645,N,03800.09505,E,1,11,0.98,145.8,M,12.9,M,,*44
$GNGSA,A,3,08,01,02,10,32,,,,,,,,1.47,0.98,1.09,1*01

$GNGSA,A,3,88,86,71,87,72,80,,,,,,,1.47,0.98,1.09,2*03
$GNGSA,A,3,,,,,,,,,,,,,1.47,0.98,1.09,3*08
$GPGSV,4,1,13,01,66,272,14,02,63,192,19,03,40,271,15,04,02,217,,0*61
$GPGSV,4,2,13,08,07,207,10,10,17,090,11,12,01,038,,17,26,312,,0*6F
$GPGSV,4,3,13,19,09,335,,22,02,306,,28,31,117,16,31,16,144,16,0*68
$GPGSV,4,4,13,32,47,065,17,0*50
$GLGSV,3,1,10,65,03,237,,70,18,054,,71,65,047,20,72,58,239,23,0*76
$GLGSV,3,2,10,73,05,095,,79,12,352,15,80,20,044,16,86,38,173,16,0*73
$GLGSV,3,3,10,87,72,244,16,88,24,325,22,0*75
$GAGSV,1,1,00,0*74
$GNGLL,5552.32645,N,03800.09505,E,130501.00,A,A*72

$GNRMC,130502.00,A,5552.32621,N,03800.09505,E,0.437,,120625,,,A,V*12
$GNVTG,,T,,M,0.437,N,0.810,K,A*34

$GNGGA,130502.00,5552.32621,N,03800.09505,E,1,10,0.92,144.6,M,12.9,M,,*41
$GNGSA,A,3,08,01,10,32,,,,,,,,,1.47,0.92,1.15,1*04
$GNGSA,A,3,88,86,71,87,72,80,,,,,,,1.47,0.92,1.15,2*04
$GNGSA,A,3,,,,,,,,,,,,,1.47,0.92,1.15,3*0F
$GPGSV,4,1,13,01,66,272,12,02,63,192,22,03,40,271,12,04,02,217,,0*68
$GPGSV,4,2,13,08,07,207,10,10,17,090,12,12,01,038,,17,26,312,,0*6C
$GPGSV,4,3,13,19,09,335,,22,02,306,,28,31,117,14,31,16,144,17,0*6B
$GPGSV,4,4,13,32,47,065,17,0*50
$GLGSV,3,1,10,65,03,237,,70,18,054,,71,65,047,20,72,58,239,21,0*74
$GLGSV,3,2,10,73,05,095,,79,12,352,11,80,20,044,16,86,38,173,16,0*77
$GLGSV,3,3,10,87,72,244,12,88,24,325,23,0*70
$GAGSV,1,1,00,0*74
$GNGLL,5552.32621,N,03800.09505,E,130502.00,A,A*73

$GNRMC,130503.00,A,5552.32600,N,03800.09547,E,0.819,,120625,,,A,V*16
$GNVTG,,T,,M,0.819,N,1.516,K,A*3E

$GNGGA,130503.00,5552.32600,N,03800.09547,E,1,10,1.03,144.5,M,12.9,M,,*4F
$GNGSA,A,3,08,01,10,32,,,,,,,,,1.54,1.03,1.15,1*0F
$GNGSA,A,3,88,86,71,87,72,80,,,,,,,1.54,1.03,1.15,2*0F
$GNGSA,A,3,,,,,,,,,,,,,1.54,1.03,1.15,3*04
$GPGSV,4,1,13,01,66,272,14,02,63,192,21,03,40,271,11,04,02,217,,0*6E
$GPGSV,4,2,13,08,07,207,07,10,17,090,07,12,01,038,,17,26,312,04,0*6A
$GPGSV,4,3,13,19,09,335,,22,02,306,,28,31,117,13,31,16,144,20,0*68
$GPGSV,4,4,13,32,47,065,15,0*52
$GLGSV,3,1,10,65,03,237,,70,18,054,,71,65,047,21,72,58,239,20,0*74
$GLGSV,3,2,10,73,05,095,,79,12,352,12,80,20,044,16,86,38,173,16,0*74
$GLGSV,3,3,10,87,72,244,13,88,24,325,22,0*70
$GAGSV,1,1,00,0*74
$GNGLL,5552.32600,N,03800.09547,E,130503.00,A,A*77

$GNRMC,130504.00,A,5552.32701,N,03800.09536,E,1.023,,120625,,,A,V*17
$GNVTG,,T,,M,1.023,N,1.895,K,A*38

$GNGGA,130504.00,5552.32701,N,03800.09536,E,1,10,1.07,144.6,M,12.9,M,,*49
$GNGSA,A,3,01,02,10,32,,,,,,,,,1.96,1.07,1.65,1*08
$GNGSA,A,3,88,86,71,87,72,80,,,,,,,1.96,1.07,1.65,2*02
$GNGSA,A,3,,,,,,,,,,,,,1.96,1.07,1.65,3*09
$GPGSV,4,1,13,01,66,272,14,02,63,192,23,03,40,271,10,04,02,217,,0*6D
$GPGSV,4,2,13,08,07,207,05,10,17,090,12,12,01,038,,17,26,312,07,0*6F
$GPGSV,4,3,13,19,09,335,,22,02,306,,28,31,117,14,31,16,144,19,0*65
$GPGSV,4,4,13,32,47,065,16,0*51
$GLGSV,3,1,10,65,03,237,,70,18,054,,71,65,047,20,72,58,239,18,0*7E
$GLGSV,3,2,10,73,05,095,,79,12,352,13,80,20,044,16,86,38,173,16,0*75
$GLGSV,3,3,10,87,72,244,09,88,24,325,23,0*7A
$GAGSV,1,1,00,0*74
$GNGLL,5552.32701,N,03800.09536,E,130504.00,A,A*76

$GNRMC,130505.00,A,5552.32699,N,03800.09504,E,0.723,,120625,,,A,V*11
$GNVTG,,T,,M,0.723,N,1.339,K,A*33

$GNGGA,130505.00,5552.32699,N,03800.09504,E,1,11,0.91,144.7,M,12.9,M,,*47
$GNGSA,A,3,08,01,02,10,32,,,,,,,,1.42,0.91,1.09,1*0D
$GNGSA,A,3,88,86,71,87,72,80,,,,,,,1.42,0.91,1.09,2*0F
$GNGSA,A,3,,,,,,,,,,,,,1.42,0.91,1.09,3*04
$GPGSV,4,1,13,01,66,272,15,02,63,192,23,03,40,271,12,04,02,217,,0*6E
$GPGSV,4,2,13,08,07,207,08,10,17,090,12,12,01,038,,17,26,312,10,0*64
$GPGSV,4,3,13,19,09,335,,22,02,306,,28,31,117,13,31,16,144,21,0*69
$GPGSV,4,4,13,32,47,065,15,0*52
$GLGSV,3,1,10,65,03,237,,70,18,054,,71,65,047,21,72,58,239,19,0*7E
$GLGSV,3,2,10,73,05,095,,79,12,352,13,80,20,044,18,86,38,173,15,0*78
$GLGSV,3,3,10,87,72,244,14,88,24,325,24,0*71
$GAGSV,1,1,00,0*74
$GNGLL,5552.32699,N,03800.09504,E,130505.00,A,A*76

$GNRMC,130506.00,A,5552.32695,N,03800.09601,E,1.102,,120625,,,A,V*1C
$GNVTG,,T,,M,1.102,N,2.041,K,A*38

$GNGGA,130506.00,5552.32695,N,03800.09601,E,1,11,0.91,143.9,M,12.9,M,,*47
$GNGSA,A,3,08,01,02,10,32,,,,,,,,1.42,0.91,1.09,1*0D
$GNGSA,A,3,88,86,71,87,72,80,,,,,,,1.42,0.91,1.09,2*0F
$GNGSA,A,3,,,,,,,,,,,,,1.42,0.91,1.09,3*04
$GPGSV,4,1,13,01,66,272,17,02,63,192,21,03,40,271,14,04,02,217,,0*68
$GPGSV,4,2,13,08,07,207,09,10,17,090,12,12,01,038,,17,26,312,13,0*66
$GPGSV,4,3,13,19,09,335,,22,02,306,,28,31,117,11,31,16,144,22,0*68
$GPGSV,4,4,13,32,47,065,15,0*52
$GLGSV,3,1,10,65,03,237,,70,18,054,,71,65,047,21,72,58,239,21,0*75
$GLGSV,3,2,10,73,05,095,,79,12,352,13,80,20,044,18,86,38,173,18,0*75
$GLGSV,3,3,10,87,72,244,21,88,24,325,24,0*77
$GAGSV,1,1,00,0*74
$GNGLL,5552.32695,N,03800.09601,E,130506.00,A,A*7F

$GNRMC,130507.00,A,5552.32645,N,03800.09651,E,0.966,,120625,,,A,V*1E
$GNVTG,,T,,M,0.966,N,1.789,K,A*33

$GNGGA,130507.00,5552.32645,N,03800.09651,E,1,11,0.91,143.2,M,12.9,M,,*45
$GNGSA,A,3,08,01,02,10,32,,,,,,,,1.42,0.91,1.09,1*0D
$GNGSA,A,3,88,86,71,87,72,80,,,,,,,1.42,0.91,1.09,2*0F
$GNGSA,A,3,,,,,,,,,,,,,1.42,0.91,1.09,3*04
$GPGSV,4,1,13,01,66,272,19,02,63,192,21,03,40,271,15,04,02,217,,0*67
$GPGSV,4,2,13,08,07,207,09,10,17,090,09,12,01,038,,17,26,312,13,0*6C
$GPGSV,4,3,13,19,09,335,,22,02,306,,28,31,117,10,31,16,144,21,0*6A
$GPGSV,4,4,13,32,47,065,17,0*50
$GLGSV,3,1,10,65,03,237,,70,18,054,,71,65,047,23,72,58,239,24,0*72
$GLGSV,3,2,10,73,05,095,,79,12,352,10,80,20,044,15,86,38,173,17,0*74
$GLGSV,3,3,10,87,72,244,21,88,24,325,23,0*70
$GAGSV,1,1,00,0*74
$GNGLL,5552.32645,N,03800.09651,E,130507.00,A,A*76

$GNRMC,130508.00,A,5552.32656,N,03800.09617,E,0.546,,120625,,,A,V*1F
$GNVTG,,T,,M,0.546,N,1.011,K,A*3B
$GNGGA,130508.00,5552.32656,N,03800.09617,E,1,11,0.91,143.2,M,12.9,M,,*4A

$GNGSA,A,3,08,01,02,10,32,,,,,,,,1.42,0.91,1.09,1*0D
$GNGSA,A,3,88,86,71,87,72,80,,,,,,,1.42,0.91,1.09,2*0F
$GNGSA,A,3,,,,,,,,,,,,,1.42,0.91,1.09,3*04
$GPGSV,4,1,13,01,66,272,19,02,63,192,21,03,40,271,17,04,02,217,,0*65
$GPGSV,4,2,13,08,07,207,09,10,17,090,11,12,01,038,,17,26,312,11,0*67
$GPGSV,4,3,13,19,09,335,,22,02,306,,28,31,117,11,31,16,144,19,0*60
$GPGSV,4,4,13,32,47,065,20,0*54
$GLGSV,3,1,10,65,04,237,,70,18,054,,71,65,047,24,72,58,239,25,0*73
$GLGSV,3,2,10,73,05,095,,79,12,352,10,80,20,044,15,86,38,173,17,0*74
$GLGSV,3,3,10,87,72,244,20,88,24,325,24,0*76
$GAGSV,1,1,00,0*74
$GNGLL,5552.32656,N,03800.09617,E,130508.00,A,A*79

$GNRMC,130509.00,A,5552.32653,N,03800.09580,E,0.363,,120625,,,A,V*17
$GNVTG,,T,,M,0.363,N,0.673,K,A*39

$GNGGA,130509.00,5552.32653,N,03800.09580,E,1,11,0.91,142.8,M,12.9,M,,*48
$GNGSA,A,3,08,01,02,10,32,,,,,,,,1.42,0.91,1.09,1*0D
$GNGSA,A,3,88,86,71,87,72,80,,,,,,,1.42,0.91,1.09,2*0F
$GNGSA,A,3,,,,,,,,,,,,,1.42,0.91,1.09,3*04
$GPGSV,4,1,13,01,66,272,21,02,63,192,20,03,40,271,17,04,02,217,,0*6F
$GPGSV,4,2,13,08,07,207,11,10,17,090,12,12,01,038,,17,26,312,09,0*64
$GPGSV,4,3,13,19,09,335,,22,02,306,,28,31,117,12,31,16,144,19,0*63
$GPGSV,4,4,13,32,47,065,20,0*54
$GLGSV,3,1,10,65,04,237,,70,18,054,,71,65,047,23,72,58,239,23,0*72
$GLGSV,3,2,10,73,05,095,,79,12,352,11,80,20,044,15,86,38,173,17,0*75
$GLGSV,3,3,10,87,72,244,19,88,24,325,24,0*7C
$GAGSV,1,1,00,0*74
$GNGLL,5552.32653,N,03800.09580,E,130509.00,A,A*70

$GNRMC,130510.00,A,5552.32642,N,03800.09585,E,0.106,,120625,,,A,V*1B
$GNVTG,,T,,M,0.106,N,0.195,K,A*37
$GNGGA,130510.00,5552.32642,N,03800.09585,E,1,11,0.98,142.8,M,12.9,M,,*4C
$GNGSA,A,3,08,01,02,10,32,,,,,,,,1.47,0.98,1.09,1*01
$GNGSA,A,3,88,86,71,87,72,80,,,,,,,1.47,0.98,1.09,2*03

$GNGSA,A,3,,,,,,,,,,,,,1.47,0.98,1.09,3*08
$GPGSV,4,1,13,01,66,272,19,02,63,192,19,03,40,271,16,04,02,217,,0*6F
$GPGSV,4,2,13,08,07,207,08,10,17,090,11,12,01,038,,17,26,312,13,0*64
$GPGSV,4,3,13,19,09,335,18,22,02,306,,28,31,117,13,31,16,144,18,0*6A
$GPGSV,4,4,13,32,47,065,18,0*5F
$GLGSV,3,1,10,65,04,237,,70,18,054,,71,65,047,25,72,58,239,21,0*76
$GLGSV,3,2,10,73,05,095,,79,12,352,,80,20,044,15,86,38,173,15,0*77
$GLGSV,3,3,10,87,72,244,19,88,24,325,30,0*79
$GAGSV,1,1,00,0*74
$GNGLL,5552.32642,N,03800.09585,E,130510.00,A,A*7D

$GNRMC,130511.00,A,5552.32578,N,03800.09559,E,0.549,,120625,,,A,V*1E
$GNVTG,,T,,M,0.549,N,1.016,K,A*33

$GNGGA,130511.00,5552.32578,N,03800.09559,E,1,11,0.91,141.4,M,12.9,M,,*40
$GNGSA,A,3,08,01,02,10,32,,,,,,,,1.42,0.91,1.09,1*0D
$GNGSA,A,3,88,86,71,87,72,80,,,,,,,1.42,0.91,1.09,2*0F
$GNGSA,A,3,,,,,,,,,,,,,1.42,0.91,1.09,3*04
$GPGSV,4,1,13,01,66,272,18,02,63,192,20,03,40,271,16,04,02,217,,0*64
$GPGSV,4,2,13,08,07,207,11,10,17,090,10,12,01,038,,17,26,312,15,0*6B
$GPGSV,4,3,13,19,09,335,16,22,02,306,,28,31,117,13,31,16,144,19,0*65
$GPGSV,4,4,13,32,47,065,16,0*51
$GLGSV,3,1,10,65,04,237,,70,18,054,,71,65,047,24,72,58,239,18,0*7D
$GLGSV,3,2,10,73,05,095,,79,12,352,,80,20,044,18,86,38,173,14,0*7B
$GLGSV,3,3,10,87,72,244,21,88,24,325,33,0*71
$GAGSV,1,1,00,0*74
$GNGLL,5552.32578,N,03800.09559,E,130511.00,A,A*77

$GNRMC,130512.00,A,5552.32538,N,03800.09621,E,0.526,,120625,,,A,V*1C
$GNVTG,,T,,M,0.526,N,0.975,K,A*37

$GNGGA,130512.00,5552.32538,N,03800.09621,E,1,11,0.91,140.0,M,12.9,M,,*4E
$GNGSA,A,3,08,01,02,10,32,,,,,,,,1.42,0.91,1.09,1*0D
$GNGSA,A,3,88,86,71,87,72,80,,,,,,,1.42,0.91,1.09,2*0F
$GNGSA,A,3,,,,,,,,,,,,,1.42,0.91,1.09,3*04
$GPGSV,4,1,13,01,66,272,18,02,63,192,21,03,40,271,17,04,02,217,,0*64
$GPGSV,4,2,13,08,07,207,09,10,17,090,11,12,01,038,,17,26,312,16,0*60
$GPGSV,4,3,13,19,09,335,15,22,02,306,,28,31,117,09,31,16,144,21,0*66
$GPGSV,4,4,13,32,47,065,17,0*50
$GLGSV,3,1,10,65,04,237,,70,18,054,,71,65,047,23,72,58,239,19,0*7B
$GLGSV,3,2,10,73,05,095,,79,12,352,,80,20,044,20,86,38,173,13,0*77
$GLGSV,3,3,10,87,72,244,21,88,24,325,29,0*7A
$GAGSV,1,1,00,0*74
$GNGLL,5552.32538,N,03800.09621,E,130512.00,A,A*7C

$GNRMC,130513.00,A,5552.32541,N,03800.09635,E,0.501,,120625,,,A,V*13
$GNVTG,,T,,M,0.501,N,0.927,K,A*35

$GNGGA,130513.00,5552.32541,N,03800.09635,E,1,10,0.98,139.8,M,12.9,M,,*4A
$GNGSA,A,3,08,01,02,10,32,,,,,,,,1.47,0.98,1.09,1*01
$GNGSA,A,3,88,71,87,72,80,,,,,,,,1.47,0.98,1.09,2*0D
$GNGSA,A,3,,,,,,,,,,,,,1.47,0.98,1.09,3*08
$GPGSV,4,1,13,01,66,272,19,02,63,192,21,03,40,271,16,04,02,217,,0*64
$GPGSV,4,2,13,08,07,207,10,10,17,090,12,12,01,038,,17,26,312,16,0*6B
$GPGSV,4,3,13,19,09,335,17,22,02,306,,28,31,117,,31,16,144,21,0*6D
$GPGSV,4,4,13,32,47,065,18,0*5F
$GLGSV,3,1,10,65,04,237,,70,17,054,,71,65,047,22,72,58,239,18,0*74
$GLGSV,3,2,10,73,05,095,,79,12,352,,80,20,044,20,86,38,173,09,0*7C
$GLGSV,3,3,10,87,72,244,22,88,24,325,20,0*70
$GAGSV,1,1,00,0*74
$GNGLL,5552.32541,N,03800.09635,E,130513.00,A,A*76

$GNRMC,130514.00,A,5552.32476,N,03800.09670,E,0.751,,120625,,,A,V*17
$GNVTG,,T,,M,0.751,N,1.390,K,A*35

$GNGGA,130514.00,5552.32476,N,03800.09670,E,1,10,0.98,138.4,M,12.9,M,,*44
$GNGSA,A,3,08,01,02,10,32,,,,,,,,1.47,0.98,1.09,1*01
$GNGSA,A,3,88,71,87,72,80,,,,,,,,1.47,0.98,1.09,2*0D
$GNGSA,A,3,,,,,,,,,,,,,1.47,0.98,1.09,3*08
$GPGSV,4,1,13,01,66,272,20,02,63,192,22,03,40,271,16,04,02,217,,0*6D
$GPGSV,4,2,13,08,07,207,08,10,17,090,09,12,01,038,,17,26,312,14,0*6A
$GPGSV,4,3,13,19,09,335,17,22,02,306,,28,31,117,,31,16,144,20,0*6C
$GPGSV,4,4,13,32,47,065,17,0*50
$GLGSV,3,1,10,65,04,237,,70,17,054,,71,65,047,21,72,58,239,19,0*76
$GLGSV,3,2,10,73,05,095,,79,12,352,,80,20,044,18,86,38,173,10,0*7F
$GLGSV,3,3,10,87,72,244,22,88,24,325,22,0*72
$GAGSV,1,1,00,0*74
$GNGLL,5552.32476,N,03800.09670,E,130514.00,A,A*75

$GNRMC,130515.00,A,5552.32442,N,03800.09658,E,0.790,,120625,,,A,V*16
$GNVTG,,T,,M,0.790,N,1.462,K,A*32

$GNGGA,130515.00,5552.32442,N,03800.09658,E,1,11,0.91,138.0,M,12.9,M,,*44
$GNGSA,A,3,08,01,02,10,32,,,,,,,,1.42,0.91,1.09,1*0D
$GNGSA,A,3,88,86,71,87,72,80,,,,,,,1.42,0.91,1.09,2*0F
$GNGSA,A,3,,,,,,,,,,,,,1.42,0.91,1.09,3*04
$GPGSV,4,1,13,01,66,272,18,02,63,192,22,03,40,271,16,04,02,217,,0*66
$GPGSV,4,2,13,08,07,207,08,10,17,090,10,12,01,038,,17,26,312,11,0*67
$GPGSV,4,3,13,19,09,335,17,22,02,306,,28,31,117,,31,16,144,19,0*66
$GPGSV,4,4,13,32,47,065,17,0*50
$GLGSV,3,1,10,65,04,237,,70,17,054,,71,65,047,20,72,58,240,21,0*72
$GLGSV,3,2,10,73,05,095,,79,12,352,,80,20,044,17,86,38,173,11,0*71
$GLGSV,3,3,10,87,72,244,21,88,24,325,24,0*77
$GAGSV,1,1,00,0*74
$GNGLL,5552.32442,N,03800.09658,E,130515.00,A,A*79

$GNRMC,130516.00,A,5552.32373,N,03800.09507,E,1.781,,120625,,,A,V*18
$GNVTG,,T,,M,1.781,N,3.298,K,A*32

$GNGGA,130516.00,5552.32373,N,03800.09507,E,1,11,0.91,137.3,M,12.9,M,,*47
$GNGSA,A,3,08,01,02,10,32,,,,,,,,1.42,0.91,1.09,1*0D
$GNGSA,A,3,88,86,71,87,72,80,,,,,,,1.42,0.91,1.09,2*0F
$GNGSA,A,3,,,,,,,,,,,,,1.42,0.91,1.09,3*04
$GPGSV,4,1,13,01,66,272,15,02,63,192,22,03,40,271,16,04,02,217,,0*6B
$GPGSV,4,2,13,08,07,207,11,10,17,090,08,12,01,038,,17,26,312,13,0*64
$GPGSV,4,3,13,19,09,335,17,22,02,306,,28,31,117,,31,16,144,17,0*68
$GPGSV,4,4,13,32,47,065,15,0*52
$GLGSV,3,1,10,65,04,237,,70,17,054,,71,65,047,20,72,58,240,21,0*72
$GLGSV,3,2,10,73,06,094,,79,12,352,,80,20,044,18,86,38,173,13,0*7E
$GLGSV,3,3,10,87,72,244,19,88,24,325,24,0*7C
$GAGSV,1,1,00,0*74
$GNGLL,5552.32373,N,03800.09507,E,130516.00,A,A*76

$GNRMC,130517.00,A,5552.32358,N,03800.09496,E,1.440,,120625,,,A,V*17
$GNVTG,,T,,M,1.440,N,2.667,K,A*39

$GNGGA,130517.00,5552.32358,N,03800.09496,E,1,11,0.91,137.5,M,12.9,M,,*40
$GNGSA,A,3,08,01,02,10,32,,,,,,,,1.42,0.91,1.09,1*0D
$GNGSA,A,3,88,86,71,87,72,80,,,,,,,1.42,0.91,1.09,2*0F
$GNGSA,A,3,,,,,,,,,,,,,1.42,0.91,1.09,3*04
$GPGSV,4,1,13,01,66,272,14,02,63,192,23,03,40,271,19,04,02,217,,0*64
$GPGSV,4,2,13,08,07,207,07,10,17,090,10,12,01,038,,17,26,312,15,0*6C
$GPGSV,4,3,13,19,09,335,17,22,02,306,,28,31,117,,31,16,144,15,0*6A
$GPGSV,4,4,13,32,47,065,15,0*52
$GLGSV,3,1,10,65,04,237,,70,17,054,,71,65,047,19,72,58,240,21,0*78
$GLGSV,3,2,10,73,06,094,,79,12,352,,80,20,044,18,86,38,173,12,0*7F
$GLGSV,3,3,10,87,72,244,19,88,24,325,22,0*7A
$GAGSV,1,1,00,0*74
$GNGLL,5552.32358,N,03800.09496,E,130517.00,A,A*77

$GNRMC,130518.00,A,5552.32334,N,03800.09454,E,1.443,,120625,,,A,V*1F
$GNVTG,,T,,M,1.443,N,2.672,K,A*3E

$GNGGA,130518.00,5552.32334,N,03800.09454,E,1,11,0.91,137.4,M,12.9,M,,*4A
$GNGSA,A,3,08,01,02,10,32,,,,,,,,1.42,0.91,1.09,1*0D
$GNGSA,A,3,88,86,71,87,72,80,,,,,,,1.42,0.91,1.09,2*0F
$GNGSA,A,3,,,,,,,,,,,,,1.42,0.91,1.09,3*04
$GPGSV,4,1,13,01,66,272,13,02,63,192,24,03,40,271,17,04,02,217,,0*6A
$GPGSV,4,2,13,08,07,207,08,10,17,090,11,12,01,038,,17,26,312,16,0*61
$GPGSV,4,3,13,19,09,335,15,22,02,306,,28,31,117,,31,16,144,12,0*6F
$GPGSV,4,4,13,32,47,065,14,0*53
$GLGSV,3,1,10,65,04,237,,70,17,054,,71,65,047,17,72,58,240,19,0*7D
$GLGSV,3,2,10,73,06,094,,79,12,352,,80,20,044,20,86,38,173,10,0*76
$GLGSV,3,3,10,87,72,244,20,88,24,325,20,0*72
$GAGSV,1,1,00,0*74
$GNGLL,5552.32334,N,03800.09454,E,130518.00,A,A*7C

$GNRMC,130519.00,A,5552.32347,N,03800.09521,E,0.702,,120625,,,A,V*1E
$GNVTG,,T,,M,0.702,N,1.300,K,A*3A

$GNGGA,130519.00,5552.32347,N,03800.09521,E,1,11,0.91,137.1,M,12.9,M,,*49
$GNGSA,A,3,08,01,02,10,32,,,,,,,,1.42,0.91,1.09,1*0D
$GNGSA,A,3,88,86,71,87,72,80,,,,,,,1.42,0.91,1.09,2*0F
$GNGSA,A,3,,,,,,,,,,,,,1.42,0.91,1.09,3*04
$GPGSV,4,1,13,01,66,272,11,02,63,192,25,03,40,271,15,04,02,217,,0*6B
$GPGSV,4,2,13,08,07,207,11,10,17,090,12,12,01,038,,17,26,312,16,0*6A
$GPGSV,4,3,13,19,09,335,14,22,02,306,,28,31,117,20,31,16,144,12,0*6C
$GPGSV,4,4,13,32,47,065,13,0*54
$GLGSV,3,1,10,65,04,237,,70,17,054,,71,65,047,17,72,58,240,20,0*77
$GLGSV,3,2,10,73,06,094,,79,12,352,,80,20,044,22,86,38,173,13,0*77
$GLGSV,3,3,10,87,72,244,18,88,24,325,17,0*7D
$GAGSV,1,1,00,0*74
$GNGLL,5552.32347,N,03800.09521,E,130519.00,A,A*7A

$GNRMC,130520.00,A,5552.32385,N,03800.09441,E,0.604,,120625,,,A,V*1A
$GNVTG,,T,,M,0.604,N,1.118,K,A*36

$GNGGA,130520.00,5552.32385,N,03800.09441,E,1,10,0.92,137.9,M,12.9,M,,*40
$GNGSA,A,3,08,02,10,32,,,,,,,,,1.46,0.92,1.13,1*00
$GNGSA,A,3,88,86,71,87,72,80,,,,,,,1.46,0.92,1.13,2*03
$GNGSA,A,3,,,,,,,,,,,,,1.46,0.92,1.13,3*08
$GPGSV,4,1,13,01,66,272,08,02,63,192,23,03,40,271,14,04,02,217,,0*64
$GPGSV,4,2,13,08,07,207,15,10,17,090,09,12,01,038,,17,26,312,16,0*64
$GPGSV,4,3,13,19,09,335,17,22,02,306,,28,31,117,19,31,16,144,,0*66
$GPGSV,4,4,13,32,47,065,11,0*56
$GLGSV,3,1,10,65,04,237,,70,17,054,,71,65,047,20,72,58,240,22,0*71
$GLGSV,3,2,10,73,06,094,,79,12,352,,80,20,044,22,86,38,173,18,0*7C
$GLGSV,3,3,10,87,72,244,21,88,24,325,15,0*75
$GAGSV,1,1,00,0*74
$GNGLL,5552.32385,N,03800.09441,E,130520.00,A,A*79

$GNRMC,130521.00,A,5552.32408,N,03800.09452,E,0.181,,120625,,,A,V*11
$GNVTG,,T,,M,0.181,N,0.336,K,A*33

$GNGGA,130521.00,5552.32408,N,03800.09452,E,1,10,0.98,137.7,M,12.9,M,,*45
$GNGSA,A,3,08,01,02,10,32,,,,,,,,1.47,0.98,1.09,1*01
$GNGSA,A,3,88,71,87,72,80,,,,,,,,1.47,0.98,1.09,2*0D
$GNGSA,A,3,,,,,,,,,,,,,1.47,0.98,1.09,3*08
$GPGSV,4,1,13,01,66,272,21,02,63,192,19,03,40,271,14,04,02,217,,0*66
$GPGSV,4,2,13,08,07,207,10,10,17,090,17,12,01,038,,17,26,312,16,0*6E
$GPGSV,4,3,13,19,09,335,18,22,02,306,,28,31,117,16,31,16,144,,0*66
$GPGSV,4,4,13,32,47,065,10,0*57
$GLGSV,3,1,10,65,04,237,,70,17,054,,71,65,047,20,72,58,240,22,0*71
$GLGSV,3,2,10,73,06,094,,79,12,352,,80,20,044,22,86,38,173,07,0*72
$GLGSV,3,3,10,87,72,244,22,88,24,325,15,0*76
$GAGSV,1,1,00,0*74
$GNGLL,5552.32408,N,03800.09452,E,130521.00,A,A*78

$GNRMC,130522.00,A,5552.32394,N,03800.09401,E,0.562,,120625,,,A,V*1F
$GNVTG,,T,,M,0.562,N,1.040,K,A*39
$GNGGA,130522.00,5552.32394,N,03800.09401,E,1,10,0.92,137.5,M,12.9,M,,*4A
$GNGSA,A,3,08,02,10,32,,,,,,,,,1.46,0.92,1.13,1*00

$GNGSA,A,3,88,86,71,87,72,80,,,,,,,1.46,0.92,1.13,2*03
$GNGSA,A,3,,,,,,,,,,,,,1.46,0.92,1.13,3*08
$GPGSV,4,1,13,01,66,272,09,02,63,192,18,03,40,271,14,04,02,217,,0*6D
$GPGSV,4,2,13,08,07,207,09,10,17,090,09,12,01,038,,17,26,312,17,0*68
$GPGSV,4,3,13,19,09,335,19,22,02,306,,28,31,117,16,31,16,144,,0*67
$GPGSV,4,4,13,32,47,065,13,0*54
$GLGSV,3,1,10,65,04,237,,70,17,054,,71,65,047,18,72,58,240,21,0*79
$GLGSV,3,2,10,73,06,094,,79,12,351,,80,20,044,20,86,38,173,16,0*73
$GLGSV,3,3,10,87,72,244,20,88,24,325,13,0*72
$GAGSV,1,1,00,0*74
$GNGLL,5552.32394,N,03800.09401,E,130522.00,A,A*7F

$GNRMC,130523.00,A,5552.32396,N,03800.09317,E,0.565,,120625,,,A,V*1B
$GNVTG,,T,,M,0.565,N,1.047,K,A*39

$GNGGA,130523.00,5552.32396,N,03800.09317,E,1,11,0.91,136.4,M,12.9,M,,*4B
$GNGSA,A,3,08,01,02,10,32,,,,,,,,1.42,0.91,1.09,1*0D
$GNGSA,A,3,88,86,71,87,72,80,,,,,,,1.42,0.91,1.09,2*0F
$GNGSA,A,3,,,,,,,,,,,,,1.42,0.91,1.09,3*04
$GPGSV,4,1,13,01,66,272,09,02,63,192,20,03,40,271,14,04,02,217,,0*66
$GPGSV,4,2,13,08,07,207,08,10,17,090,09,12,01,038,,17,26,312,18,0*66
$GPGSV,4,3,13,19,09,335,20,22,02,306,,28,31,117,15,31,16,144,,0*6E
$GPGSV,4,4,13,32,47,065,15,0*52
$GLGSV,3,1,10,65,04,237,,70,17,054,,71,65,047,16,72,58,240,19,0*7C
$GLGSV,3,2,10,73,06,094,,79,12,351,,80,20,043,18,86,38,173,17,0*7E
$GLGSV,3,3,10,87,72,244,18,88,24,325,13,0*79
$GAGSV,1,1,00,0*74
$GNGLL,5552.32396,N,03800.09317,E,130523.00,A,A*7C

$GNRMC,130524.00,A,5552.32488,N,03800.09154,E,1.514,,120625,,,A,V*16
$GNVTG,,T,,M,1.514,N,2.804,K,A*32

$GNGGA,130524.00,5552.32488,N,03800.09154,E,1,11,0.91,136.5,M,12.9,M,,*40
$GNGSA,A,3,08,01,02,10,32,,,,,,,,1.42,0.91,1.09,1*0D
$GNGSA,A,3,88,86,71,87,72,80,,,,,,,1.42,0.91,1.09,2*0F
$GNGSA,A,3,,,,,,,,,,,,,1.42,0.91,1.09,3*04
$GPGSV,4,1,13,01,66,272,10,02,63,192,20,03,40,271,13,04,02,217,,0*69
$GPGSV,4,2,13,08,07,207,12,10,17,090,13,12,01,038,,17,26,312,17,0*69
$GPGSV,4,3,13,19,09,335,20,22,02,306,,28,31,117,15,31,16,144,,0*6E
$GPGSV,4,4,13,32,47,065,14,0*53
$GLGSV,3,1,10,65,04,237,,70,17,054,,71,65,047,15,72,58,240,18,0*7E
$GLGSV,3,2,10,73,06,094,,79,12,351,,80,20,043,16,86,38,173,20,0*74
$GLGSV,3,3,10,87,72,244,17,88,24,325,11,0*74
$GAGSV,1,1,00,0*74
$GNGLL,5552.32488,N,03800.09154,E,130524.00,A,A*76

$GNRMC,130525.00,A,5552.32543,N,03800.09150,E,1.393,,120625,,,A,V*1C
$GNVTG,,T,,M,1.393,N,2.580,K,A*3A

$GNGGA,130525.00,5552.32543,N,03800.09150,E,1,10,1.36,136.7,M,12.9,M,,*4C
$GNGSA,A,3,08,01,02,10,32,,,,,,,,1.90,1.36,1.32,1*06
$GNGSA,A,3,86,71,87,72,80,,,,,,,,1.90,1.36,1.32,2*04
$GNGSA,A,3,,,,,,,,,,,,,1.90,1.36,1.32,3*0F
$GPGSV,4,1,13,01,66,272,17,02,63,192,19,03,40,271,11,04,02,217,,0*66
$GPGSV,4,2,13,08,07,207,09,10,17,090,11,12,01,038,,17,26,312,17,0*61
$GPGSV,4,3,13,19,09,335,20,22,02,306,,28,31,117,15,31,16,144,,0*6E
$GPGSV,4,4,13,32,47,065,15,0*52
$GLGSV,3,1,10,65,04,237,,70,17,054,,71,65,047,13,72,58,240,15,0*75
$GLGSV,3,2,10,73,06,094,,79,12,351,,80,20,043,18,86,38,173,21,0*7B
$GLGSV,3,3,10,87,72,244,18,88,24,325,10,0*7A
$GAGSV,1,1,00,0*74
$GNGLL,5552.32543,N,03800.09150,E,130525.00,A,A*75

$GNRMC,130526.00,A,5552.32595,N,03800.09099,E,1.277,,120625,,,A,V*1B
$GNVTG,,T,,M,1.277,N,2.365,K,A*3C

$GNGGA,130526.00,5552.32595,N,03800.09099,E,1,11,0.91,137.2,M,12.9,M,,*49
$GNGSA,A,3,08,01,02,10,32,,,,,,,,1.42,0.91,1.09,1*0D
$GNGSA,A,3,88,86,71,87,72,80,,,,,,,1.42,0.91,1.09,2*0F
$GNGSA,A,3,,,,,,,,,,,,,1.42,0.91,1.09,3*04
$GPGSV,4,1,13,01,66,272,15,02,63,192,18,03,40,271,10,04,02,217,,0*64
$GPGSV,4,2,13,08,07,207,13,10,17,090,10,12,01,038,,17,26,312,17,0*6B
$GPGSV,4,3,13,19,09,335,21,22,02,306,,28,31,117,15,31,16,144,,0*6F
$GPGSV,4,4,13,32,47,065,19,0*5E
$GLGSV,3,1,10,65,04,237,,70,17,054,,71,65,047,11,72,58,240,14,0*76
$GLGSV,3,2,10,73,06,094,,79,12,351,,80,20,043,20,86,38,173,20,0*71
$GLGSV,3,3,10,87,72,244,19,88,24,325,08,0*72
$GAGSV,1,1,00,0*74
$GNGLL,5552.32595,N,03800.09099,E,130526.00,A,A*79

$GNRMC,130527.00,A,5552.32643,N,03800.09145,E,1.427,,120625,,,A,V*11
$GNVTG,,T,,M,1.427,N,2.643,K,A*3E

$GNGGA,130527.00,5552.32643,N,03800.09145,E,1,11,0.91,137.0,M,12.9,M,,*42
$GNGSA,A,3,08,01,02,10,32,,,,,,,,1.42,0.91,1.09,1*0D
$GNGSA,A,3,88,86,71,87,72,80,,,,,,,1.42,0.91,1.09,2*0F
$GNGSA,A,3,,,,,,,,,,,,,1.42,0.91,1.09,3*04
$GPGSV,4,1,13,01,66,272,18,02,63,192,18,03,40,271,,04,02,217,,0*68
$GPGSV,4,2,13,08,07,207,09,10,17,090,10,12,01,038,,17,26,312,18,0*6F
$GPGSV,4,3,13,19,09,335,22,22,02,306,,28,31,117,15,31,16,144,,0*6C
$GPGSV,4,4,13,32,47,065,21,0*55
$GLGSV,3,1,10,65,04,237,,70,17,054,,71,65,047,13,72,58,240,18,0*78
$GLGSV,3,2,10,73,06,094,,79,12,351,,80,20,043,20,86,38,173,20,0*71
$GLGSV,3,3,10,87,72,244,19,88,24,325,10,0*7B
$GAGSV,1,1,00,0*74
$GNGLL,5552.32643,N,03800.09145,E,130527.00,A,A*70

$GNRMC,130528.00,A,5552.32718,N,03800.09154,E,1.735,,120625,,,A,V*11
$GNVTG,,T,,M,1.735,N,3.213,K,A*3E

$GNGGA,130528.00,5552.32718,N,03800.09154,E,1,11,0.91,137.0,M,12.9,M,,*42
$GNGSA,A,3,08,01,02,10,32,,,,,,,,1.42,0.91,1.09,1*0D
$GNGSA,A,3,88,86,71,87,72,80,,,,,,,1.42,0.91,1.09,2*0F
$GNGSA,A,3,,,,,,,,,,,,,1.42,0.91,1.09,3*04
$GPGSV,4,1,13,01,66,272,17,02,63,192,18,03,40,271,,04,02,217,,0*67
$GPGSV,4,2,13,08,07,207,08,10,17,090,11,12,01,038,,17,26,312,17,0*60
$GPGSV,4,3,13,19,09,335,22,22,02,306,,28,31,117,17,31,16,144,,0*6E
$GPGSV,4,4,13,32,47,065,20,0*54
$GLGSV,3,1,10,65,04,237,,70,17,054,,71,65,047,12,72,58,240,20,0*72
$GLGSV,3,2,10,73,06,094,,79,12,351,,80,20,043,21,86,38,173,22,0*72
$GLGSV,3,3,10,87,72,244,21,88,24,325,11,0*71
$GAGSV,1,1,00,0*74
$GNGLL,5552.32718,N,03800.09154,E,130528.00,A,A*70

$GNRMC,130529.00,A,5552.32717,N,03800.09099,E,1.314,,120625,,,A,V*18
$GNVTG,,T,,M,1.314,N,2.433,K,A*3C

$GNGGA,130529.00,5552.32717,N,03800.09099,E,1,11,0.91,136.2,M,12.9,M,,*4F
$GNGSA,A,3,08,01,02,10,32,,,,,,,,1.42,0.91,1.09,1*0D
$GNGSA,A,3,88,86,71,87,72,80,,,,,,,1.42,0.91,1.09,2*0F
$GNGSA,A,3,,,,,,,,,,,,,1.42,0.91,1.09,3*04
$GPGSV,4,1,13,01,66,272,16,02,63,192,18,03,40,271,,04,02,217,,0*66
$GPGSV,4,2,13,08,07,207,08,10,17,090,10,12,01,038,,17,26,312,17,0*61
$GPGSV,4,3,13,19,09,335,22,22,02,306,,28,31,117,17,31,16,144,,0*6E
$GPGSV,4,4,13,32,47,065,20,0*54
$GLGSV,3,1,10,65,04,237,,70,17,054,,71,65,047,10,72,58,240,21,0*71
$GLGSV,3,2,10,73,06,094,,79,12,351,,80,20,043,19,86,37,173,22,0*76
$GLGSV,3,3,10,87,72,244,22,88,24,325,18,0*7B
$GAGSV,1,1,00,0*74
$GNGLL,5552.32717,N,03800.09099,E,130529.00,A,A*7E

$GNRMC,130530.00,A,5552.32751,N,03800.08950,E,1.352,,120625,,,A,V*1D
$GNVTG,,T,,M,1.352,N,2.504,K,A*3B

$GNGGA,130530.00,5552.32751,N,03800.08950,E,1,11,0.91,136.2,M,12.9,M,,*48
$GNGSA,A,3,08,01,02,10,32,,,,,,,,1.42,0.91,1.09,1*0D
$GNGSA,A,3,88,86,71,87,72,80,,,,,,,1.42,0.91,1.09,2*0F
$GNGSA,A,3,,,,,,,,,,,,,1.42,0.91,1.09,3*04
$GPGSV,4,1,13,01,66,272,15,02,63,192,18,03,40,271,,04,02,217,,0*65
$GPGSV,4,2,13,08,07,207,11,10,17,090,12,12,01,038,,17,26,312,16,0*6A
$GPGSV,4,3,13,19,09,335,20,22,02,306,,28,31,117,15,31,16,144,,0*6E
$GPGSV,4,4,13,32,47,065,19,0*5E
$GLGSV,3,1,10,65,04,237,,70,17,054,,71,65,047,14,72,58,240,19,0*7E
$GLGSV,3,2,10,73,06,094,,79,12,351,,80,20,043,19,86,37,173,21,0*75
$GLGSV,3,3,10,87,72,242,21,88,24,325,16,0*70
$GAGSV,1,1,00,0*74
$GNGLL,5552.32751,N,03800.08950,E,130530.00,A,A*79

$GNRMC,130531.00,A,5552.32777,N,03800.09031,E,1.140,,120625,,,A,V*16
$GNVTG,,T,,M,1.140,N,2.111,K,A*3A

$GNGGA,130531.00,5552.32777,N,03800.09031,E,1,11,0.91,135.8,M,12.9,M,,*4B
$GNGSA,A,3,08,01,02,10,32,,,,,,,,1.42,0.91,1.09,1*0D
$GNGSA,A,3,88,86,71,87,72,80,,,,,,,1.42,0.91,1.09,2*0F
$GNGSA,A,3,,,,,,,,,,,,,1.42,0.91,1.09,3*04
$GPGSV,4,1,13,01,66,272,13,02,63,192,17,03,40,271,,04,02,217,,0*6C
$GPGSV,4,2,13,08,07,207,10,10,17,090,10,12,01,038,,17,26,312,17,0*68
$GPGSV,4,3,13,19,09,335,20,22,02,306,,28,31,117,13,31,16,144,,0*68
$GPGSV,4,4,13,32,47,065,20,0*54
$GLGSV,3,1,10,65,04,237,,70,17,054,,71,65,047,16,72,58,240,17,0*72
$GLGSV,3,2,10,73,06,094,,79,12,351,19,80,20,043,19,86,37,173,21,0*7D
$GLGSV,3,3,10,87,72,242,18,88,25,325,12,0*7F
$GAGSV,1,1,00,0*74
$GNGLL,5552.32777,N,03800.09031,E,130531.00,A,A*73

$GNRMC,130532.00,A,5552.32813,N,03800.09006,E,1.372,,120625,,,A,V*1F
$GNVTG,,T,,M,1.372,N,2.540,K,A*39

$GNGGA,130532.00,5552.32813,N,03800.09006,E,1,11,0.91,135.6,M,12.9,M,,*4F
$GNGSA,A,3,08,01,02,10,32,,,,,,,,1.42,0.91,1.09,1*0D
$GNGSA,A,3,88,86,71,87,72,80,,,,,,,1.42,0.91,1.09,2*0F
$GNGSA,A,3,,,,,,,,,,,,,1.42,0.91,1.09,3*04
$GPGSV,4,1,13,01,66,271,14,02,63,192,16,03,40,271,,04,02,217,,0*69
$GPGSV,4,2,13,08,07,207,08,10,17,090,12,12,01,038,,17,26,312,20,0*67
$GPGSV,4,3,13,19,09,335,22,22,02,306,,28,31,117,13,31,16,144,,0*6A
$GPGSV,4,4,13,32,47,065,21,0*55
$GLGSV,3,1,10,65,04,237,,70,17,054,,71,65,047,13,72,58,240,17,0*77
$GLGSV,3,2,10,73,06,094,,79,12,351,19,80,20,043,19,86,37,173,24,0*78
$GLGSV,3,3,10,87,72,242,17,88,25,325,13,0*71
$GAGSV,1,1,00,0*74
$GNGLL,5552.32813,N,03800.09006,E,130532.00,A,A*79

$GNRMC,130533.00,A,5552.32867,N,03800.09014,E,1.574,,120625,,,A,V*1E
$GNVTG,,T,,M,1.574,N,2.915,K,A*35
$GNGGA,130533.00,5552.32867,N,03800.09014,E,1,11,0.91,135.3,M,12.9,M,,*4B

$GNGSA,A,3,08,01,02,10,32,,,,,,,,1.42,0.91,1.09,1*0D
$GNGSA,A,3,88,86,71,87,72,80,,,,,,,1.42,0.91,1.09,2*0F
$GNGSA,A,3,,,,,,,,,,,,,1.42,0.91,1.09,3*04
$GPGSV,4,1,13,01,66,271,17,02,63,191,18,03,40,271,,04,02,217,,0*67
$GPGSV,4,2,13,08,07,207,07,10,17,090,08,12,01,038,,17,26,312,21,0*62
$GPGSV,4,3,13,19,09,335,20,22,02,306,,28,31,117,12,31,16,144,,0*69
$GPGSV,4,4,13,32,47,065,22,0*56
$GLGSV,3,1,10,65,04,237,,70,17,054,,71,65,047,12,72,58,240,16,0*77
$GLGSV,3,2,10,73,06,094,,79,12,351,17,80,20,043,18,86,37,173,23,0*70
$GLGSV,3,3,10,87,72,242,17,88,25,325,14,0*76
$GAGSV,1,1,00,0*74
$GNGLL,5552.32867,N,03800.09014,E,130533.00,A,A*78

$GNRMC,130534.00,A,5552.32873,N,03800.08989,E,0.993,,120625,,,A,V*14
$GNVTG,,T,,M,0.993,N,1.839,K,A*3D

$GNGGA,130534.00,5552.32873,N,03800.08989,E,1,11,0.91,135.5,M,12.9,M,,*43
$GNGSA,A,3,08,01,02,10,32,,,,,,,,1.42,0.91,1.09,1*0D
$GNGSA,A,3,88,86,71,87,72,80,,,,,,,1.42,0.91,1.09,2*0F
$GNGSA,A,3,,,,,,,,,,,,,1.42,0.91,1.09,3*04
$GPGSV,4,1,13,01,66,271,17,02,63,191,19,03,41,271,19,04,02,217,,0*6F
$GPGSV,4,2,13,08,07,207,09,10,17,090,11,12,01,038,,17,26,312,21,0*64
$GPGSV,4,3,13,19,09,335,21,22,02,306,,28,31,117,13,31,16,144,,0*69
$GPGSV,4,4,13,32,47,065,23,0*57
$GLGSV,3,1,10,65,04,237,,70,17,054,,71,65,047,07,72,58,240,15,0*70
$GLGSV,3,2,10,73,06,094,,79,12,351,14,80,20,043,19,86,37,173,23,0*72
$GLGSV,3,3,10,87,72,242,14,88,25,325,12,0*73
$GAGSV,1,1,00,0*74
$GNGLL,5552.32873,N,03800.08989,E,130534.00,A,A*76

$GNRMC,130535.00,A,5552.32879,N,03800.08931,E,0.955,,120625,,,A,V*16
$GNVTG,,T,,M,0.955,N,1.769,K,A*3D
$GNGGA,130535.00,5552.32879,N,03800.08931,E,1,11,0.91,134.3,M,12.9,M,,*4C

$GNGSA,A,3,08,01,02,10,32,,,,,,,,1.42,0.91,1.09,1*0D
$GNGSA,A,3,88,86,71,87,72,80,,,,,,,1.42,0.91,1.09,2*0F
$GNGSA,A,3,,,,,,,,,,,,,1.42,0.91,1.09,3*04
$GPGSV,4,1,13,01,66,271,16,02,63,191,21,03,41,271,18,04,02,218,,0*6B
$GPGSV,4,2,13,08,07,207,08,10,17,090,08,12,01,038,,17,26,312,19,0*66
$GPGSV,4,3,13,19,09,335,21,22,02,306,,28,31,117,11,31,16,144,,0*6B
$GPGSV,4,4,13,32,47,065,25,0*51
$GLGSV,3,1,10,65,04,237,,70,17,054,,71,65,047,11,72,58,240,16,0*74
$GLGSV,3,2,10,73,06,094,,79,12,351,09,80,20,043,18,86,37,173,22,0*7E
$GLGSV,3,3,10,87,72,242,12,88,25,325,12,0*75
$GAGSV,1,1,00,0*74
$GNGLL,5552.32879,N,03800.08931,E,130535.00,A,A*7E

$GNRMC,130536.00,A,5552.32916,N,03800.08966,E,1.021,,120625,,,A,V*14
$GNVTG,,T,,M,1.021,N,1.892,K,A*3D

$GNGGA,130536.00,5552.32916,N,03800.08966,E,1,11,0.91,134.5,M,12.9,M,,*43
$GNGSA,A,3,08,01,02,10,32,,,,,,,,1.42,0.91,1.09,1*0D
$GNGSA,A,3,88,86,71,87,72,80,,,,,,,1.42,0.91,1.09,2*0F
$GNGSA,A,3,,,,,,,,,,,,,1.42,0.91,1.09,3*04
$GPGSV,4,1,13,01,66,271,12,02,63,191,21,03,41,271,17,04,02,218,,0*60
$GPGSV,4,2,13,08,07,207,09,10,17,090,09,12,01,038,,17,26,312,17,0*68
$GPGSV,4,3,13,19,09,335,18,22,02,306,,28,31,117,12,31,16,144,22,0*62
$GPGSV,4,4,13,32,47,065,27,0*53
$GLGSV,3,1,10,65,04,237,,70,17,054,,71,65,047,16,72,58,240,19,0*7C
$GLGSV,3,2,10,73,06,094,,79,12,351,08,80,20,043,18,86,37,173,22,0*7F
$GLGSV,3,3,10,87,72,242,09,88,25,325,10,0*7D
$GAGSV,1,1,00,0*74
$GNGLL,5552.32916,N,03800.08966,E,130536.00,A,A*77

$GNRMC,130537.00,A,5552.32914,N,03800.09003,E,0.519,,120625,,,A,V*13
$GNVTG,,T,,M,0.519,N,0.961,K,A*3E

$GNGGA,130537.00,5552.32914,N,03800.09003,E,1,11,0.91,134.8,M,12.9,M,,*46
$GNGSA,A,3,08,01,02,10,32,,,,,,,,1.42,0.91,1.09,1*0D
$GNGSA,A,3,88,86,71,87,72,80,,,,,,,1.42,0.91,1.09,2*0F
$GNGSA,A,3,,,,,,,,,,,,,1.42,0.91,1.09,3*04
$GPGSV,4,1,13,01,66,271,11,02,63,191,19,03,41,271,16,04,02,218,,0*69
$GPGSV,4,2,13,08,07,207,10,10,17,090,11,12,01,038,,17,26,312,15,0*6B
$GPGSV,4,3,13,19,09,335,16,22,02,306,,28,31,117,13,31,16,144,20,0*6F
$GPGSV,4,4,13,32,47,065,25,0*51
$GLGSV,3,1,10,65,04,237,,70,17,054,,71,65,047,14,72,58,240,19,0*7E
$GLGSV,3,2,10,73,06,094,,79,12,351,10,80,20,043,17,86,37,173,23,0*78
$GLGSV,3,3,10,87,72,242,14,88,25,325,10,0*71
$GAGSV,1,1,00,0*74
$GNGLL,5552.32914,N,03800.09003,E,130537.00,A,A*7F

$GNRMC,130538.00,A,5552.32934,N,03800.09032,E,0.240,,120625,,,A,V*17
$GNVTG,,T,,M,0.240,N,0.445,K,A*3E

$GNGGA,130538.00,5552.32934,N,03800.09032,E,1,11,0.91,135.3,M,12.9,M,,*43
$GNGSA,A,3,08,01,02,10,32,,,,,,,,1.42,0.91,1.09,1*0D
$GNGSA,A,3,88,86,71,87,72,80,,,,,,,1.42,0.91,1.09,2*0F
$GNGSA,A,3,,,,,,,,,,,,,1.42,0.91,1.09,3*04
$GPGSV,4,1,13,01,66,271,14,02,63,191,19,03,41,271,16,04,02,218,,0*6C
$GPGSV,4,2,13,08,07,207,10,10,17,090,09,12,01,038,,17,26,312,13,0*64
$GPGSV,4,3,13,19,09,335,14,22,02,306,,28,31,117,13,31,16,144,17,0*69
$GPGSV,4,4,13,32,47,065,24,0*50
$GLGSV,3,1,10,65,04,237,,70,17,054,,71,65,047,18,72,58,240,18,0*73
$GLGSV,3,2,10,73,06,094,,79,12,351,13,80,20,043,16,86,37,173,22,0*7B
$GLGSV,3,3,10,87,72,242,13,88,25,325,10,0*76
$GAGSV,1,1,00,0*74
$GNGLL,5552.32934,N,03800.09032,E,130538.00,A,A*70

$GNRMC,130539.00,A,5552.32983,N,03800.09097,E,1.213,,120625,,,A,V*12
$GNVTG,,T,,M,1.213,N,2.247,K,A*3F

$GNGGA,130539.00,5552.32983,N,03800.09097,E,1,11,0.91,134.7,M,12.9,M,,*44
$GNGSA,A,3,08,01,02,10,32,,,,,,,,1.42,0.91,1.09,1*0D
$GNGSA,A,3,88,86,71,87,72,80,,,,,,,1.42,0.91,1.09,2*0F
$GNGSA,A,3,,,,,,,,,,,,,1.42,0.91,1.09,3*04
$GPGSV,4,1,13,01,66,271,15,02,63,191,18,03,41,271,16,04,02,218,,0*6C
$GPGSV,4,2,13,08,07,207,09,10,17,090,09,12,01,038,,17,26,312,11,0*6E
$GPGSV,4,3,13,19,09,335,14,22,02,306,,28,31,117,11,31,16,144,15,0*69
$GPGSV,4,4,13,32,47,065,22,0*56
$GLGSV,3,1,10,65,04,237,,70,17,054,,71,65,047,21,72,58,240,17,0*76
$GLGSV,3,2,10,73,06,094,,79,12,351,13,80,20,043,15,86,37,173,22,0*78
$GLGSV,3,3,10,87,72,242,18,88,25,325,16,0*7B
$GAGSV,1,1,00,0*74
$GNGLL,5552.32983,N,03800.09097,E,130539.00,A,A*72

$GNRMC,130540.00,A,5552.32996,N,03800.09207,E,1.382,,120625,,,A,V*1A
$GNVTG,,T,,M,1.382,N,2.560,K,A*34
$GNGGA,130540.00,5552.32996,N,03800.09207,E,1,11,0.91,134.3,M,12.9,M,,*41

$GNGSA,A,3,08,01,02,10,32,,,,,,,,1.42,0.91,1.09,1*0D
$GNGSA,A,3,88,86,71,87,72,80,,,,,,,1.42,0.91,1.09,2*0F
$GNGSA,A,3,,,,,,,,,,,,,1.42,0.91,1.09,3*04
$GPGSV,4,1,13,01,66,271,13,02,63,191,18,03,41,271,15,04,02,218,,0*69
$GPGSV,4,2,13,08,07,207,10,10,17,090,13,12,01,038,,17,26,312,11,0*6D
$GPGSV,4,3,13,19,09,335,15,22,02,306,,28,31,117,11,31,16,144,13,0*6E
$GPGSV,4,4,13,32,47,065,25,0*51
$GLGSV,3,1,10,65,04,237,,70,17,054,,71,65,047,23,72,58,240,17,0*74
$GLGSV,3,2,10,73,06,094,,79,12,351,12,80,20,043,13,86,37,173,21,0*7C
$GLGSV,3,3,10,87,72,242,18,88,25,325,13,0*7E
$GAGSV,1,1,00,0*74
$GNGLL,5552.32996,N,03800.09207,E,130540.00,A,A*73

$GNRMC,130541.00,A,5552.33089,N,03800.09223,E,2.285,,120625,,,A,V*1E
$GNVTG,,T,,M,2.285,N,4.233,K,A*36

$GNGGA,130541.00,5552.33089,N,03800.09223,E,1,10,0.91,133.5,M,12.9,M,,*40
$GNGSA,A,3,08,01,02,10,32,,,,,,,,1.47,0.91,1.15,1*05
$GNGSA,A,3,88,86,71,72,80,,,,,,,,1.47,0.91,1.15,2*08
$GNGSA,A,3,,,,,,,,,,,,,1.47,0.91,1.15,3*0C
$GPGSV,4,1,13,01,66,271,09,02,63,191,17,03,41,271,18,04,02,218,,0*60
$GPGSV,4,2,13,08,07,207,09,10,16,090,17,12,01,038,,17,26,312,10,0*61
$GPGSV,4,3,13,19,09,335,14,22,02,306,,28,31,117,10,31,16,144,10,0*6D
$GPGSV,4,4,13,32,47,065,24,0*50
$GLGSV,3,1,10,65,04,237,,70,17,054,,71,65,047,22,72,58,240,17,0*75
$GLGSV,3,2,10,73,06,094,,79,12,351,12,80,20,043,14,86,37,173,19,0*70
$GLGSV,3,3,10,87,72,242,05,88,25,325,14,0*75
$GAGSV,1,1,00,0*74
$GNGLL,5552.33089,N,03800.09223,E,130541.00,A,A*72

$GNRMC,130542.00,A,5552.33108,N,03800.09159,E,1.232,,120625,,,A,V*14
$GNVTG,,T,,M,1.232,N,2.281,K,A*36

$GNGGA,130542.00,5552.33108,N,03800.09159,E,1,10,0.91,133.6,M,12.9,M,,*46
$GNGSA,A,3,08,01,02,10,32,,,,,,,,1.47,0.91,1.15,1*05
$GNGSA,A,3,88,86,71,72,80,,,,,,,,1.47,0.91,1.15,2*08
$GNGSA,A,3,,,,,,,,,,,,,1.47,0.91,1.15,3*0C
$GPGSV,4,1,13,01,66,271,13,02,63,191,16,03,41,271,15,04,02,218,,0*67
$GPGSV,4,2,13,08,07,207,08,10,16,090,12,12,01,038,,17,26,312,11,0*64
$GPGSV,4,3,13,19,09,335,13,22,02,306,,28,31,117,11,31,16,144,09,0*63
$GPGSV,4,4,13,32,47,065,25,0*51
$GLGSV,3,1,10,65,04,237,,70,17,054,,71,65,047,21,72,58,240,14,0*75
$GLGSV,3,2,10,73,06,094,,79,12,351,13,80,20,043,14,86,37,173,19,0*71
$GLGSV,3,3,10,87,72,242,07,88,25,325,13,0*70
$GAGSV,1,1,00,0*74
$GNGLL,5552.33108,N,03800.09159,E,130542.00,A,A*77

$GNRMC,130543.00,A,5552.33124,N,03800.09278,E,1.282,,120625,,,A,V*10
$GNVTG,,T,,M,1.282,N,2.375,K,A*37

$GNGGA,130543.00,5552.33124,N,03800.09278,E,1,11,0.91,133.5,M,12.9,M,,*4B
$GNGSA,A,3,08,01,02,10,32,,,,,,,,1.42,0.91,1.09,1*0D
$GNGSA,A,3,88,86,71,87,72,80,,,,,,,1.42,0.91,1.09,2*0F
$GNGSA,A,3,,,,,,,,,,,,,1.42,0.91,1.09,3*04
$GPGSV,4,1,13,01,66,271,09,02,63,191,14,03,41,271,15,04,02,218,,0*6E
$GPGSV,4,2,13,08,07,207,07,10,16,090,09,12,01,037,,17,26,312,09,0*67
$GPGSV,4,3,13,19,09,335,14,22,02,306,,28,31,117,13,31,16,144,15,0*6B
$GPGSV,4,4,13,32,47,065,25,0*51
$GLGSV,3,1,10,65,04,237,,70,17,054,,71,65,047,21,72,58,240,13,0*72
$GLGSV,3,2,10,73,06,094,,79,12,351,,80,20,043,13,86,37,173,20,0*7E
$GLGSV,3,3,10,87,72,242,12,88,25,325,20,0*74
$GAGSV,1,1,00,0*74
$GNGLL,5552.33124,N,03800.09278,E,130543.00,A,A*78

$GNRMC,130544.00,A,5552.33109,N,03800.09388,E,1.238,,120625,,,A,V*17
$GNVTG,,T,,M,1.238,N,2.292,K,A*3E

$GNGGA,130544.00,5552.33109,N,03800.09388,E,1,11,0.91,133.2,M,12.9,M,,*4A
$GNGSA,A,3,08,01,02,10,32,,,,,,,,1.42,0.91,1.09,1*0D
$GNGSA,A,3,88,86,71,87,72,80,,,,,,,1.42,0.91,1.09,2*0F
$GNGSA,A,3,,,,,,,,,,,,,1.42,0.91,1.09,3*04
$GPGSV,4,1,13,01,66,271,13,02,63,191,16,03,41,271,16,04,02,218,,0*64
$GPGSV,4,2,13,08,07,207,10,10,16,090,13,12,01,037,,17,26,312,09,0*6A
$GPGSV,4,3,13,19,09,335,15,22,02,306,,28,31,117,11,31,16,144,19,0*64
$GPGSV,4,4,13,32,47,065,25,0*51
$GLGSV,3,1,10,65,04,237,,70,17,054,,71,65,047,20,72,58,240,13,0*73
$GLGSV,3,2,10,73,06,094,,79,12,351,,80,20,043,12,86,37,173,20,0*7F
$GLGSV,3,3,10,87,72,242,15,88,25,325,15,0*75
$GAGSV,1,1,00,0*74
$GNGLL,5552.33109,N,03800.09388,E,130544.00,A,A*7E

$GNRMC,130545.00,A,5552.33134,N,03800.09376,E,0.989,,120625,,,A,V*19
$GNVTG,,T,,M,0.989,N,1.832,K,A*3D
$GNGGA,130545.00,5552.33134,N,03800.09376,E,1,10,0.96,133.0,M,12.9,M,,*40
$GNGSA,A,3,08,01,02,10,32,,,,,,,,1.50,0.96,1.16,1*07

$GNGSA,A,3,88,86,71,87,72,,,,,,,,1.50,0.96,1.16,2*0D
$GNGSA,A,3,,,,,,,,,,,,,1.50,0.96,1.16,3*0E
$GPGSV,4,1,13,01,66,271,11,02,63,191,16,03,41,271,18,04,02,218,,0*68
$GPGSV,4,2,13,08,07,207,11,10,16,090,10,12,01,037,,17,26,312,10,0*60
$GPGSV,4,3,13,19,09,335,13,22,02,306,,28,31,117,09,31,16,144,20,0*61
$GPGSV,4,4,13,32,47,065,25,0*51
$GLGSV,3,1,10,65,04,237,,70,17,054,,71,65,047,22,72,58,240,15,0*77
$GLGSV,3,2,10,73,06,094,,79,12,351,,80,20,043,09,86,37,173,21,0*74
$GLGSV,3,3,10,87,72,242,17,88,25,325,18,0*7A
$GAGSV,1,1,00,0*74
$GNGLL,5552.33134,N,03800.09376,E,130545.00,A,A*70

$GNRMC,130546.00,A,5552.33115,N,03800.09660,E,2.336,,120625,,,A,V*17
$GNVTG,,T,,M,2.336,N,4.327,K,A*3B

$GNGGA,130546.00,5552.33115,N,03800.09660,E,1,11,0.91,132.6,M,12.9,M,,*43
$GNGSA,A,3,08,01,02,10,32,,,,,,,,1.42,0.91,1.09,1*0D
$GNGSA,A,3,88,86,71,87,72,80,,,,,,,1.42,0.91,1.09,2*0F
$GNGSA,A,3,,,,,,,,,,,,,1.42,0.91,1.09,3*04
$GPGSV,4,1,13,01,66,271,19,02,63,191,17,03,41,271,19,04,02,218,,0*60
$GPGSV,4,2,13,08,07,207,09,10,16,090,16,12,01,037,,17,26,312,08,0*66
$GPGSV,4,3,13,19,09,335,13,22,02,306,,28,31,117,10,31,16,144,18,0*62
$GPGSV,4,4,13,32,47,065,24,0*50
$GLGSV,3,1,10,65,04,237,,70,17,054,,71,65,047,22,72,58,240,13,0*71
$GLGSV,3,2,10,73,06,094,,79,12,351,,80,20,043,10,86,37,173,21,0*7C
$GLGSV,3,3,10,87,72,242,17,88,25,325,18,0*7A
$GAGSV,1,1,00,0*74
$GNGLL,5552.33115,N,03800.09660,E,130546.00,A,A*72

$GNRMC,130547.00,A,5552.33153,N,03800.09644,E,1.905,,120625,,,A,V*1B
$GNVTG,,T,,M,1.905,N,3.529,K,A*3D
$GNGGA,130547.00,5552.33153,N,03800.09644,E,1,10,0.92,131.8,M,12.9,M,,*49

$GNGSA,A,3,08,02,10,32,,,,,,,,,1.46,0.92,1.13,1*00
$GNGSA,A,3,88,86,71,87,72,80,,,,,,,1.46,0.92,1.13,2*03
$GNGSA,A,3,,,,,,,,,,,,,1.46,0.92,1.13,3*08
$GPGSV,4,1,13,01,66,271,07,02,63,191,18,03,41,271,19,04,02,218,,0*60
$GPGSV,4,2,13,08,07,207,09,10,16,090,10,12,01,037,,17,26,312,07,0*6F
$GPGSV,4,3,13,19,09,335,13,22,02,306,,28,31,117,14,31,16,144,17,0*69
$GPGSV,4,4,13,32,47,065,22,0*56
$GLGSV,3,1,10,65,04,237,,70,17,054,,71,65,047,21,72,58,240,12,0*73
$GLGSV,3,2,10,73,06,094,,79,12,351,,80,20,043,13,86,37,173,20,0*7E
$GLGSV,3,3,10,87,72,242,17,88,25,325,28,0*79
$GAGSV,1,1,00,0*74
$GNGLL,5552.33153,N,03800.09644,E,130547.00,A,A*77

$GNRMC,130548.00,A,5552.33213,N,03800.09583,E,1.440,,120625,,,A,V*17
$GNVTG,,T,,M,1.440,N,2.666,K,A*38
$GNGGA,130548.00,5552.33213,N,03800.09583,E,1,10,0.92,131.2,M,12.9,M,,*43
$GNGSA,A,3,08,02,10,32,,,,,,,,,1.46,0.92,1.13,1*00
$GNGSA,A,3,88,86,71,87,72,80,,,,,,,1.46,0.92,1.13,2*03
$GNGSA,A,3,,,,,,,,,,,,,1.46,0.92,1.13,3*08
$GPGSV,4,1,13,01,66,271,07,02,63,191,18,03,41,271,16,04,02,218,,0*6F
$GPGSV,4,2,13,08,07,207,09,10,16,090,10,12,01,037,,17,26,312,07,0*6F
$GPGSV,4,3,13,19,09,335,12,22,02,306,,28,31,117,14,31,16,144,16,0*69

$GPGSV,4,4,13,32,47,065,19,0*5E
$GLGSV,3,1,10,65,04,237,,70,17,054,,71,65,047,20,72,58,240,15,0*75
$GLGSV,3,2,10,73,06,094,,79,12,351,,80,20,043,11,86,37,173,21,0*7D
$GLGSV,3,3,10,87,72,242,17,88,25,325,24,0*75
$GAGSV,1,1,00,0*74
$GNGLL,5552.33213,N,03800.09583,E,130548.00,A,A*77

$GNRMC,130549.00,A,5552.33294,N,03800.09624,E,2.027,,120625,,,A,V*11
$GNVTG,,T,,M,2.027,N,3.754,K,A*3F
$GNGGA,130549.00,5552.33294,N,03800.09624,E,1,11,0.91,131.4,M,12.9,M,,*47
$GNGSA,A,3,08,01,02,10,32,,,,,,,,1.42,0.91,1.09,1*0D
$GNGSA,A,3,88,86,71,87,72,80,,,,,,,1.42,0.91,1.09,2*0F
$GNGSA,A,3,,,,,,,,,,,,,1.42,0.91,1.09,3*04
$GPGSV,4,1,13,01,66,271,12,02,63,191,20,03,41,271,18,04,02,218,,0*6E

$GPGSV,4,2,13,08,07,207,10,10,16,090,11,12,01,037,,17,26,312,08,0*69
$GPGSV,4,3,13,19,09,335,14,22,02,306,,28,31,117,12,31,16,144,15,0*6A
$GPGSV,4,4,13,32,47,065,18,0*5F
$GLGSV,3,1,10,65,04,237,,70,17,054,,71,65,047,18,72,58,240,17,0*7C
$GLGSV,3,2,10,73,06,094,,79,12,351,,80,20,043,10,86,37,173,20,0*7D
$GLGSV,3,3,10,87,72,242,16,88,25,325,24,0*74
$GAGSV,1,1,00,0*74
$GNGLL,5552.33294,N,03800.09624,E,130549.00,A,A*77

$GNRMC,130550.00,A,5552.33292,N,03800.09644,E,1.321,,120625,,,A,V*1F
$GNVTG,,T,,M,1.321,N,2.446,K,A*38
$GNGGA,130550.00,5552.33292,N,03800.09644,E,1,11,0.91,130.4,M,12.9,M,,*4E

$GNGSA,A,3,08,01,02,10,32,,,,,,,,1.42,0.91,1.09,1*0D
$GNGSA,A,3,88,86,71,87,72,80,,,,,,,1.42,0.91,1.09,2*0F
$GNGSA,A,3,,,,,,,,,,,,,1.42,0.91,1.09,3*04
$GPGSV,4,1,13,01,66,271,16,02,63,191,22,03,41,271,19,04,02,218,,0*69
$GPGSV,4,2,13,08,07,207,08,10,16,090,12,12,01,037,,17,26,312,11,0*6B
$GPGSV,4,3,13,19,10,335,17,22,02,306,,28,31,117,09,31,16,144,14,0*6A
$GPGSV,4,4,13,32,47,065,18,0*5F
$GLGSV,3,1,10,65,04,237,,70,17,054,,71,65,047,17,72,58,240,14,0*70
$GLGSV,3,2,10,73,06,094,,79,12,351,,80,20,043,13,86,37,173,20,0*7E
$GLGSV,3,3,10,87,72,242,13,88,25,325,21,0*74
$GAGSV,1,1,00,0*74
$GNGLL,5552.33292,N,03800.09644,E,130550.00,A,A*7F

$GNRMC,130551.00,A,5552.33283,N,03800.09640,E,0.682,,120625,,,A,V*17
$GNVTG,,T,,M,0.682,N,1.262,K,A*36

$GNGGA,130551.00,5552.33283,N,03800.09640,E,1,10,0.91,130.4,M,12.9,M,,*4A
$GNGSA,A,3,08,01,02,10,32,,,,,,,,1.47,0.91,1.15,1*05
$GNGSA,A,3,88,86,71,72,80,,,,,,,,1.47,0.91,1.15,2*08
$GNGSA,A,3,,,,,,,,,,,,,1.47,0.91,1.15,3*0C
$GPGSV,4,1,13,01,66,271,16,02,63,191,19,03,41,271,17,04,02,218,,0*6F
$GPGSV,4,2,13,08,07,207,08,10,16,090,12,12,01,037,,17,26,312,12,0*68
$GPGSV,4,3,13,19,10,335,16,22,02,306,,28,31,117,,31,16,144,16,0*60
$GPGSV,4,4,13,32,47,065,15,0*52
$GLGSV,3,1,10,65,04,237,,70,17,054,,71,65,047,18,72,58,240,12,0*79
$GLGSV,3,2,10,73,06,094,,79,12,351,,80,20,043,13,86,37,173,20,0*7E
$GLGSV,3,3,10,87,72,242,09,88,25,325,22,0*7C
$GAGSV,1,1,00,0*74
$GNGLL,5552.33283,N,03800.09640,E,130551.00,A,A*7A

$GNRMC,130552.00,A,5552.33233,N,03800.09732,E,1.158,,120625,,,A,V*1A
$GNVTG,,T,,M,1.158,N,2.145,K,A*32
$GNGGA,130552.00,5552.33233,N,03800.09732,E,1,10,1.07,130.4,M,12.9,M,,*48
$GNGSA,A,3,01,02,10,32,,,,,,,,,1.97,1.07,1.65,1*09
$GNGSA,A,3,88,86,71,87,72,80,,,,,,,1.97,1.07,1.65,2*03
$GNGSA,A,3,,,,,,,,,,,,,1.97,1.07,1.65,3*08
$GPGSV,4,1,13,01,66,271,15,02,63,191,16,03,41,271,13,04,02,218,,0*67
$GPGSV,4,2,13,08,07,207,07,10,16,090,09,12,01,037,,17,26,312,12,0*6D

$GPGSV,4,3,13,19,10,335,16,22,02,306,,28,31,117,,31,16,144,19,0*6F
$GPGSV,4,4,13,32,47,065,12,0*55
$GLGSV,3,1,10,65,04,237,,70,17,054,,71,65,047,20,72,58,240,12,0*72
$GLGSV,3,2,10,73,06,094,,79,12,351,,80,20,043,11,86,37,173,20,0*7C
$GLGSV,3,3,10,87,72,242,11,88,25,325,23,0*74
$GAGSV,1,1,00,0*74
$GNGLL,5552.33233,N,03800.09732,E,130552.00,A,A*76

$GNRMC,130553.00,A,5552.33203,N,03800.09807,E,1.238,,120625,,,A,V*14
$GNVTG,,T,,M,1.238,N,2.293,K,A*3F
$GNGGA,130553.00,5552.33203,N,03800.09807,E,1,11,0.91,129.2,M,12.9,M,,*42
$GNGSA,A,3,08,01,02,10,32,,,,,,,,1.42,0.91,1.09,1*0D
$GNGSA,A,3,88,86,71,87,72,80,,,,,,,1.42,0.91,1.09,2*0F
$GNGSA,A,3,,,,,,,,,,,,,1.42,0.91,1.09,3*04

$GPGSV,4,1,13,01,66,271,14,02,63,191,17,03,41,271,10,04,02,218,,0*64
$GPGSV,4,2,13,08,07,207,09,10,16,090,11,12,01,037,,17,26,312,11,0*69
$GPGSV,4,3,13,19,10,335,17,22,02,306,,28,31,117,,31,16,144,20,0*64
$GPGSV,4,4,13,32,47,065,12,0*55
$GLGSV,3,1,10,65,04,237,,70,17,054,,71,65,047,21,72,58,240,14,0*75
$GLGSV,3,2,10,73,06,094,,79,12,351,,80,20,043,10,86,37,173,20,0*7D
$GLGSV,3,3,10,87,72,242,10,88,25,325,23,0*75
$GAGSV,1,1,00,0*74
$GNGLL,5552.33203,N,03800.09807,E,130553.00,A,A*7D

$GNRMC,130554.00,A,5552.33182,N,03800.09854,E,1.251,,120625,,,A,V*10
$GNVTG,,T,,M,1.251,N,2.318,K,A*32
$GNGGA,130554.00,5552.33182,N,03800.09854,E,1,11,0.91,129.2,M,12.9,M,,*49
$GNGSA,A,3,08,01,02,10,32,,,,,,,,1.42,0.91,1.09,1*0D
$GNGSA,A,3,88,86,71,87,72,80,,,,,,,1.42,0.91,1.09,2*0F

$GNGSA,A,3,,,,,,,,,,,,,1.42,0.91,1.09,3*04
$GPGSV,4,1,13,01,66,271,15,02,63,191,18,03,41,271,13,04,02,218,,0*69
$GPGSV,4,2,13,08,07,207,07,10,16,090,10,12,01,037,,17,26,312,,0*66
$GPGSV,4,3,13,19,10,335,17,22,02,306,,28,31,117,,31,16,144,20,0*64
$GPGSV,4,4,13,32,47,065,14,0*53
$GLGSV,3,1,10,65,04,237,,70,17,054,,71,65,047,20,72,58,240,16,0*76
$GLGSV,3,2,10,73,06,094,,79,12,351,,80,20,043,14,86,37,173,23,0*7A
$GLGSV,3,3,10,87,72,242,11,88,25,325,24,0*73
$GAGSV,1,1,00,0*74
$GNGLL,5552.33182,N,03800.09854,E,130554.00,A,A*76

$GNRMC,130555.00,A,5552.33185,N,03800.09925,E,1.195,,120625,,,A,V*1A
$GNVTG,,T,,M,1.195,N,2.214,K,A*34

$GNGGA,130555.00,5552.33185,N,03800.09925,E,1,10,1.07,129.2,M,12.9,M,,*47
$GNGSA,A,3,01,02,10,32,,,,,,,,,1.97,1.07,1.65,1*09
$GNGSA,A,3,88,86,71,87,72,80,,,,,,,1.97,1.07,1.65,2*03
$GNGSA,A,3,,,,,,,,,,,,,1.97,1.07,1.65,3*08
$GPGSV,4,1,13,01,66,271,15,02,63,191,17,03,41,271,12,04,02,218,,0*67
$GPGSV,4,2,13,08,07,207,03,10,16,090,10,12,01,037,,17,26,312,,0*62
$GPGSV,4,3,13,19,10,335,17,22,02,306,,28,31,117,,31,16,144,18,0*6F
$GPGSV,4,4,13,32,47,065,12,0*55
$GLGSV,3,1,10,65,04,237,,70,17,054,,71,65,047,22,72,58,240,17,0*75
$GLGSV,3,2,10,73,06,094,,79,12,351,,80,20,043,10,86,37,173,23,0*7E
$GLGSV,3,3,10,87,72,242,08,88,25,325,25,0*7A
$GAGSV,1,1,00,0*74
$GNGLL,5552.33185,N,03800.09925,E,130555.00,A,A*77

$GNRMC,130556.00,A,5552.33186,N,03800.09968,E,1.225,,120625,,,A,V*1B

$GNVTG,,T,,M,1.225,N,2.269,K,A*36
$GNGGA,130556.00,5552.33186,N,03800.09968,E,1,11,0.91,129.8,M,12.9,M,,*4B
$GNGSA,A,3,08,01,02,10,32,,,,,,,,1.42,0.91,1.09,1*0D
$GNGSA,A,3,88,86,71,87,72,80,,,,,,,1.42,0.91,1.09,2*0F
$GNGSA,A,3,,,,,,,,,,,,,1.42,0.91,1.09,3*04
$GPGSV,4,1,13,01,66,271,17,02,63,191,16,03,41,271,13,04,02,218,,0*65
$GPGSV,4,2,13,08,07,207,08,10,16,090,11,12,01,037,,17,26,312,,0*68
$GPGSV,4,3,13,19,10,335,16,22,02,306,,28,31,117,,31,16,144,16,0*60
$GPGSV,4,4,13,32,47,065,13,0*54

$GLGSV,3,1,10,65,04,237,,70,17,054,,71,65,047,22,72,58,240,21,0*70
$GLGSV,3,2,10,73,06,094,,79,12,351,,80,20,043,14,86,37,173,20,0*79
$GLGSV,3,3,10,87,72,242,11,88,25,325,25,0*72
$GAGSV,1,1,00,0*74
$GNGLL,5552.33186,N,03800.09968,E,130556.00,A,A*7E

$GNRMC,130557.00,A,5552.33237,N,03800.09956,E,0.847,,120625,,,A,V*11

$GNVTG,,T,,M,0.847,N,1.569,K,A*3D
$GNGGA,130557.00,5552.33237,N,03800.09956,E,1,11,0.91,129.7,M,12.9,M,,*41
$GNGSA,A,3,08,01,02,10,32,,,,,,,,1.42,0.91,1.09,1*0D
$GNGSA,A,3,88,86,71,87,72,80,,,,,,,1.42,0.91,1.09,2*0F
$GNGSA,A,3,,,,,,,,,,,,,1.42,0.91,1.09,3*04
$GPGSV,4,1,13,01,66,271,18,02,63,191,13,03,41,271,15,04,02,218,,0*69
$GPGSV,4,2,13,08,07,207,08,10,16,090,13,12,01,037,,17,26,312,,0*6A
$GPGSV,4,3,13,19,10,335,14,22,02,306,,28,31,117,,31,16,144,15,0*61
$GPGSV,4,4,13,32,47,065,20,0*54

$GLGSV,3,1,10,65,04,237,,70,17,054,,71,65,047,19,72,58,240,17,0*7D
$GLGSV,3,2,10,73,06,094,,79,12,351,,80,20,043,12,86,37,173,18,0*74
$GLGSV,3,3,10,87,72,242,13,88,25,325,26,0*73
$GAGSV,1,1,00,0*74
$GNGLL,5552.33237,N,03800.09956,E,130557.00,A,A*7B

$GNRMC,130558.00,A,5552.33228,N,03800.10048,E,1.032,,120625,,,A,V*15

$GNVTG,,T,,M,1.032,N,1.912,K,A*36
$GNGGA,130558.00,5552.33228,N,03800.10048,E,1,11,0.92,129.2,M,12.9,M,,*48
$GNGSA,A,3,08,01,02,10,32,,,,,,,,1.48,0.92,1.16,1*0A
$GNGSA,A,3,88,86,71,87,72,80,,,,,,,1.48,0.92,1.16,2*08
$GNGSA,A,3,,,,,,,,,,,,,1.48,0.92,1.16,3*03
$GPGSV,4,1,13,01,66,271,17,02,63,191,13,03,41,271,15,04,02,218,,0*66
$GPGSV,4,2,13,08,07,207,09,10,16,090,12,12,01,037,,17,26,312,,0*6A
$GPGSV,4,3,13,19,10,335,12,22,02,306,,28,31,117,,31,16,144,13,0*61
$GPGSV,4,4,13,32,47,065,20,0*54
$GLGSV,3,1,10,65,04,237,,70,17,054,,71,65,047,15,72,58,240,18,0*7E
$GLGSV,3,2,10,73,06,094,,79,12,351,,80,20,043,14,86,37,173,15,0*7F
$GLGSV,3,3,10,87,72,242,14,88,25,325,27,0*75

$GAGSV,1,1,00,0*74
$GNGLL,5552.33228,N,03800.10048,E,130558.00,A,A*74

$GNRMC,130559.00,A,5552.33182,N,03800.10103,E,1.149,,120625,,,A,V*14
$GNVTG,,T,,M,1.149,N,2.128,K,A*39

$GNGGA,130559.00,5552.33182,N,03800.10103,E,1,09,1.04,129.0,M,12.9,M,,*41
$GNGSA,A,3,08,01,02,32,,,,,,,,,1.59,1.04,1.21,1*01
$GNGSA,A,3,88,86,87,72,80,,,,,,,,1.59,1.04,1.21,2*04
$GNGSA,A,3,,,,,,,,,,,,,1.59,1.04,1.21,3*09
$GPGSV,4,1,13,01,66,271,17,02,63,191,17,03,41,271,17,04,02,218,,0*60
$GPGSV,4,2,13,08,07,207,12,10,16,090,05,12,01,037,,17,26,312,,0*66
$GPGSV,4,3,13,19,10,335,12,22,02,306,,28,32,117,,31,16,144,16,0*67

$GPGSV,4,4,13,32,47,065,18,0*5F
$GLGSV,3,1,10,65,04,237,,70,17,054,,71,65,047,,72,58,240,18,0*7A
$GLGSV,3,2,10,73,06,094,,79,12,351,,80,20,043,17,86,37,173,15,0*7C
$GLGSV,3,3,10,87,72,242,16,88,25,325,25,0*75
$GAGSV,1,1,00,0*74
$GNGLL,5552.33182,N,03800.10103,E,130559.00,A,A*78

$GNRMC,130600.00,A,5552.33165,N,03800.10023,E,0.329,,120625,,,A,V*14
$GNVTG,,T,,M,0.329,N,0.609,K,A*3A

$GNGGA,130600.00,5552.33165,N,03800.10023,E,1,10,0.92,128.7,M,12.9,M,,*44
$GNGSA,A,3,08,01,02,10,32,,,,,,,,1.48,0.92,1.16,1*0A
$GNGSA,A,3,88,86,87,72,80,,,,,,,,1.48,0.92,1.16,2*0E
$GNGSA,A,3,,,,,,,,,,,,,1.48,0.92,1.16,3*03
$GPGSV,4,1,13,01,66,271,18,02,63,191,21,03,41,271,17,04,02,218,,0*6A
$GPGSV,4,2,13,08,07,207,09,10,16,090,12,12,01,037,,17,26,312,,0*6A
$GPGSV,4,3,13,19,10,335,11,22,02,306,,28,32,117,,31,16,144,18,0*6A
$GPGSV,4,4,13,32,47,065,19,0*5E
$GLGSV,3,1,10,65,04,237,,70,17,054,,71,65,047,20,72,58,240,17,0*77
$GLGSV,3,2,10,73,06,094,,79,12,351,,80,20,043,19,86,37,173,15,0*72
$GLGSV,3,3,10,87,72,242,11,88,25,325,25,0*72
$GAGSV,1,1,00,0*74
$GNGLL,5552.33165,N,03800.10023,E,130600.00,A,A*7D

$GNRMC,130601.00,A,5552.33163,N,03800.10114,E,0.794,,120625,,,A,V*14
$GNVTG,,T,,M,0.794,N,1.471,K,A*34

$GNGGA,130601.00,5552.33163,N,03800.10114,E,1,10,0.92,128.7,M,12.9,M,,*46
$GNGSA,A,3,08,01,02,10,32,,,,,,,,1.48,0.92,1.16,1*0A
$GNGSA,A,3,88,86,87,72,80,,,,,,,,1.48,0.92,1.16,2*0E
$GNGSA,A,3,,,,,,,,,,,,,1.48,0.92,1.16,3*03
$GPGSV,4,1,13,01,66,271,18,02,63,191,25,03,41,271,19,04,02,218,,0*60
$GPGSV,4,2,13,08,07,207,10,10,16,090,09,12,01,037,,17,26,312,19,0*60
